header:
  stamp:
    sec: 1778501176
    nanosec: 38000000
  frame_id: map
pose:
  pose:
    position:
      x: 0.0
      y: 0.0
      z: 0.0
    orientation:
      x: 0.0
      y: 0.0
      z: 0.0
      w: 1.0
  covariance: '<array type: double[36]>'
---
header:
  stamp:
    sec: 1778501474
    nanosec: 138000000
  frame_id: map
pose:
  pose:
    position:
      x: 0.05496838908385805
      y: -0.0008252288297253582
      z: 0.0
    orientation:
      x: 0.0
      y: 0.0
      z: -0.011552692300188414
      w: 0.9999332654235568
  covariance: '<array type: double[36]>'
---
header:
  stamp:
    sec: 1778501474
    nanosec: 435000000
  frame_id: map
pose:
  pose:
    position:
      x: 0.10645025692407677
      y: -0.0023759752440392417
      z: 0.0
    orientation:
      x: 0.0
      y: 0.0
      z: -0.018597920102406313
      w: 0.999827043726996
  covariance: '<array type: double[36]>'
---
header:
  stamp:
    sec: 1778501474
    nanosec: 846000000
  frame_id: map
pose:
  pose:
    position:
      x: 0.16373711316805967
      y: -0.005329350305352296
      z: 0.0
    orientation:
      x: 0.0
      y: 0.0
      z: -0.02868510081822416
      w: 0.9995884978285056
  covariance: '<array type: double[36]>'
---
header:
  stamp:
    sec: 1778501475
    nanosec: 337000000
  frame_id: map
pose:
  pose:
    position:
      x: 0.22188638798294538
      y: -0.009811882080719548
      z: 0.0
    orientation:
      x: 0.0
      y: 0.0
      z: -0.037815171959928603
      w: 0.999284750593964
  covariance: '<array type: double[36]>'
---
header:
  stamp:
    sec: 1778501475
    nanosec: 799000000
  frame_id: map
pose:
  pose:
    position:
      x: 0.2718619105048851
      y: -0.014533816940794598
      z: 0.0
    orientation:
      x: 0.0
      y: 0.0
      z: -0.04231721962967617
      w: 0.9991042252552101
  covariance: '<array type: double[36]>'
---
header:
  stamp:
    sec: 1778501476
    nanosec: 290000000
  frame_id: map
pose:
  pose:
    position:
      x: 0.3204367873180436
      y: -0.018864463552531557
      z: 0.0
    orientation:
      x: 0.0
      y: 0.0
      z: -0.04664335588049762
      w: 0.9989116063757619
  covariance: '<array type: double[36]>'
---
header:
  stamp:
    sec: 1778501476
    nanosec: 845000000
  frame_id: map
pose:
  pose:
    position:
      x: 0.375222315975645
      y: -0.025303622006305815
      z: 0.0
    orientation:
      x: 0.0
      y: 0.0
      z: -0.05054476777782264
      w: 0.9987217963228228
  covariance: '<array type: double[36]>'
---
header:
  stamp:
    sec: 1778501477
    nanosec: 402000000
  frame_id: map
pose:
  pose:
    position:
      x: 0.4273219508729735
      y: -0.03129373549662423
      z: 0.0
    orientation:
      x: 0.0
      y: 0.0
      z: -0.046747814075018046
      w: 0.9989067233126462
  covariance: '<array type: double[36]>'
---
header:
  stamp:
    sec: 1778501477
    nanosec: 975000000
  frame_id: map
pose:
  pose:
    position:
      x: 0.47624972418476264
      y: -0.03736129429251808
      z: 0.0
    orientation:
      x: 0.0
      y: 0.0
      z: -0.04462405489816399
      w: 0.9990038507055143
  covariance: '<array type: double[36]>'
---
header:
  stamp:
    sec: 1778501478
    nanosec: 611000000
  frame_id: map
pose:
  pose:
    position:
      x: 0.5261586995517966
      y: -0.04178519203559925
      z: 0.0
    orientation:
      x: 0.0
      y: 0.0
      z: -0.02111136557668338
      w: 0.9997771302862891
  covariance: '<array type: double[36]>'
---
header:
  stamp:
    sec: 1778501478
    nanosec: 918000000
  frame_id: map
pose:
  pose:
    position:
      x: 0.5472484251106566
      y: -0.043777262019947846
      z: 0.0
    orientation:
      x: 0.0
      y: 0.0
      z: 0.017847918925888596
      w: 0.9998407132088666
  covariance: '<array type: double[36]>'
---
header:
  stamp:
    sec: 1778501479
    nanosec: 166000000
  frame_id: map
pose:
  pose:
    position:
      x: 0.5613182892883812
      y: -0.042279734379634865
      z: 0.0
    orientation:
      x: 0.0
      y: 0.0
      z: 0.06541020288256072
      w: 0.9978584595817496
  covariance: '<array type: double[36]>'
---
header:
  stamp:
    sec: 1778501479
    nanosec: 958000000
  frame_id: map
pose:
  pose:
    position:
      x: 0.5945612433208559
      y: -0.03674594394766101
      z: 0.0
    orientation:
      x: 0.0
      y: 0.0
      z: 0.10548922755529055
      w: 0.994420445721923
  covariance: '<array type: double[36]>'
---
header:
  stamp:
    sec: 1778501480
    nanosec: 438000000
  frame_id: map
pose:
  pose:
    position:
      x: 0.5898804641534643
      y: -0.036411093919988376
      z: 0.0
    orientation:
      x: 0.0
      y: 0.0
      z: 0.14969174225651483
      w: 0.9887327152978246
  covariance: '<array type: double[36]>'
---
header:
  stamp:
    sec: 1778501480
    nanosec: 596000000
  frame_id: map
pose:
  pose:
    position:
      x: 0.5866380608667839
      y: -0.03609377157564599
      z: 0.0
    orientation:
      x: 0.0
      y: 0.0
      z: 0.1887850988006396
      w: 0.9820184247104699
  covariance: '<array type: double[36]>'
---
header:
  stamp:
    sec: 1778501480
    nanosec: 769000000
  frame_id: map
pose:
  pose:
    position:
      x: 0.5841684787164569
      y: -0.034304761389061314
      z: 0.0
    orientation:
      x: 0.0
      y: 0.0
      z: 0.2283724321501432
      w: 0.9735738452905502
  covariance: '<array type: double[36]>'
---
header:
  stamp:
    sec: 1778501481
    nanosec: 8000000
  frame_id: map
pose:
  pose:
    position:
      x: 0.6101820345016684
      y: -0.024078081572087396
      z: 0.0
    orientation:
      x: 0.0
      y: 0.0
      z: 0.2726801135103882
      w: 0.9621047529744159
  covariance: '<array type: double[36]>'
---
header:
  stamp:
    sec: 1778501484
    nanosec: 197000000
  frame_id: map
pose:
  pose:
    position:
      x: 0.621756478374283
      y: -0.0101534995831126
      z: 0.0
    orientation:
      x: 0.0
      y: 0.0
      z: 0.2275293114780835
      w: 0.9737712320757423
  covariance: '<array type: double[36]>'
---
header:
  stamp:
    sec: 1778501484
    nanosec: 596000000
  frame_id: map
pose:
  pose:
    position:
      x: 0.6171114943979674
      y: -0.012602549660736772
      z: 0.0
    orientation:
      x: 0.0
      y: 0.0
      z: 0.18437126183299363
      w: 0.9828566720586017
  covariance: '<array type: double[36]>'
---
header:
  stamp:
    sec: 1778501484
    nanosec: 921000000
  frame_id: map
pose:
  pose:
    position:
      x: 0.6054562977579742
      y: -0.01420997909463809
      z: 0.0
    orientation:
      x: 0.0
      y: 0.0
      z: 0.14133646094313512
      w: 0.989961617845899
  covariance: '<array type: double[36]>'
---
header:
  stamp:
    sec: 1778501485
    nanosec: 318000000
  frame_id: map
pose:
  pose:
    position:
      x: 0.6088658892805917
      y: -0.01352255931334431
      z: 0.0
    orientation:
      x: 0.0
      y: 0.0
      z: 0.09843327089597101
      w: 0.9951436535398899
  covariance: '<array type: double[36]>'
---
header:
  stamp:
    sec: 1778501486
    nanosec: 35000000
  frame_id: map
pose:
  pose:
    position:
      x: 0.6096807404258286
      y: -0.010897702245344833
      z: 0.0
    orientation:
      x: 0.0
      y: 0.0
      z: 0.056812400968166234
      w: 0.9983848712276405
  covariance: '<array type: double[36]>'
---
header:
  stamp:
    sec: 1778501486
    nanosec: 439000000
  frame_id: map
pose:
  pose:
    position:
      x: 0.6051656464536224
      y: -0.012788993601334434
      z: 0.0
    orientation:
      x: 0.0
      y: 0.0
      z: 0.008900874248661596
      w: 0.9999603864341875
  covariance: '<array type: double[36]>'
---
header:
  stamp:
    sec: 1778501486
    nanosec: 761000000
  frame_id: map
pose:
  pose:
    position:
      x: 0.5983693298554609
      y: -0.01448286786513427
      z: 0.0
    orientation:
      x: 0.0
      y: 0.0
      z: -0.033186075601708526
      w: 0.9994491904975248
  covariance: '<array type: double[36]>'
---
header:
  stamp:
    sec: 1778501487
    nanosec: 179000000
  frame_id: map
pose:
  pose:
    position:
      x: 0.5923020073004597
      y: -0.01505948620690479
      z: 0.0
    orientation:
      x: 0.0
      y: 0.0
      z: -0.0770543636683003
      w: 0.9970268928367345
  covariance: '<array type: double[36]>'
---
header:
  stamp:
    sec: 1778501487
    nanosec: 478000000
  frame_id: map
pose:
  pose:
    position:
      x: 0.5923249923801539
      y: -0.01593259567642456
      z: 0.0
    orientation:
      x: 0.0
      y: 0.0
      z: -0.11962428942235594
      w: 0.9928192329826192
  covariance: '<array type: double[36]>'
---
header:
  stamp:
    sec: 1778501487
    nanosec: 806000000
  frame_id: map
pose:
  pose:
    position:
      x: 0.5915122270756782
      y: -0.016435417766232474
      z: 0.0
    orientation:
      x: 0.0
      y: 0.0
      z: -0.15766866045441374
      w: 0.9874920726317304
  covariance: '<array type: double[36]>'
---
header:
  stamp:
    sec: 1778501488
    nanosec: 39000000
  frame_id: map
pose:
  pose:
    position:
      x: 0.5919247797009153
      y: -0.017557923655909947
      z: 0.0
    orientation:
      x: 0.0
      y: 0.0
      z: -0.1961848300277875
      w: 0.9805669342104945
  covariance: '<array type: double[36]>'
---
header:
  stamp:
    sec: 1778501493
    nanosec: 237000000
  frame_id: map
pose:
  pose:
    position:
      x: 0.604530748919706
      y: -0.023396432523459722
      z: 0.0
    orientation:
      x: 0.0
      y: 0.0
      z: -0.14297042730669682
      w: 0.989726960790571
  covariance: '<array type: double[36]>'
---
header:
  stamp:
    sec: 1778501493
    nanosec: 958000000
  frame_id: map
pose:
  pose:
    position:
      x: 0.5860954066233938
      y: -0.01966808148562775
      z: 0.0
    orientation:
      x: 0.0
      y: 0.0
      z: -0.0993971649354108
      w: 0.9950478398563573
  covariance: '<array type: double[36]>'
---
header:
  stamp:
    sec: 1778501494
    nanosec: 365000000
  frame_id: map
pose:
  pose:
    position:
      x: 0.5923184889120113
      y: -0.02301539439547262
      z: 0.0
    orientation:
      x: 0.0
      y: 0.0
      z: -0.05381093499803683
      w: 0.9985511420426282
  covariance: '<array type: double[36]>'
---
header:
  stamp:
    sec: 1778501495
    nanosec: 798000000
  frame_id: map
pose:
  pose:
    position:
      x: 0.627173903018383
      y: -0.026195420107566453
      z: 0.0
    orientation:
      x: 0.0
      y: 0.0
      z: -0.004216929111268361
      w: 0.9999911087149078
  covariance: '<array type: double[36]>'
---
header:
  stamp:
    sec: 1778501499
    nanosec: 809000000
  frame_id: map
pose:
  pose:
    position:
      x: 0.5927701103300634
      y: -0.02272033851151824
      z: 0.0
    orientation:
      x: 0.0
      y: 0.0
      z: 0.0381528159320367
      w: 0.9992719162652657
  covariance: '<array type: double[36]>'
---
header:
  stamp:
    sec: 1778501500
    nanosec: 37000000
  frame_id: map
pose:
  pose:
    position:
      x: 0.5943427250736313
      y: -0.023225613915301355
      z: 0.0
    orientation:
      x: 0.0
      y: 0.0
      z: 0.08354839805715338
      w: 0.9965037206062421
  covariance: '<array type: double[36]>'
---
header:
  stamp:
    sec: 1778501500
    nanosec: 220000000
  frame_id: map
pose:
  pose:
    position:
      x: 0.5948422258509317
      y: -0.023056310490611517
      z: 0.0
    orientation:
      x: 0.0
      y: 0.0
      z: 0.12558891927309854
      w: 0.992082367223516
  covariance: '<array type: double[36]>'
---
header:
  stamp:
    sec: 1778501500
    nanosec: 435000000
  frame_id: map
pose:
  pose:
    position:
      x: 0.5914500604707423
      y: -0.02171520704386938
      z: 0.0
    orientation:
      x: 0.0
      y: 0.0
      z: 0.17776775305253326
      w: 0.9840724698794564
  covariance: '<array type: double[36]>'
---
header:
  stamp:
    sec: 1778501500
    nanosec: 760000000
  frame_id: map
pose:
  pose:
    position:
      x: 0.6208600910477654
      y: -0.011273092058703952
      z: 0.0
    orientation:
      x: 0.0
      y: 0.0
      z: 0.221117406612771
      w: 0.9752471955831724
  covariance: '<array type: double[36]>'
---
header:
  stamp:
    sec: 1778501501
    nanosec: 718000000
  frame_id: map
pose:
  pose:
    position:
      x: 0.6615692018717284
      y: 0.013233714954203727
      z: 0.0
    orientation:
      x: 0.0
      y: 0.0
      z: 0.22508506559150657
      w: 0.9743391161436901
  covariance: '<array type: double[36]>'
---
header:
  stamp:
    sec: 1778501503
    nanosec: 722000000
  frame_id: map
pose:
  pose:
    position:
      x: 0.6344146453083537
      y: 0.0017918943361138692
      z: 0.0
    orientation:
      x: 0.0
      y: 0.0
      z: 0.17279372170346402
      w: 0.9849580345069864
  covariance: '<array type: double[36]>'
---
header:
  stamp:
    sec: 1778501504
    nanosec: 115000000
  frame_id: map
pose:
  pose:
    position:
      x: 0.6297609752000941
      y: 0.001025130676346533
      z: 0.0
    orientation:
      x: 0.0
      y: 0.0
      z: 0.12881025701410015
      w: 0.9916692582146335
  covariance: '<array type: double[36]>'
---
header:
  stamp:
    sec: 1778501504
    nanosec: 539000000
  frame_id: map
pose:
  pose:
    position:
      x: 0.6330172498698777
      y: 0.000499895586732423
      z: 0.0
    orientation:
      x: 0.0
      y: 0.0
      z: 0.08054457468771055
      w: 0.9967510077689291
  covariance: '<array type: double[36]>'
---
header:
  stamp:
    sec: 1778501504
    nanosec: 835000000
  frame_id: map
pose:
  pose:
    position:
      x: 0.6353642549356101
      y: 0.001034436698991431
      z: 0.0
    orientation:
      x: 0.0
      y: 0.0
      z: 0.033905379226949715
      w: 0.9994250473444604
  covariance: '<array type: double[36]>'
---
header:
  stamp:
    sec: 1778501506
    nanosec: 41000000
  frame_id: map
pose:
  pose:
    position:
      x: 0.6357130819727512
      y: 0.001816766073167094
      z: 0.0
    orientation:
      x: 0.0
      y: 0.0
      z: -0.0074933397260357045
      w: 0.9999719245357592
  covariance: '<array type: double[36]>'
---
header:
  stamp:
    sec: 1778501506
    nanosec: 523000000
  frame_id: map
pose:
  pose:
    position:
      x: 0.6396868868191778
      y: -0.00020925346262283095
      z: 0.0
    orientation:
      x: 0.0
      y: 0.0
      z: -0.04949990978950438
      w: 0.9987741280844388
  covariance: '<array type: double[36]>'
---
header:
  stamp:
    sec: 1778501506
    nanosec: 841000000
  frame_id: map
pose:
  pose:
    position:
      x: 0.6326697484774675
      y: -0.0017481788022715337
      z: 0.0
    orientation:
      x: 0.0
      y: 0.0
      z: -0.09680728413307926
      w: 0.9953031446442723
  covariance: '<array type: double[36]>'
---
header:
  stamp:
    sec: 1778501507
    nanosec: 160000000
  frame_id: map
pose:
  pose:
    position:
      x: 0.6350354846980613
      y: -0.005168440537846366
      z: 0.0
    orientation:
      x: 0.0
      y: 0.0
      z: -0.14488930753314014
      w: 0.9894478705634608
  covariance: '<array type: double[36]>'
---
header:
  stamp:
    sec: 1778501507
    nanosec: 478000000
  frame_id: map
pose:
  pose:
    position:
      x: 0.6264410142667228
      y: -0.002966146049009823
      z: 0.0
    orientation:
      x: 0.0
      y: 0.0
      z: -0.1855278695801006
      w: 0.9826390026907487
  covariance: '<array type: double[36]>'
---
header:
  stamp:
    sec: 1778501507
    nanosec: 795000000
  frame_id: map
pose:
  pose:
    position:
      x: 0.6252304520696466
      y: -0.00663870982231702
      z: 0.0
    orientation:
      x: 0.0
      y: 0.0
      z: -0.22855385519834537
      w: 0.9735312708249149
  covariance: '<array type: double[36]>'
---
header:
  stamp:
    sec: 1778501508
    nanosec: 47000000
  frame_id: map
pose:
  pose:
    position:
      x: 0.6281379529172126
      y: -0.008756131498325041
      z: 0.0
    orientation:
      x: 0.0
      y: 0.0
      z: -0.26224611903630635
      w: 0.9650010223053629
  covariance: '<array type: double[36]>'
---
header:
  stamp:
    sec: 1778501508
    nanosec: 359000000
  frame_id: map
pose:
  pose:
    position:
      x: 0.6240577978866013
      y: -0.012524100835176164
      z: 0.0
    orientation:
      x: 0.0
      y: 0.0
      z: -0.30690444222081703
      w: 0.9517403339909102
  covariance: '<array type: double[36]>'
---
header:
  stamp:
    sec: 1778501510
    nanosec: 849000000
  frame_id: map
pose:
  pose:
    position:
      x: 0.6228668348281112
      y: -0.015771344076698113
      z: 0.0
    orientation:
      x: 0.0
      y: 0.0
      z: -0.3507030554698312
      w: 0.9364867147397898
  covariance: '<array type: double[36]>'
---
header:
  stamp:
    sec: 1778501511
    nanosec: 240000000
  frame_id: map
pose:
  pose:
    position:
      x: 0.6228118972415921
      y: -0.017366726519801
      z: 0.0
    orientation:
      x: 0.0
      y: 0.0
      z: -0.3879545301553259
      w: 0.9216785136542787
  covariance: '<array type: double[36]>'
---
header:
  stamp:
    sec: 1778501511
    nanosec: 567000000
  frame_id: map
pose:
  pose:
    position:
      x: 0.6145737209603311
      y: -0.01796907784082905
      z: 0.0
    orientation:
      x: 0.0
      y: 0.0
      z: -0.42965305182230745
      w: 0.9029940504010963
  covariance: '<array type: double[36]>'
---
header:
  stamp:
    sec: 1778501511
    nanosec: 880000000
  frame_id: map
pose:
  pose:
    position:
      x: 0.6157592515152145
      y: -0.02110354084270658
      z: 0.0
    orientation:
      x: 0.0
      y: 0.0
      z: -0.4711835636856459
      w: 0.8820351746458271
  covariance: '<array type: double[36]>'
---
header:
  stamp:
    sec: 1778501512
    nanosec: 195000000
  frame_id: map
pose:
  pose:
    position:
      x: 0.6085862959926256
      y: -0.01952166037869944
      z: 0.0
    orientation:
      x: 0.0
      y: 0.0
      z: -0.5160985573827955
      w: 0.8565292050288754
  covariance: '<array type: double[36]>'
---
header:
  stamp:
    sec: 1778501512
    nanosec: 516000000
  frame_id: map
pose:
  pose:
    position:
      x: 0.6069498542199212
      y: -0.02348054138464809
      z: 0.0
    orientation:
      x: 0.0
      y: 0.0
      z: -0.557812629876164
      w: 0.8299669089491687
  covariance: '<array type: double[36]>'
---
header:
  stamp:
    sec: 1778501512
    nanosec: 839000000
  frame_id: map
pose:
  pose:
    position:
      x: 0.6073966599859261
      y: -0.031010101217672736
      z: 0.0
    orientation:
      x: 0.0
      y: 0.0
      z: -0.5964540781947312
      w: 0.8026472030754692
  covariance: '<array type: double[36]>'
---
header:
  stamp:
    sec: 1778501513
    nanosec: 242000000
  frame_id: map
pose:
  pose:
    position:
      x: 0.6064120197272642
      y: -0.03628798540948252
      z: 0.0
    orientation:
      x: 0.0
      y: 0.0
      z: -0.6332175327519751
      w: 0.7739738730832594
  covariance: '<array type: double[36]>'
---
header:
  stamp:
    sec: 1778501513
    nanosec: 559000000
  frame_id: map
pose:
  pose:
    position:
      x: 0.6224410510241258
      y: -0.031467711041247536
      z: 0.0
    orientation:
      x: 0.0
      y: 0.0
      z: -0.6731307837439263
      w: 0.7395234600580887
  covariance: '<array type: double[36]>'
---
header:
  stamp:
    sec: 1778501515
    nanosec: 561000000
  frame_id: map
pose:
  pose:
    position:
      x: 0.5999601742650298
      y: -0.08302034454757341
      z: 0.0
    orientation:
      x: 0.0
      y: 0.0
      z: -0.6860998939948825
      w: 0.7275073439218405
  covariance: '<array type: double[36]>'
---
header:
  stamp:
    sec: 1778501516
    nanosec: 123000000
  frame_id: map
pose:
  pose:
    position:
      x: 0.5985572715507737
      y: -0.12881410647312289
      z: 0.0
    orientation:
      x: 0.0
      y: 0.0
      z: -0.668992474731822
      w: 0.7432691765115734
  covariance: '<array type: double[36]>'
---
header:
  stamp:
    sec: 1778501516
    nanosec: 517000000
  frame_id: map
pose:
  pose:
    position:
      x: 0.5969241278647366
      y: -0.12363897089536427
      z: 0.0
    orientation:
      x: 0.0
      y: 0.0
      z: -0.6380164452256527
      w: 0.7700227370809395
  covariance: '<array type: double[36]>'
---
header:
  stamp:
    sec: 1778501517
    nanosec: 78000000
  frame_id: map
pose:
  pose:
    position:
      x: 0.6016501531568226
      y: -0.15859030710785896
      z: 0.0
    orientation:
      x: 0.0
      y: 0.0
      z: -0.6036256754696104
      w: 0.7972678620851693
  covariance: '<array type: double[36]>'
---
header:
  stamp:
    sec: 1778501517
    nanosec: 320000000
  frame_id: map
pose:
  pose:
    position:
      x: 0.6012545972234686
      y: -0.1644606108283487
      z: 0.0
    orientation:
      x: 0.0
      y: 0.0
      z: -0.5661454762667931
      w: 0.8243053437304928
  covariance: '<array type: double[36]>'
---
header:
  stamp:
    sec: 1778501517
    nanosec: 500000000
  frame_id: map
pose:
  pose:
    position:
      x: 0.5993808330806597
      y: -0.16736780302660428
      z: 0.0
    orientation:
      x: 0.0
      y: 0.0
      z: -0.5307629930272474
      w: 0.8475202919297911
  covariance: '<array type: double[36]>'
---
header:
  stamp:
    sec: 1778501518
    nanosec: 847000000
  frame_id: map
pose:
  pose:
    position:
      x: 0.6233246356456275
      y: -0.21201485589630176
      z: 0.0
    orientation:
      x: 0.0
      y: 0.0
      z: -0.5013711753395963
      w: 0.8652323066891294
  covariance: '<array type: double[36]>'
---
header:
  stamp:
    sec: 1778501520
    nanosec: 309000000
  frame_id: map
pose:
  pose:
    position:
      x: 0.6207245592088066
      y: -0.20719650612689916
      z: 0.0
    orientation:
      x: 0.0
      y: 0.0
      z: -0.5438240568599899
      w: 0.8391992583292376
  covariance: '<array type: double[36]>'
---
header:
  stamp:
    sec: 1778501520
    nanosec: 838000000
  frame_id: map
pose:
  pose:
    position:
      x: 0.620617760290043
      y: -0.20452857047768452
      z: 0.0
    orientation:
      x: 0.0
      y: 0.0
      z: -0.5771701266868896
      w: 0.8166239311091978
  covariance: '<array type: double[36]>'
---
header:
  stamp:
    sec: 1778501521
    nanosec: 315000000
  frame_id: map
pose:
  pose:
    position:
      x: 0.6255529560582777
      y: -0.21587571049072635
      z: 0.0
    orientation:
      x: 0.0
      y: 0.0
      z: -0.6123085481489944
      w: 0.7906188979930031
  covariance: '<array type: double[36]>'
---
header:
  stamp:
    sec: 1778501521
    nanosec: 638000000
  frame_id: map
pose:
  pose:
    position:
      x: 0.618541298434547
      y: -0.19168004131014077
      z: 0.0
    orientation:
      x: 0.0
      y: 0.0
      z: -0.6495610143490412
      w: 0.7603094689913079
  covariance: '<array type: double[36]>'
---
header:
  stamp:
    sec: 1778501521
    nanosec: 960000000
  frame_id: map
pose:
  pose:
    position:
      x: 0.6180802672055565
      y: -0.19602422293843147
      z: 0.0
    orientation:
      x: 0.0
      y: 0.0
      z: -0.6871445047914155
      w: 0.7265207702020365
  covariance: '<array type: double[36]>'
---
header:
  stamp:
    sec: 1778501530
    nanosec: 608000000
  frame_id: map
pose:
  pose:
    position:
      x: 0.6172921610442934
      y: -0.19967399032842492
      z: 0.0
    orientation:
      x: 0.0
      y: 0.0
      z: -0.6571574564583038
      w: 0.7537533266402561
  covariance: '<array type: double[36]>'
---
header:
  stamp:
    sec: 1778501530
    nanosec: 919000000
  frame_id: map
pose:
  pose:
    position:
      x: 0.6179816853328466
      y: -0.19840441814500442
      z: 0.0
    orientation:
      x: 0.0
      y: 0.0
      z: -0.6265097047311459
      w: 0.7794136192534055
  covariance: '<array type: double[36]>'
---
header:
  stamp:
    sec: 1778501531
    nanosec: 241000000
  frame_id: map
pose:
  pose:
    position:
      x: 0.6192548599552548
      y: -0.20357873898662873
      z: 0.0
    orientation:
      x: 0.0
      y: 0.0
      z: -0.5934900635794125
      w: 0.8048413163055839
  covariance: '<array type: double[36]>'
---
header:
  stamp:
    sec: 1778501531
    nanosec: 717000000
  frame_id: map
pose:
  pose:
    position:
      x: 0.6208872391727916
      y: -0.2091951850997844
      z: 0.0
    orientation:
      x: 0.0
      y: 0.0
      z: -0.5590280897723765
      w: 0.8291487169654475
  covariance: '<array type: double[36]>'
---
header:
  stamp:
    sec: 1778501531
    nanosec: 959000000
  frame_id: map
pose:
  pose:
    position:
      x: 0.6210065114976245
      y: -0.20548359678818057
      z: 0.0
    orientation:
      x: 0.0
      y: 0.0
      z: -0.5203233114328033
      w: 0.853969350491926
  covariance: '<array type: double[36]>'
---
header:
  stamp:
    sec: 1778501532
    nanosec: 362000000
  frame_id: map
pose:
  pose:
    position:
      x: 0.6220141806138569
      y: -0.2067206638597301
      z: 0.0
    orientation:
      x: 0.0
      y: 0.0
      z: -0.4775170011274861
      w: 0.8786225091779817
  covariance: '<array type: double[36]>'
---
header:
  stamp:
    sec: 1778501532
    nanosec: 675000000
  frame_id: map
pose:
  pose:
    position:
      x: 0.624033014127233
      y: -0.20841148073830632
      z: 0.0
    orientation:
      x: 0.0
      y: 0.0
      z: -0.43934398324922674
      w: 0.8983189101776179
  covariance: '<array type: double[36]>'
---
header:
  stamp:
    sec: 1778501533
    nanosec: 78000000
  frame_id: map
pose:
  pose:
    position:
      x: 0.6232304874798047
      y: -0.20612050128994347
      z: 0.0
    orientation:
      x: 0.0
      y: 0.0
      z: -0.3951710854943556
      w: 0.9186075403507271
  covariance: '<array type: double[36]>'
---
header:
  stamp:
    sec: 1778501533
    nanosec: 327000000
  frame_id: map
pose:
  pose:
    position:
      x: 0.6213562544599148
      y: -0.20167006679349947
      z: 0.0
    orientation:
      x: 0.0
      y: 0.0
      z: -0.3496719211187977
      w: 0.9368722151825666
  covariance: '<array type: double[36]>'
---
header:
  stamp:
    sec: 1778501533
    nanosec: 720000000
  frame_id: map
pose:
  pose:
    position:
      x: 0.6232389800751076
      y: -0.20274309883503988
      z: 0.0
    orientation:
      x: 0.0
      y: 0.0
      z: -0.30761620366266856
      w: 0.9515105208268417
  covariance: '<array type: double[36]>'
---
header:
  stamp:
    sec: 1778501534
    nanosec: 54000000
  frame_id: map
pose:
  pose:
    position:
      x: 0.6200882094543607
      y: -0.19801790689684415
      z: 0.0
    orientation:
      x: 0.0
      y: 0.0
      z: -0.2601026489030355
      w: 0.9655809712466501
  covariance: '<array type: double[36]>'
---
header:
  stamp:
    sec: 1778501534
    nanosec: 358000000
  frame_id: map
pose:
  pose:
    position:
      x: 0.6306630939754742
      y: -0.19931194341671715
      z: 0.0
    orientation:
      x: 0.0
      y: 0.0
      z: -0.2070788887662263
      w: 0.9783242477968871
  covariance: '<array type: double[36]>'
---
header:
  stamp:
    sec: 1778501534
    nanosec: 596000000
  frame_id: map
pose:
  pose:
    position:
      x: 0.6375400687725811
      y: -0.19942893227661113
      z: 0.0
    orientation:
      x: 0.0
      y: 0.0
      z: -0.1656642533134299
      w: 0.9861822119538071
  covariance: '<array type: double[36]>'
---
header:
  stamp:
    sec: 1778501534
    nanosec: 917000000
  frame_id: map
pose:
  pose:
    position:
      x: 0.6413012561356204
      y: -0.1965450288354162
      z: 0.0
    orientation:
      x: 0.0
      y: 0.0
      z: -0.11867727858032215
      w: 0.9929328796795726
  covariance: '<array type: double[36]>'
---
header:
  stamp:
    sec: 1778501535
    nanosec: 236000000
  frame_id: map
pose:
  pose:
    position:
      x: 0.6488972717035504
      y: -0.19371091776646526
      z: 0.0
    orientation:
      x: 0.0
      y: 0.0
      z: -0.07725602932852892
      w: 0.9970112867627876
  covariance: '<array type: double[36]>'
---
header:
  stamp:
    sec: 1778501535
    nanosec: 484000000
  frame_id: map
pose:
  pose:
    position:
      x: 0.6675549490905306
      y: -0.1936734876832429
      z: 0.0
    orientation:
      x: 0.0
      y: 0.0
      z: -0.023721951457245365
      w: 0.9997185949151192
  covariance: '<array type: double[36]>'
---
header:
  stamp:
    sec: 1778501536
    nanosec: 37000000
  frame_id: map
pose:
  pose:
    position:
      x: 0.7247759886043069
      y: -0.19134841573534908
      z: 0.0
    orientation:
      x: 0.0
      y: 0.0
      z: 0.0059333872165315375
      w: 0.9999823973031419
  covariance: '<array type: double[36]>'
---
header:
  stamp:
    sec: 1778501536
    nanosec: 534000000
  frame_id: map
pose:
  pose:
    position:
      x: 0.7887282755833313
      y: -0.18721084111155625
      z: 0.0
    orientation:
      x: 0.0
      y: 0.0
      z: 0.014764735250006772
      w: 0.9998909953554923
  covariance: '<array type: double[36]>'
---
header:
  stamp:
    sec: 1778501537
    nanosec: 75000000
  frame_id: map
pose:
  pose:
    position:
      x: 0.8469016884095695
      y: -0.18386805922910843
      z: 0.0
    orientation:
      x: 0.0
      y: 0.0
      z: 0.014053350670293648
      w: 0.9999012467913708
  covariance: '<array type: double[36]>'
---
header:
  stamp:
    sec: 1778501540
    nanosec: 198000000
  frame_id: map
pose:
  pose:
    position:
      x: 0.8894827067166821
      y: -0.17986723430269688
      z: 0.0
    orientation:
      x: 0.0
      y: 0.0
      z: 0.07718565741783938
      w: 0.997016737216069
  covariance: '<array type: double[36]>'
---
header:
  stamp:
    sec: 1778501540
    nanosec: 275000000
  frame_id: map
pose:
  pose:
    position:
      x: 0.8882205955547322
      y: -0.17562854552541907
      z: 0.0
    orientation:
      x: 0.0
      y: 0.0
      z: 0.13961074101429125
      w: 0.9902064638212783
  covariance: '<array type: double[36]>'
---
header:
  stamp:
    sec: 1778501540
    nanosec: 355000000
  frame_id: map
pose:
  pose:
    position:
      x: 0.8982375594835906
      y: -0.17080874418619962
      z: 0.0
    orientation:
      x: 0.0
      y: 0.0
      z: 0.22739388103789848
      w: 0.9738028665322987
  covariance: '<array type: double[36]>'
---
header:
  stamp:
    sec: 1778501540
    nanosec: 458000000
  frame_id: map
pose:
  pose:
    position:
      x: 0.8887302351777073
      y: -0.1701342645150788
      z: 0.0
    orientation:
      x: 0.0
      y: 0.0
      z: 0.3298106841662733
      w: 0.9440470923686883
  covariance: '<array type: double[36]>'
---
header:
  stamp:
    sec: 1778501540
    nanosec: 535000000
  frame_id: map
pose:
  pose:
    position:
      x: 0.896482193952035
      y: -0.1645925323582994
      z: 0.0
    orientation:
      x: 0.0
      y: 0.0
      z: 0.39939206964502283
      w: 0.9167802215933027
  covariance: '<array type: double[36]>'
---
header:
  stamp:
    sec: 1778501540
    nanosec: 596000000
  frame_id: map
pose:
  pose:
    position:
      x: 0.89559609849853
      y: -0.16322011233883077
      z: 0.0
    orientation:
      x: 0.0
      y: 0.0
      z: 0.4506896238663541
      w: 0.8926807172439676
  covariance: '<array type: double[36]>'
---
header:
  stamp:
    sec: 1778501540
    nanosec: 679000000
  frame_id: map
pose:
  pose:
    position:
      x: 0.9035720041380213
      y: -0.15546912740187102
      z: 0.0
    orientation:
      x: 0.0
      y: 0.0
      z: 0.5268951495852311
      w: 0.8499302920496227
  covariance: '<array type: double[36]>'
---
header:
  stamp:
    sec: 1778501540
    nanosec: 772000000
  frame_id: map
pose:
  pose:
    position:
      x: 0.8951929455700104
      y: -0.16034100428813575
      z: 0.0
    orientation:
      x: 0.0
      y: 0.0
      z: 0.608692126980343
      w: 0.7934065127991741
  covariance: '<array type: double[36]>'
---
header:
  stamp:
    sec: 1778501540
    nanosec: 846000000
  frame_id: map
pose:
  pose:
    position:
      x: 0.889719109140947
      y: -0.15735625733996608
      z: 0.0
    orientation:
      x: 0.0
      y: 0.0
      z: 0.678411472509389
      w: 0.7346821584655793
  covariance: '<array type: double[36]>'
---
header:
  stamp:
    sec: 1778501540
    nanosec: 936000000
  frame_id: map
pose:
  pose:
    position:
      x: 0.8821161406409921
      y: -0.16732324719280348
      z: 0.0
    orientation:
      x: 0.0
      y: 0.0
      z: 0.751975623748622
      w: 0.6591909141423832
  covariance: '<array type: double[36]>'
---
header:
  stamp:
    sec: 1778501541
    nanosec: 9000000
  frame_id: map
pose:
  pose:
    position:
      x: 0.87839084521652
      y: -0.16523379713382866
      z: 0.0
    orientation:
      x: 0.0
      y: 0.0
      z: 0.7868344424616636
      w: 0.6171641274053792
  covariance: '<array type: double[36]>'
---
header:
  stamp:
    sec: 1778501543
    nanosec: 13000000
  frame_id: map
pose:
  pose:
    position:
      x: 0.8929185111549459
      y: -0.1538400530260057
      z: 0.0
    orientation:
      x: 0.0
      y: 0.0
      z: 0.7591175530433762
      w: 0.65095356259985
  covariance: '<array type: double[36]>'
---
header:
  stamp:
    sec: 1778501543
    nanosec: 238000000
  frame_id: map
pose:
  pose:
    position:
      x: 0.8740876733441878
      y: -0.1596445117224575
      z: 0.0
    orientation:
      x: 0.0
      y: 0.0
      z: 0.7374454899461258
      w: 0.6754066548073971
  covariance: '<array type: double[36]>'
---
header:
  stamp:
    sec: 1778501543
    nanosec: 558000000
  frame_id: map
pose:
  pose:
    position:
      x: 0.8738491533802153
      y: -0.15542267815586486
      z: 0.0
    orientation:
      x: 0.0
      y: 0.0
      z: 0.7062994617317164
      w: 0.7079131799574632
  covariance: '<array type: double[36]>'
---
header:
  stamp:
    sec: 1778501544
    nanosec: 278000000
  frame_id: map
pose:
  pose:
    position:
      x: 0.8860121327966043
      y: -0.16186500930242953
      z: 0.0
    orientation:
      x: 0.0
      y: 0.0
      z: 0.6797545328917778
      w: 0.7334396873725071
  covariance: '<array type: double[36]>'
---
header:
  stamp:
    sec: 1778501544
    nanosec: 693000000
  frame_id: map
pose:
  pose:
    position:
      x: 0.8905617590258366
      y: -0.1543615584941001
      z: 0.0
    orientation:
      x: 0.0
      y: 0.0
      z: 0.641722274913542
      w: 0.7669371042528771
  covariance: '<array type: double[36]>'
---
header:
  stamp:
    sec: 1778501545
    nanosec: 237000000
  frame_id: map
pose:
  pose:
    position:
      x: 0.893639130712739
      y: -0.15281993573169936
      z: 0.0
    orientation:
      x: 0.0
      y: 0.0
      z: 0.6059692440167843
      w: 0.7954880736414135
  covariance: '<array type: double[36]>'
---
header:
  stamp:
    sec: 1778501545
    nanosec: 637000000
  frame_id: map
pose:
  pose:
    position:
      x: 0.9001814188227931
      y: -0.1438797861019212
      z: 0.0
    orientation:
      x: 0.0
      y: 0.0
      z: 0.564454745829546
      w: 0.8254640149094947
  covariance: '<array type: double[36]>'
---
header:
  stamp:
    sec: 1778501545
    nanosec: 879000000
  frame_id: map
pose:
  pose:
    position:
      x: 0.902865211420939
      y: -0.13890017571489324
      z: 0.0
    orientation:
      x: 0.0
      y: 0.0
      z: 0.5264002704046244
      w: 0.8502368818852416
  covariance: '<array type: double[36]>'
---
header:
  stamp:
    sec: 1778501546
    nanosec: 121000000
  frame_id: map
pose:
  pose:
    position:
      x: 0.9030550829601908
      y: -0.13932130687714825
      z: 0.0
    orientation:
      x: 0.0
      y: 0.0
      z: 0.4933815307339638
      w: 0.8698130058412616
  covariance: '<array type: double[36]>'
---
header:
  stamp:
    sec: 1778501546
    nanosec: 518000000
  frame_id: map
pose:
  pose:
    position:
      x: 0.9092670552726496
      y: -0.1352088393480497
      z: 0.0
    orientation:
      x: 0.0
      y: 0.0
      z: 0.4455842106885122
      w: 0.8952400299277817
  covariance: '<array type: double[36]>'
---
header:
  stamp:
    sec: 1778501546
    nanosec: 759000000
  frame_id: map
pose:
  pose:
    position:
      x: 0.9115177798154492
      y: -0.13291381020598417
      z: 0.0
    orientation:
      x: 0.0
      y: 0.0
      z: 0.4123602101822587
      w: 0.9110208872789051
  covariance: '<array type: double[36]>'
---
header:
  stamp:
    sec: 1778501547
    nanosec: 162000000
  frame_id: map
pose:
  pose:
    position:
      x: 0.9005144364284307
      y: -0.1423747998748269
      z: 0.0
    orientation:
      x: 0.0
      y: 0.0
      z: 0.3720522991935954
      w: 0.928211768221433
  covariance: '<array type: double[36]>'
---
header:
  stamp:
    sec: 1778501547
    nanosec: 477000000
  frame_id: map
pose:
  pose:
    position:
      x: 0.9025175657411035
      y: -0.14353026549236808
      z: 0.0
    orientation:
      x: 0.0
      y: 0.0
      z: 0.3211745000614504
      w: 0.9470200317365401
  covariance: '<array type: double[36]>'
---
header:
  stamp:
    sec: 1778501547
    nanosec: 794000000
  frame_id: map
pose:
  pose:
    position:
      x: 0.9010552275038596
      y: -0.14665261062667237
      z: 0.0
    orientation:
      x: 0.0
      y: 0.0
      z: 0.27686195277216163
      w: 0.9609097039301796
  covariance: '<array type: double[36]>'
---
header:
  stamp:
    sec: 1778501548
    nanosec: 42000000
  frame_id: map
pose:
  pose:
    position:
      x: 0.9154790608172219
      y: -0.1436184773003017
      z: 0.0
    orientation:
      x: 0.0
      y: 0.0
      z: 0.23737746463023543
      w: 0.9714174896951986
  covariance: '<array type: double[36]>'
---
header:
  stamp:
    sec: 1778501548
    nanosec: 277000000
  frame_id: map
pose:
  pose:
    position:
      x: 0.9290066477639779
      y: -0.13862254913586333
      z: 0.0
    orientation:
      x: 0.0
      y: 0.0
      z: 0.1999588638459499
      w: 0.9798042930960432
  covariance: '<array type: double[36]>'
---
header:
  stamp:
    sec: 1778501548
    nanosec: 522000000
  frame_id: map
pose:
  pose:
    position:
      x: 0.9359569665287185
      y: -0.1349631954627529
      z: 0.0
    orientation:
      x: 0.0
      y: 0.0
      z: 0.1572784753338864
      w: 0.9875542927842743
  covariance: '<array type: double[36]>'
---
header:
  stamp:
    sec: 1778501548
    nanosec: 761000000
  frame_id: map
pose:
  pose:
    position:
      x: 0.9438404675092548
      y: -0.1362566122882439
      z: 0.0
    orientation:
      x: 0.0
      y: 0.0
      z: 0.11513614287112994
      w: 0.9933497211983092
  covariance: '<array type: double[36]>'
---
header:
  stamp:
    sec: 1778501548
    nanosec: 997000000
  frame_id: map
pose:
  pose:
    position:
      x: 0.9531368016268129
      y: -0.13365651103962078
      z: 0.0
    orientation:
      x: 0.0
      y: 0.0
      z: 0.06824084608145835
      w: 0.997668876394411
  covariance: '<array type: double[36]>'
---
header:
  stamp:
    sec: 1778501549
    nanosec: 561000000
  frame_id: map
pose:
  pose:
    position:
      x: 0.9973029337188288
      y: -0.12909936386240495
      z: 0.0
    orientation:
      x: 0.0
      y: 0.0
      z: 0.041953742766043293
      w: 0.9991195541415054
  covariance: '<array type: double[36]>'
---
header:
  stamp:
    sec: 1778501550
    nanosec: 37000000
  frame_id: map
pose:
  pose:
    position:
      x: 1.046289807157711
      y: -0.12439142618715618
      z: 0.0
    orientation:
      x: 0.0
      y: 0.0
      z: 0.036907474422457606
      w: 0.999318687072225
  covariance: '<array type: double[36]>'
---
header:
  stamp:
    sec: 1778501551
    nanosec: 321000000
  frame_id: map
pose:
  pose:
    position:
      x: 1.0936745318744867
      y: -0.11980776763913555
      z: 0.0
    orientation:
      x: 0.0
      y: 0.0
      z: 0.02624420045643187
      w: 0.9996555616523136
  covariance: '<array type: double[36]>'
---
header:
  stamp:
    sec: 1778501551
    nanosec: 718000000
  frame_id: map
pose:
  pose:
    position:
      x: 1.164851038421169
      y: -0.11721962373347083
      z: 0.0
    orientation:
      x: 0.0
      y: 0.0
      z: 0.015424660614301
      w: 0.9998810328458749
  covariance: '<array type: double[36]>'
---
header:
  stamp:
    sec: 1778501552
    nanosec: 52000000
  frame_id: map
pose:
  pose:
    position:
      x: 1.219736500112581
      y: -0.1179847745453981
      z: 0.0
    orientation:
      x: 0.0
      y: 0.0
      z: -0.010142396075002828
      w: 0.9999485645781275
  covariance: '<array type: double[36]>'
---
header:
  stamp:
    sec: 1778501552
    nanosec: 198000000
  frame_id: map
pose:
  pose:
    position:
      x: 1.1646861767920749
      y: -0.12100920439456267
      z: 0.0
    orientation:
      x: 0.0
      y: 0.0
      z: -0.021720835039752917
      w: 0.9997640748322455
  covariance: '<array type: double[36]>'
---
header:
  stamp:
    sec: 1778501552
    nanosec: 677000000
  frame_id: map
pose:
  pose:
    position:
      x: 1.1868576783126603
      y: -0.12274200155426239
      z: 0.0
    orientation:
      x: 0.0
      y: 0.0
      z: -0.0653242489157284
      w: 0.9978640901964535
  covariance: '<array type: double[36]>'
---
header:
  stamp:
    sec: 1778501553
    nanosec: 158000000
  frame_id: map
pose:
  pose:
    position:
      x: 1.2162138600693457
      y: -0.12758857928139763
      z: 0.0
    orientation:
      x: 0.0
      y: 0.0
      z: -0.1134244735268481
      w: 0.9935466213546083
  covariance: '<array type: double[36]>'
---
header:
  stamp:
    sec: 1778501553
    nanosec: 645000000
  frame_id: map
pose:
  pose:
    position:
      x: 1.2370385649447957
      y: -0.13262337876190256
      z: 0.0
    orientation:
      x: 0.0
      y: 0.0
      z: -0.15400297035729343
      w: 0.9880703846999619
  covariance: '<array type: double[36]>'
---
header:
  stamp:
    sec: 1778501554
    nanosec: 124000000
  frame_id: map
pose:
  pose:
    position:
      x: 1.2629722963276033
      y: -0.14014390939075977
      z: 0.0
    orientation:
      x: 0.0
      y: 0.0
      z: -0.19889478119112586
      w: 0.9800208497858268
  covariance: '<array type: double[36]>'
---
header:
  stamp:
    sec: 1778501554
    nanosec: 516000000
  frame_id: map
pose:
  pose:
    position:
      x: 1.288903867563111
      y: -0.1524197859293078
      z: 0.0
    orientation:
      x: 0.0
      y: 0.0
      z: -0.24281574303531817
      w: 0.9700724276744528
  covariance: '<array type: double[36]>'
---
header:
  stamp:
    sec: 1778501555
    nanosec: 78000000
  frame_id: map
pose:
  pose:
    position:
      x: 1.3216477542749685
      y: -0.17409716846926573
      z: 0.0
    orientation:
      x: 0.0
      y: 0.0
      z: -0.28441547357169067
      w: 0.9587011204713338
  covariance: '<array type: double[36]>'
---
header:
  stamp:
    sec: 1778501555
    nanosec: 718000000
  frame_id: map
pose:
  pose:
    position:
      x: 1.3660389470010124
      y: -0.20767493881731744
      z: 0.0
    orientation:
      x: 0.0
      y: 0.0
      z: -0.3228775365491843
      w: 0.9464407516542862
  covariance: '<array type: double[36]>'
---
header:
  stamp:
    sec: 1778501556
    nanosec: 396000000
  frame_id: map
pose:
  pose:
    position:
      x: 1.418203500183341
      y: -0.24960251768560324
      z: 0.0
    orientation:
      x: 0.0
      y: 0.0
      z: -0.3506491339109124
      w: 0.9365069059475893
  covariance: '<array type: double[36]>'
---
header:
  stamp:
    sec: 1778501557
    nanosec: 87000000
  frame_id: map
pose:
  pose:
    position:
      x: 1.4635974240252363
      y: -0.29446006106519074
      z: 0.0
    orientation:
      x: 0.0
      y: 0.0
      z: -0.36190717949897644
      w: 0.9322141349642236
  covariance: '<array type: double[36]>'
---
header:
  stamp:
    sec: 1778501557
    nanosec: 876000000
  frame_id: map
pose:
  pose:
    position:
      x: 1.5128292334245312
      y: -0.34387189053445444
      z: 0.0
    orientation:
      x: 0.0
      y: 0.0
      z: -0.36760661110213955
      w: 0.9299813866277111
  covariance: '<array type: double[36]>'
---
header:
  stamp:
    sec: 1778501558
    nanosec: 598000000
  frame_id: map
pose:
  pose:
    position:
      x: 1.5662188506541797
      y: -0.39523456549451236
      z: 0.0
    orientation:
      x: 0.0
      y: 0.0
      z: -0.3802901847083534
      w: 0.924867220423822
  covariance: '<array type: double[36]>'
---
header:
  stamp:
    sec: 1778501561
    nanosec: 559000000
  frame_id: map
pose:
  pose:
    position:
      x: 1.572385561912192
      y: -0.40085568559744494
      z: 0.0
    orientation:
      x: 0.0
      y: 0.0
      z: -0.33870240307495664
      w: 0.9408935551651152
  covariance: '<array type: double[36]>'
---
header:
  stamp:
    sec: 1778501562
    nanosec: 38000000
  frame_id: map
pose:
  pose:
    position:
      x: 1.5747485304733502
      y: -0.40090597243943904
      z: 0.0
    orientation:
      x: 0.0
      y: 0.0
      z: -0.30183807575061394
      w: 0.9533592061899684
  covariance: '<array type: double[36]>'
---
header:
  stamp:
    sec: 1778501562
    nanosec: 438000000
  frame_id: map
pose:
  pose:
    position:
      x: 1.5811455551204883
      y: -0.40222897674697683
      z: 0.0
    orientation:
      x: 0.0
      y: 0.0
      z: -0.25216757373537346
      w: 0.9676835819400963
  covariance: '<array type: double[36]>'
---
header:
  stamp:
    sec: 1778501562
    nanosec: 681000000
  frame_id: map
pose:
  pose:
    position:
      x: 1.582410586210381
      y: -0.40215435422196255
      z: 0.0
    orientation:
      x: 0.0
      y: 0.0
      z: -0.2074374860241926
      w: 0.9782482759463279
  covariance: '<array type: double[36]>'
---
header:
  stamp:
    sec: 1778501564
    nanosec: 38000000
  frame_id: map
pose:
  pose:
    position:
      x: 1.583568858863983
      y: -0.3999714286445693
      z: 0.0
    orientation:
      x: 0.0
      y: 0.0
      z: -0.16352316028925043
      w: 0.9865394954329078
  covariance: '<array type: double[36]>'
---
header:
  stamp:
    sec: 1778501564
    nanosec: 440000000
  frame_id: map
pose:
  pose:
    position:
      x: 1.5903323046953077
      y: -0.40458870006679754
      z: 0.0
    orientation:
      x: 0.0
      y: 0.0
      z: -0.11228595679261355
      w: 0.9936759350548685
  covariance: '<array type: double[36]>'
---
header:
  stamp:
    sec: 1778501564
    nanosec: 919000000
  frame_id: map
pose:
  pose:
    position:
      x: 1.5997911258922433
      y: -0.40642820307867716
      z: 0.0
    orientation:
      x: 0.0
      y: 0.0
      z: -0.066551514833382
      w: 0.9977829903708432
  covariance: '<array type: double[36]>'
---
header:
  stamp:
    sec: 1778501570
    nanosec: 597000000
  frame_id: map
pose:
  pose:
    position:
      x: 1.5982819115731284
      y: -0.403280102890132
      z: 0.0
    orientation:
      x: 0.0
      y: 0.0
      z: -0.10801633655902435
      w: 0.9941491191146163
  covariance: '<array type: double[36]>'
---
header:
  stamp:
    sec: 1778501571
    nanosec: 485000000
  frame_id: map
pose:
  pose:
    position:
      x: 1.6088011865558556
      y: -0.4066283467407989
      z: 0.0
    orientation:
      x: 0.0
      y: 0.0
      z: -0.15755355355281783
      w: 0.987510444381668
  covariance: '<array type: double[36]>'
---
header:
  stamp:
    sec: 1778501571
    nanosec: 882000000
  frame_id: map
pose:
  pose:
    position:
      x: 1.6059268046371908
      y: -0.40368874362116997
      z: 0.0
    orientation:
      x: 0.0
      y: 0.0
      z: -0.21142021514182957
      w: 0.9773952591604803
  covariance: '<array type: double[36]>'
---
header:
  stamp:
    sec: 1778501572
    nanosec: 281000000
  frame_id: map
pose:
  pose:
    position:
      x: 1.6059091104714311
      y: -0.40163540529283925
      z: 0.0
    orientation:
      x: 0.0
      y: 0.0
      z: -0.25287785888012815
      w: 0.9674982111033601
  covariance: '<array type: double[36]>'
---
header:
  stamp:
    sec: 1778501573
    nanosec: 647000000
  frame_id: map
pose:
  pose:
    position:
      x: 1.6004597760204897
      y: -0.4003606420891602
      z: 0.0
    orientation:
      x: 0.0
      y: 0.0
      z: -0.30039962973422774
      w: 0.9538134316812376
  covariance: '<array type: double[36]>'
---
header:
  stamp:
    sec: 1778501573
    nanosec: 876000000
  frame_id: map
pose:
  pose:
    position:
      x: 1.6011171047027435
      y: -0.3999054505192024
      z: 0.0
    orientation:
      x: 0.0
      y: 0.0
      z: -0.3402878328034175
      w: 0.9403213231900855
  covariance: '<array type: double[36]>'
---
header:
  stamp:
    sec: 1778501574
    nanosec: 318000000
  frame_id: map
pose:
  pose:
    position:
      x: 1.5949975211372487
      y: -0.3984731633521178
      z: 0.0
    orientation:
      x: 0.0
      y: 0.0
      z: -0.3852431597406269
      w: 0.9228150995042603
  covariance: '<array type: double[36]>'
---
header:
  stamp:
    sec: 1778501574
    nanosec: 599000000
  frame_id: map
pose:
  pose:
    position:
      x: 1.5914351427279732
      y: -0.4006787368828617
      z: 0.0
    orientation:
      x: 0.0
      y: 0.0
      z: -0.42610491006989604
      w: 0.9046737564527478
  covariance: '<array type: double[36]>'
---
header:
  stamp:
    sec: 1778501575
    nanosec: 3000000
  frame_id: map
pose:
  pose:
    position:
      x: 1.5879765094181024
      y: -0.4019133059936348
      z: 0.0
    orientation:
      x: 0.0
      y: 0.0
      z: -0.46942786909749235
      w: 0.8829708238184247
  covariance: '<array type: double[36]>'
---
header:
  stamp:
    sec: 1778501575
    nanosec: 268000000
  frame_id: map
pose:
  pose:
    position:
      x: 1.5761910547710052
      y: -0.39739608991935804
      z: 0.0
    orientation:
      x: 0.0
      y: 0.0
      z: -0.5071309057603133
      w: 0.8618690413413886
  covariance: '<array type: double[36]>'
---
header:
  stamp:
    sec: 1778501575
    nanosec: 721000000
  frame_id: map
pose:
  pose:
    position:
      x: 1.578131011313703
      y: -0.40232870765506423
      z: 0.0
    orientation:
      x: 0.0
      y: 0.0
      z: -0.5499326934855786
      w: 0.835208975428124
  covariance: '<array type: double[36]>'
---
header:
  stamp:
    sec: 1778501576
    nanosec: 40000000
  frame_id: map
pose:
  pose:
    position:
      x: 1.5730878874246883
      y: -0.3995760463379318
      z: 0.0
    orientation:
      x: 0.0
      y: 0.0
      z: -0.5943828960288684
      w: 0.8041821764428353
  covariance: '<array type: double[36]>'
---
header:
  stamp:
    sec: 1778501576
    nanosec: 201000000
  frame_id: map
pose:
  pose:
    position:
      x: 1.5748397119357629
      y: -0.40233723978700187
      z: 0.0
    orientation:
      x: 0.0
      y: 0.0
      z: -0.6247889760492663
      w: 0.7807936573815834
  covariance: '<array type: double[36]>'
---
header:
  stamp:
    sec: 1778501576
    nanosec: 442000000
  frame_id: map
pose:
  pose:
    position:
      x: 1.5757509460773729
      y: -0.41894670224563557
      z: 0.0
    orientation:
      x: 0.0
      y: 0.0
      z: -0.6559347909945842
      w: 0.754817560714436
  covariance: '<array type: double[36]>'
---
header:
  stamp:
    sec: 1778501576
    nanosec: 686000000
  frame_id: map
pose:
  pose:
    position:
      x: 1.5748139196290252
      y: -0.4307790327634865
      z: 0.0
    orientation:
      x: 0.0
      y: 0.0
      z: -0.6943738885471091
      w: 0.7196144126571999
  covariance: '<array type: double[36]>'
---
header:
  stamp:
    sec: 1778501576
    nanosec: 862000000
  frame_id: map
pose:
  pose:
    position:
      x: 1.5709493789163158
      y: -0.4353840671386558
      z: 0.0
    orientation:
      x: 0.0
      y: 0.0
      z: -0.7231939848365797
      w: 0.6906449596545167
  covariance: '<array type: double[36]>'
---
header:
  stamp:
    sec: 1778501577
    nanosec: 248000000
  frame_id: map
pose:
  pose:
    position:
      x: 1.5675524371940681
      y: -0.46215704667939145
      z: 0.0
    orientation:
      x: 0.0
      y: 0.0
      z: -0.7550133021578723
      w: 0.6557094734443489
  covariance: '<array type: double[36]>'
---
header:
  stamp:
    sec: 1778501577
    nanosec: 797000000
  frame_id: map
pose:
  pose:
    position:
      x: 1.5589085875549678
      y: -0.5143374793936762
      z: 0.0
    orientation:
      x: 0.0
      y: 0.0
      z: -0.7635868274609893
      w: 0.6457051625378734
  covariance: '<array type: double[36]>'
---
header:
  stamp:
    sec: 1778501578
    nanosec: 281000000
  frame_id: map
pose:
  pose:
    position:
      x: 1.5499543594899223
      y: -0.5689826214422234
      z: 0.0
    orientation:
      x: 0.0
      y: 0.0
      z: -0.7614527704420179
      w: 0.6482203933741792
  covariance: '<array type: double[36]>'
---
header:
  stamp:
    sec: 1778501578
    nanosec: 687000000
  frame_id: map
pose:
  pose:
    position:
      x: 1.5386261801430814
      y: -0.6197294169341512
      z: 0.0
    orientation:
      x: 0.0
      y: 0.0
      z: -0.7612193111569956
      w: 0.6484945337639085
  covariance: '<array type: double[36]>'
---
header:
  stamp:
    sec: 1778501580
    nanosec: 125000000
  frame_id: map
pose:
  pose:
    position:
      x: 1.5317713347048814
      y: -0.6822648702480986
      z: 0.0
    orientation:
      x: 0.0
      y: 0.0
      z: -0.7489331799295483
      w: 0.6626455251494684
  covariance: '<array type: double[36]>'
---
header:
  stamp:
    sec: 1778501581
    nanosec: 1000000
  frame_id: map
pose:
  pose:
    position:
      x: 1.5272010180794602
      y: -0.7325167045447856
      z: 0.0
    orientation:
      x: 0.0
      y: 0.0
      z: -0.7193417255190819
      w: 0.6946563768707733
  covariance: '<array type: double[36]>'
---
header:
  stamp:
    sec: 1778501581
    nanosec: 317000000
  frame_id: map
pose:
  pose:
    position:
      x: 1.527427095919102
      y: -0.7576418530771891
      z: 0.0
    orientation:
      x: 0.0
      y: 0.0
      z: -0.6902001477631816
      w: 0.7236185155368001
  covariance: '<array type: double[36]>'
---
header:
  stamp:
    sec: 1778501581
    nanosec: 809000000
  frame_id: map
pose:
  pose:
    position:
      x: 1.5273721287905502
      y: -0.783625814941118
      z: 0.0
    orientation:
      x: 0.0
      y: 0.0
      z: -0.6606836851666634
      w: 0.7506644178023874
  covariance: '<array type: double[36]>'
---
header:
  stamp:
    sec: 1778501582
    nanosec: 123000000
  frame_id: map
pose:
  pose:
    position:
      x: 1.5290872996802702
      y: -0.7949953176399545
      z: 0.0
    orientation:
      x: 0.0
      y: 0.0
      z: -0.6267842173965675
      w: 0.7791928803721017
  covariance: '<array type: double[36]>'
---
header:
  stamp:
    sec: 1778501582
    nanosec: 532000000
  frame_id: map
pose:
  pose:
    position:
      x: 1.5381590784564234
      y: -0.8162099516350925
      z: 0.0
    orientation:
      x: 0.0
      y: 0.0
      z: -0.5952776711563782
      w: 0.8035200646048852
  covariance: '<array type: double[36]>'
---
header:
  stamp:
    sec: 1778501583
    nanosec: 77000000
  frame_id: map
pose:
  pose:
    position:
      x: 1.5471678125050592
      y: -0.8304460465436921
      z: 0.0
    orientation:
      x: 0.0
      y: 0.0
      z: -0.5560712023950396
      w: 0.8311346568799396
  covariance: '<array type: double[36]>'
---
header:
  stamp:
    sec: 1778501583
    nanosec: 408000000
  frame_id: map
pose:
  pose:
    position:
      x: 1.552356952540398
      y: -0.8398068210351215
      z: 0.0
    orientation:
      x: 0.0
      y: 0.0
      z: -0.513715869783413
      w: 0.8579603750364415
  covariance: '<array type: double[36]>'
---
header:
  stamp:
    sec: 1778501583
    nanosec: 881000000
  frame_id: map
pose:
  pose:
    position:
      x: 1.564694298373534
      y: -0.8641778424632164
      z: 0.0
    orientation:
      x: 0.0
      y: 0.0
      z: -0.47720367470653663
      w: 0.8787927246208732
  covariance: '<array type: double[36]>'
---
header:
  stamp:
    sec: 1778501584
    nanosec: 678000000
  frame_id: map
pose:
  pose:
    position:
      x: 1.5701301194144417
      y: -0.8774119669365099
      z: 0.0
    orientation:
      x: 0.0
      y: 0.0
      z: -0.44349452821619967
      w: 0.8962770796144965
  covariance: '<array type: double[36]>'
---
header:
  stamp:
    sec: 1778501585
    nanosec: 399000000
  frame_id: map
pose:
  pose:
    position:
      x: 1.5785237147908076
      y: -0.8892003796862897
      z: 0.0
    orientation:
      x: 0.0
      y: 0.0
      z: -0.4021328933626131
      w: 0.9155813104666419
  covariance: '<array type: double[36]>'
---
header:
  stamp:
    sec: 1778501586
    nanosec: 38000000
  frame_id: map
pose:
  pose:
    position:
      x: 1.5832571495090284
      y: -0.8929160357725975
      z: 0.0
    orientation:
      x: 0.0
      y: 0.0
      z: -0.35863858535979143
      w: 0.9334764941288707
  covariance: '<array type: double[36]>'
---
header:
  stamp:
    sec: 1778501586
    nanosec: 612000000
  frame_id: map
pose:
  pose:
    position:
      x: 1.5894727933605657
      y: -0.896178390720144
      z: 0.0
    orientation:
      x: 0.0
      y: 0.0
      z: -0.3187339555689027
      w: 0.9478442200949483
  covariance: '<array type: double[36]>'
---
header:
  stamp:
    sec: 1778501587
    nanosec: 639000000
  frame_id: map
pose:
  pose:
    position:
      x: 1.6014111759732559
      y: -0.9024086311805424
      z: 0.0
    orientation:
      x: 0.0
      y: 0.0
      z: -0.2810633208787216
      w: 0.9596892255603502
  covariance: '<array type: double[36]>'
---
header:
  stamp:
    sec: 1778501588
    nanosec: 677000000
  frame_id: map
pose:
  pose:
    position:
      x: 1.6094048674080905
      y: -0.9059960705191186
      z: 0.0
    orientation:
      x: 0.0
      y: 0.0
      z: -0.2323275332653858
      w: 0.972637608406554
  covariance: '<array type: double[36]>'
---
header:
  stamp:
    sec: 1778501589
    nanosec: 184000000
  frame_id: map
pose:
  pose:
    position:
      x: 1.588289830263966
      y: -0.8935982970123281
      z: 0.0
    orientation:
      x: 0.0
      y: 0.0
      z: -0.18356978755785427
      w: 0.983006680087152
  covariance: '<array type: double[36]>'
---
header:
  stamp:
    sec: 1778501589
    nanosec: 564000000
  frame_id: map
pose:
  pose:
    position:
      x: 1.5942823154375183
      y: -0.8962671532262689
      z: 0.0
    orientation:
      x: 0.0
      y: 0.0
      z: -0.14025371684053262
      w: 0.9901155967423277
  covariance: '<array type: double[36]>'
---
header:
  stamp:
    sec: 1778501589
    nanosec: 884000000
  frame_id: map
pose:
  pose:
    position:
      x: 1.60193041484478
      y: -0.8965147849185902
      z: 0.0
    orientation:
      x: 0.0
      y: 0.0
      z: -0.09399843302211812
      w: 0.9955723452313179
  covariance: '<array type: double[36]>'
---
header:
  stamp:
    sec: 1778501590
    nanosec: 223000000
  frame_id: map
pose:
  pose:
    position:
      x: 1.6029929636640412
      y: -0.8931683366197223
      z: 0.0
    orientation:
      x: 0.0
      y: 0.0
      z: -0.04139521571256723
      w: 0.9991428507055986
  covariance: '<array type: double[36]>'
---
header:
  stamp:
    sec: 1778501592
    nanosec: 284000000
  frame_id: map
pose:
  pose:
    position:
      x: 1.654628838588425
      y: -0.8969482373668692
      z: 0.0
    orientation:
      x: 0.0
      y: 0.0
      z: -0.025079020833157155
      w: 0.99968547189306
  covariance: '<array type: double[36]>'
---
header:
  stamp:
    sec: 1778501592
    nanosec: 766000000
  frame_id: map
pose:
  pose:
    position:
      x: 1.7056145912176768
      y: -0.9009978162459361
      z: 0.0
    orientation:
      x: 0.0
      y: 0.0
      z: -0.011521961296687902
      w: 0.9999336200007867
  covariance: '<array type: double[36]>'
---
header:
  stamp:
    sec: 1778501593
    nanosec: 83000000
  frame_id: map
pose:
  pose:
    position:
      x: 1.7496080507205813
      y: -0.8981529839782401
      z: 0.0
    orientation:
      x: 0.0
      y: 0.0
      z: -0.009008088317629653
      w: 0.9999594263493203
  covariance: '<array type: double[36]>'
---
header:
  stamp:
    sec: 1778501593
    nanosec: 480000000
  frame_id: map
pose:
  pose:
    position:
      x: 1.8041411865158274
      y: -0.9010073022820789
      z: 0.0
    orientation:
      x: 0.0
      y: 0.0
      z: -0.011888324053175199
      w: 0.9999293313785763
