header:
  stamp:
    sec: 1778497594
    nanosec: 802000000
  frame_id: map
pose:
  pose:
    position:
      x: 0.07727199973303979
      y: -0.13338641770744175
      z: 0.0
    orientation:
      x: 0.0
      y: 0.0
      z: 0.12114404882957891
      w: 0.9926349376448406
  covariance: '<array type: double[36]>'
---
header:
  stamp:
    sec: 1778498196
    nanosec: 309000000
  frame_id: map
pose:
  pose:
    position:
      x: 0.12680634965537993
      y: -0.12043269483910765
      z: 0.0
    orientation:
      x: 0.0
      y: 0.0
      z: 0.10333650587588686
      w: 0.9946464530441773
  covariance: '<array type: double[36]>'
---
header:
  stamp:
    sec: 1778498196
    nanosec: 634000000
  frame_id: map
pose:
  pose:
    position:
      x: 0.18942297636781746
      y: -0.1039282925940645
      z: 0.0
    orientation:
      x: 0.0
      y: 0.0
      z: 0.08890739604490336
      w: 0.9960398962534155
  covariance: '<array type: double[36]>'
---
header:
  stamp:
    sec: 1778498196
    nanosec: 871000000
  frame_id: map
pose:
  pose:
    position:
      x: 0.23888144396040925
      y: -0.09183534750738165
      z: 0.0
    orientation:
      x: 0.0
      y: 0.0
      z: 0.07292559832643752
      w: 0.9973373837918296
  covariance: '<array type: double[36]>'
---
header:
  stamp:
    sec: 1778498197
    nanosec: 35000000
  frame_id: map
pose:
  pose:
    position:
      x: 0.16564481066550912
      y: -0.11157640172327138
      z: 0.0
    orientation:
      x: 0.0
      y: 0.0
      z: 0.057937092746387274
      w: 0.9983202358382287
  covariance: '<array type: double[36]>'
---
header:
  stamp:
    sec: 1778498197
    nanosec: 755000000
  frame_id: map
pose:
  pose:
    position:
      x: 0.21732530609079403
      y: -0.10907176616227614
      z: 0.0
    orientation:
      x: 0.0
      y: 0.0
      z: 0.012545812000254218
      w: 0.9999212982036407
  covariance: '<array type: double[36]>'
---
header:
  stamp:
    sec: 1778498198
    nanosec: 308000000
  frame_id: map
pose:
  pose:
    position:
      x: 0.2711468651322725
      y: -0.10788202742884224
      z: 0.0
    orientation:
      x: 0.0
      y: 0.0
      z: -0.02328547371735492
      w: 0.9997288565975069
  covariance: '<array type: double[36]>'
---
header:
  stamp:
    sec: 1778498198
    nanosec: 797000000
  frame_id: map
pose:
  pose:
    position:
      x: 0.32644299935184395
      y: -0.11150965550175646
      z: 0.0
    orientation:
      x: 0.0
      y: 0.0
      z: -0.03794136504624383
      w: 0.9992799671855869
  covariance: '<array type: double[36]>'
---
header:
  stamp:
    sec: 1778498200
    nanosec: 150000000
  frame_id: map
pose:
  pose:
    position:
      x: 0.38358547358985223
      y: -0.11483291805292298
      z: 0.0
    orientation:
      x: 0.0
      y: 0.0
      z: -0.032336727079707035
      w: 0.9994770312927519
  covariance: '<array type: double[36]>'
---
header:
  stamp:
    sec: 1778498200
    nanosec: 874000000
  frame_id: map
pose:
  pose:
    position:
      x: 0.42322224940788516
      y: -0.11256059296349079
      z: 0.0
    orientation:
      x: 0.0
      y: 0.0
      z: 0.011618620906564604
      w: 0.9999325015460941
  covariance: '<array type: double[36]>'
---
header:
  stamp:
    sec: 1778498201
    nanosec: 268000000
  frame_id: map
pose:
  pose:
    position:
      x: 0.44753048202495166
      y: -0.11390252259832137
      z: 0.0
    orientation:
      x: 0.0
      y: 0.0
      z: 0.060852497569524655
      w: 0.9981467695382032
  covariance: '<array type: double[36]>'
---
header:
  stamp:
    sec: 1778498201
    nanosec: 687000000
  frame_id: map
pose:
  pose:
    position:
      x: 0.4763210579787343
      y: -0.10716890089388735
      z: 0.0
    orientation:
      x: 0.0
      y: 0.0
      z: 0.1083609366442494
      w: 0.9941116171786651
  covariance: '<array type: double[36]>'
---
header:
  stamp:
    sec: 1778498202
    nanosec: 310000000
  frame_id: map
pose:
  pose:
    position:
      x: 0.4999546176375426
      y: -0.09679162055889641
      z: 0.0
    orientation:
      x: 0.0
      y: 0.0
      z: 0.1541167081256436
      w: 0.988052650558924
  covariance: '<array type: double[36]>'
---
header:
  stamp:
    sec: 1778498202
    nanosec: 871000000
  frame_id: map
pose:
  pose:
    position:
      x: 0.5179259915089985
      y: -0.08885640545130946
      z: 0.0
    orientation:
      x: 0.0
      y: 0.0
      z: 0.19439260373688574
      w: 0.98092380724111
  covariance: '<array type: double[36]>'
---
header:
  stamp:
    sec: 1778498203
    nanosec: 311000000
  frame_id: map
pose:
  pose:
    position:
      x: 0.5266467120915912
      y: -0.08421036396147798
      z: 0.0
    orientation:
      x: 0.0
      y: 0.0
      z: 0.24611875368550334
      w: 0.969239680927424
  covariance: '<array type: double[36]>'
---
header:
  stamp:
    sec: 1778498203
    nanosec: 751000000
  frame_id: map
pose:
  pose:
    position:
      x: 0.5412998702602775
      y: -0.08106265454772478
      z: 0.0
    orientation:
      x: 0.0
      y: 0.0
      z: 0.2935662612857337
      w: 0.9559387272386847
  covariance: '<array type: double[36]>'
---
header:
  stamp:
    sec: 1778498204
    nanosec: 311000000
  frame_id: map
pose:
  pose:
    position:
      x: 0.5870544553481849
      y: -0.04031888736564689
      z: 0.0
    orientation:
      x: 0.0
      y: 0.0
      z: 0.3360322152581585
      w: 0.941850492545762
  covariance: '<array type: double[36]>'
---
header:
  stamp:
    sec: 1778498207
    nanosec: 836000000
  frame_id: map
pose:
  pose:
    position:
      x: 0.6211161502579404
      y: -5.889604297122348e-05
      z: 0.0
    orientation:
      x: 0.0
      y: 0.0
      z: 0.29941065299913905
      w: 0.9541243424578524
  covariance: '<array type: double[36]>'
---
header:
  stamp:
    sec: 1778498208
    nanosec: 278000000
  frame_id: map
pose:
  pose:
    position:
      x: 0.6636720173025962
      y: -0.012997837048624427
      z: 0.0
    orientation:
      x: 0.0
      y: 0.0
      z: 0.2323086652627904
      w: 0.9726421150884949
  covariance: '<array type: double[36]>'
---
header:
  stamp:
    sec: 1778498208
    nanosec: 554000000
  frame_id: map
pose:
  pose:
    position:
      x: 0.6806206302938369
      y: -0.006518887361878316
      z: 0.0
    orientation:
      x: 0.0
      y: 0.0
      z: 0.19373430327820615
      w: 0.9810540350731493
  covariance: '<array type: double[36]>'
---
header:
  stamp:
    sec: 1778498208
    nanosec: 891000000
  frame_id: map
pose:
  pose:
    position:
      x: 0.6304559333525108
      y: 0.005728639716590548
      z: 0.0
    orientation:
      x: 0.0
      y: 0.0
      z: 0.15275196222106074
      w: 0.9882645587278821
  covariance: '<array type: double[36]>'
---
header:
  stamp:
    sec: 1778498209
    nanosec: 271000000
  frame_id: map
pose:
  pose:
    position:
      x: 0.6258525375173521
      y: 0.004413458937883667
      z: 0.0
    orientation:
      x: 0.0
      y: 0.0
      z: 0.11440856164066936
      w: 0.9934337829082083
  covariance: '<array type: double[36]>'
---
header:
  stamp:
    sec: 1778498209
    nanosec: 613000000
  frame_id: map
pose:
  pose:
    position:
      x: 0.6461895953642999
      y: 0.006292508322508015
      z: 0.0
    orientation:
      x: 0.0
      y: 0.0
      z: 0.0718943522317169
      w: 0.9974122528409112
  covariance: '<array type: double[36]>'
---
header:
  stamp:
    sec: 1778498209
    nanosec: 991000000
  frame_id: map
pose:
  pose:
    position:
      x: 0.6429887974335
      y: 0.007213450946310898
      z: 0.0
    orientation:
      x: 0.0
      y: 0.0
      z: 0.026227591939183968
      w: 0.9996559975416902
  covariance: '<array type: double[36]>'
---
header:
  stamp:
    sec: 1778498210
    nanosec: 315000000
  frame_id: map
pose:
  pose:
    position:
      x: 0.6396131040325904
      y: 0.009542900562511895
      z: 0.0
    orientation:
      x: 0.0
      y: 0.0
      z: -0.02142793543849506
      w: 0.9997703954322931
  covariance: '<array type: double[36]>'
---
header:
  stamp:
    sec: 1778498210
    nanosec: 553000000
  frame_id: map
pose:
  pose:
    position:
      x: 0.6545792350877102
      y: 0.010843352933878628
      z: 0.0
    orientation:
      x: 0.0
      y: 0.0
      z: -0.06758367222874523
      w: 0.9977136098340432
  covariance: '<array type: double[36]>'
---
header:
  stamp:
    sec: 1778498210
    nanosec: 876000000
  frame_id: map
pose:
  pose:
    position:
      x: 0.6630715362563668
      y: 0.011582462178421842
      z: 0.0
    orientation:
      x: 0.0
      y: 0.0
      z: -0.1046413171516111
      w: 0.9945100274732156
  covariance: '<array type: double[36]>'
---
header:
  stamp:
    sec: 1778498211
    nanosec: 122000000
  frame_id: map
pose:
  pose:
    position:
      x: 0.6503530426430431
      y: 0.011090376659860027
      z: 0.0
    orientation:
      x: 0.0
      y: 0.0
      z: -0.14304889208451316
      w: 0.9897156230318855
  covariance: '<array type: double[36]>'
---
header:
  stamp:
    sec: 1778498211
    nanosec: 431000000
  frame_id: map
pose:
  pose:
    position:
      x: 0.6451758515775804
      y: 0.011515223344959111
      z: 0.0
    orientation:
      x: 0.0
      y: 0.0
      z: -0.19650278184899037
      w: 0.9805032670652394
  covariance: '<array type: double[36]>'
---
header:
  stamp:
    sec: 1778498211
    nanosec: 995000000
  frame_id: map
pose:
  pose:
    position:
      x: 0.6564412712415024
      y: 0.011582434183692267
      z: 0.0
    orientation:
      x: 0.0
      y: 0.0
      z: -0.2434308897248558
      w: 0.9699182449710724
  covariance: '<array type: double[36]>'
---
header:
  stamp:
    sec: 1778498212
    nanosec: 229000000
  frame_id: map
pose:
  pose:
    position:
      x: 0.6640135317960285
      y: 0.008397327527914014
      z: 0.0
    orientation:
      x: 0.0
      y: 0.0
      z: -0.28349960031557614
      w: 0.9589723544612266
  covariance: '<array type: double[36]>'
---
header:
  stamp:
    sec: 1778498212
    nanosec: 561000000
  frame_id: map
pose:
  pose:
    position:
      x: 0.6440336168636939
      y: 0.016249303390954976
      z: 0.0
    orientation:
      x: 0.0
      y: 0.0
      z: -0.3265801330257265
      w: 0.9451695174480071
  covariance: '<array type: double[36]>'
---
header:
  stamp:
    sec: 1778498212
    nanosec: 951000000
  frame_id: map
pose:
  pose:
    position:
      x: 0.6305211034006242
      y: 0.018459804768227544
      z: 0.0
    orientation:
      x: 0.0
      y: 0.0
      z: -0.37659805880344743
      w: 0.9263767603440164
  covariance: '<array type: double[36]>'
---
header:
  stamp:
    sec: 1778498213
    nanosec: 284000000
  frame_id: map
pose:
  pose:
    position:
      x: 0.6335285531109992
      y: 0.014043054146977227
      z: 0.0
    orientation:
      x: 0.0
      y: 0.0
      z: -0.41601922849900536
      w: 0.909355816784108
  covariance: '<array type: double[36]>'
---
header:
  stamp:
    sec: 1778498213
    nanosec: 593000000
  frame_id: map
pose:
  pose:
    position:
      x: 0.6264827609578096
      y: 0.01304793646623545
      z: 0.0
    orientation:
      x: 0.0
      y: 0.0
      z: -0.4559940351418713
      w: 0.8899828312473415
  covariance: '<array type: double[36]>'
---
header:
  stamp:
    sec: 1778498213
    nanosec: 920000000
  frame_id: map
pose:
  pose:
    position:
      x: 0.6309962337731904
      y: 0.004629497223787889
      z: 0.0
    orientation:
      x: 0.0
      y: 0.0
      z: -0.499134507439589
      w: 0.8665245198394785
  covariance: '<array type: double[36]>'
---
header:
  stamp:
    sec: 1778498214
    nanosec: 315000000
  frame_id: map
pose:
  pose:
    position:
      x: 0.6305865516873347
      y: -0.008553160501262288
      z: 0.0
    orientation:
      x: 0.0
      y: 0.0
      z: -0.5337753758359745
      w: 0.845626305262061
  covariance: '<array type: double[36]>'
---
header:
  stamp:
    sec: 1778498214
    nanosec: 631000000
  frame_id: map
pose:
  pose:
    position:
      x: 0.6303774208191624
      y: -0.020835305218521588
      z: 0.0
    orientation:
      x: 0.0
      y: 0.0
      z: -0.5716592803084924
      w: 0.820491113441929
  covariance: '<array type: double[36]>'
---
header:
  stamp:
    sec: 1778498214
    nanosec: 957000000
  frame_id: map
pose:
  pose:
    position:
      x: 0.6320520539033692
      y: -0.01570027972919651
      z: 0.0
    orientation:
      x: 0.0
      y: 0.0
      z: -0.6096852138459975
      w: 0.7926436399906078
  covariance: '<array type: double[36]>'
---
header:
  stamp:
    sec: 1778498215
    nanosec: 278000000
  frame_id: map
pose:
  pose:
    position:
      x: 0.6284916606578406
      y: -0.013433053007780043
      z: 0.0
    orientation:
      x: 0.0
      y: 0.0
      z: -0.6434637299264621
      w: 0.7654766020389683
  covariance: '<array type: double[36]>'
---
header:
  stamp:
    sec: 1778498215
    nanosec: 592000000
  frame_id: map
pose:
  pose:
    position:
      x: 0.6354291733765505
      y: -0.01813705910800994
      z: 0.0
    orientation:
      x: 0.0
      y: 0.0
      z: -0.6836621199238444
      w: 0.7297986748283632
  covariance: '<array type: double[36]>'
---
header:
  stamp:
    sec: 1778498217
    nanosec: 516000000
  frame_id: map
pose:
  pose:
    position:
      x: 0.6378221822379004
      y: -0.06596604427997303
      z: 0.0
    orientation:
      x: 0.0
      y: 0.0
      z: -0.6932988410472178
      w: 0.7206502043311891
  covariance: '<array type: double[36]>'
---
header:
  stamp:
    sec: 1778498218
    nanosec: 154000000
  frame_id: map
pose:
  pose:
    position:
      x: 0.6410643951039384
      y: -0.11670406551937941
      z: 0.0
    orientation:
      x: 0.0
      y: 0.0
      z: -0.6772892426851056
      w: 0.7357168488916345
  covariance: '<array type: double[36]>'
---
header:
  stamp:
    sec: 1778498218
    nanosec: 710000000
  frame_id: map
pose:
  pose:
    position:
      x: 0.6420427905740541
      y: -0.14137003541817586
      z: 0.0
    orientation:
      x: 0.0
      y: 0.0
      z: -0.6305400594318539
      w: 0.7761567067620264
  covariance: '<array type: double[36]>'
---
header:
  stamp:
    sec: 1778498219
    nanosec: 448000000
  frame_id: map
pose:
  pose:
    position:
      x: 0.6523575476753013
      y: -0.19159181288133145
      z: 0.0
    orientation:
      x: 0.0
      y: 0.0
      z: -0.60169937348801
      w: 0.7987226451930209
  covariance: '<array type: double[36]>'
---
header:
  stamp:
    sec: 1778498222
    nanosec: 234000000
  frame_id: map
pose:
  pose:
    position:
      x: 0.6625807939996339
      y: -0.2239361348828772
      z: 0.0
    orientation:
      x: 0.0
      y: 0.0
      z: -0.6370319225854713
      w: 0.7708374209955418
  covariance: '<array type: double[36]>'
---
header:
  stamp:
    sec: 1778498222
    nanosec: 795000000
  frame_id: map
pose:
  pose:
    position:
      x: 0.6624905783099798
      y: -0.21946363115688067
      z: 0.0
    orientation:
      x: 0.0
      y: 0.0
      z: -0.672665072084072
      w: 0.7399470932425711
  covariance: '<array type: double[36]>'
---
header:
  stamp:
    sec: 1778498231
    nanosec: 436000000
  frame_id: map
pose:
  pose:
    position:
      x: 0.6532038420810522
      y: -0.22169938326638663
      z: 0.0
    orientation:
      x: 0.0
      y: 0.0
      z: -0.6646841920623038
      w: 0.7471244373077904
  covariance: '<array type: double[36]>'
---
header:
  stamp:
    sec: 1778498231
    nanosec: 832000000
  frame_id: map
pose:
  pose:
    position:
      x: 0.6513060632158574
      y: -0.22871468583677038
      z: 0.0
    orientation:
      x: 0.0
      y: 0.0
      z: -0.6352678710341202
      w: 0.7722918697175158
  covariance: '<array type: double[36]>'
---
header:
  stamp:
    sec: 1778498232
    nanosec: 155000000
  frame_id: map
pose:
  pose:
    position:
      x: 0.6532723533307625
      y: -0.23194801915796998
      z: 0.0
    orientation:
      x: 0.0
      y: 0.0
      z: -0.5994270452553546
      w: 0.8004293956473831
  covariance: '<array type: double[36]>'
---
header:
  stamp:
    sec: 1778498232
    nanosec: 470000000
  frame_id: map
pose:
  pose:
    position:
      x: 0.6552697880773567
      y: -0.2399178291318467
      z: 0.0
    orientation:
      x: 0.0
      y: 0.0
      z: -0.5593718599717162
      w: 0.8289168367645712
  covariance: '<array type: double[36]>'
---
header:
  stamp:
    sec: 1778498232
    nanosec: 877000000
  frame_id: map
pose:
  pose:
    position:
      x: 0.6564807490261962
      y: -0.2426031365391408
      z: 0.0
    orientation:
      x: 0.0
      y: 0.0
      z: -0.5190807729623657
      w: 0.8547251904213383
  covariance: '<array type: double[36]>'
---
header:
  stamp:
    sec: 1778498233
    nanosec: 274000000
  frame_id: map
pose:
  pose:
    position:
      x: 0.6555750455125232
      y: -0.23685287127412005
      z: 0.0
    orientation:
      x: 0.0
      y: 0.0
      z: -0.4817834024099014
      w: 0.876290336111462
  covariance: '<array type: double[36]>'
---
header:
  stamp:
    sec: 1778498233
    nanosec: 598000000
  frame_id: map
pose:
  pose:
    position:
      x: 0.6657615807868746
      y: -0.23650427401428947
      z: 0.0
    orientation:
      x: 0.0
      y: 0.0
      z: -0.42764319925973204
      w: 0.9039476169153283
  covariance: '<array type: double[36]>'
---
header:
  stamp:
    sec: 1778498234
    nanosec: 7000000
  frame_id: map
pose:
  pose:
    position:
      x: 0.662962658496199
      y: -0.23153945004624946
      z: 0.0
    orientation:
      x: 0.0
      y: 0.0
      z: -0.38930929569541856
      w: 0.9211070905628385
  covariance: '<array type: double[36]>'
---
header:
  stamp:
    sec: 1778498234
    nanosec: 391000000
  frame_id: map
pose:
  pose:
    position:
      x: 0.6619172908291155
      y: -0.2310567056558157
      z: 0.0
    orientation:
      x: 0.0
      y: 0.0
      z: -0.3431429979034482
      w: 0.9392831750807815
  covariance: '<array type: double[36]>'
---
header:
  stamp:
    sec: 1778498234
    nanosec: 634000000
  frame_id: map
pose:
  pose:
    position:
      x: 0.6696319207541391
      y: -0.23725192186239166
      z: 0.0
    orientation:
      x: 0.0
      y: 0.0
      z: -0.304462339786689
      w: 0.9525243743084031
  covariance: '<array type: double[36]>'
---
header:
  stamp:
    sec: 1778498235
    nanosec: 523000000
  frame_id: map
pose:
  pose:
    position:
      x: 0.6674752236799305
      y: -0.23780098635858288
      z: 0.0
    orientation:
      x: 0.0
      y: 0.0
      z: -0.26326019950207824
      w: 0.9647248661448122
  covariance: '<array type: double[36]>'
---
header:
  stamp:
    sec: 1778498235
    nanosec: 927000000
  frame_id: map
pose:
  pose:
    position:
      x: 0.6782424856170642
      y: -0.24273925343814562
      z: 0.0
    orientation:
      x: 0.0
      y: 0.0
      z: -0.22061392578223726
      w: 0.9753612129621259
  covariance: '<array type: double[36]>'
---
header:
  stamp:
    sec: 1778498236
    nanosec: 315000000
  frame_id: map
pose:
  pose:
    position:
      x: 0.6772833842857808
      y: -0.24046175000008096
      z: 0.0
    orientation:
      x: 0.0
      y: 0.0
      z: -0.16697593169927397
      w: 0.9859609719624602
  covariance: '<array type: double[36]>'
---
header:
  stamp:
    sec: 1778498236
    nanosec: 555000000
  frame_id: map
pose:
  pose:
    position:
      x: 0.6924921997856285
      y: -0.24400115390623972
      z: 0.0
    orientation:
      x: 0.0
      y: 0.0
      z: -0.12140165544566177
      w: 0.9926034646600086
  covariance: '<array type: double[36]>'
---
header:
  stamp:
    sec: 1778498236
    nanosec: 956000000
  frame_id: map
pose:
  pose:
    position:
      x: 0.6990186421509561
      y: -0.23928605965737632
      z: 0.0
    orientation:
      x: 0.0
      y: 0.0
      z: -0.07430085483477651
      w: 0.9972358712816248
  covariance: '<array type: double[36]>'
---
header:
  stamp:
    sec: 1778498237
    nanosec: 281000000
  frame_id: map
pose:
  pose:
    position:
      x: 0.7008553524438002
      y: -0.23448319409833074
      z: 0.0
    orientation:
      x: 0.0
      y: 0.0
      z: -0.028961550220881906
      w: 0.9995805263253198
  covariance: '<array type: double[36]>'
---
header:
  stamp:
    sec: 1778498237
    nanosec: 766000000
  frame_id: map
pose:
  pose:
    position:
      x: 0.7628735151491332
      y: -0.23409312357800524
      z: 0.0
    orientation:
      x: 0.0
      y: 0.0
      z: -0.005193727676073316
      w: 0.9999865125054571
  covariance: '<array type: double[36]>'
---
header:
  stamp:
    sec: 1778498238
    nanosec: 75000000
  frame_id: map
pose:
  pose:
    position:
      x: 0.8195884958949405
      y: -0.23067939971276538
      z: 0.0
    orientation:
      x: 0.0
      y: 0.0
      z: -0.0005983461999424701
      w: 0.9999998209908965
  covariance: '<array type: double[36]>'
---
header:
  stamp:
    sec: 1778498238
    nanosec: 389000000
  frame_id: map
pose:
  pose:
    position:
      x: 0.8893859245897242
      y: -0.22528940309883605
      z: 0.0
    orientation:
      x: 0.0
      y: 0.0
      z: -0.0008370601805017989
      w: 0.9999996496650657
  covariance: '<array type: double[36]>'
---
header:
  stamp:
    sec: 1778498238
    nanosec: 634000000
  frame_id: map
pose:
  pose:
    position:
      x: 0.9368898666820252
      y: -0.22377824829173343
      z: 0.0
    orientation:
      x: 0.0
      y: 0.0
      z: 0.0010157416405039673
      w: 0.9999994841343268
  covariance: '<array type: double[36]>'
---
header:
  stamp:
    sec: 1778498238
    nanosec: 868000000
  frame_id: map
pose:
  pose:
    position:
      x: 0.979274765346546
      y: -0.22314283245708297
      z: 0.0
    orientation:
      x: 0.0
      y: 0.0
      z: 0.0007044887085235226
      w: 0.999999751847799
  covariance: '<array type: double[36]>'
---
header:
  stamp:
    sec: 1778498238
    nanosec: 951000000
  frame_id: map
pose:
  pose:
    position:
      x: 0.8565387773097672
      y: -0.2220040362987097
      z: 0.0
    orientation:
      x: 0.0
      y: 0.0
      z: -0.01649212821155928
      w: 0.999863995604929
  covariance: '<array type: double[36]>'
---
header:
  stamp:
    sec: 1778498239
    nanosec: 761000000
  frame_id: map
pose:
  pose:
    position:
      x: 0.8778376863028192
      y: -0.22165858257625595
      z: 0.0
    orientation:
      x: 0.0
      y: 0.0
      z: 0.026396873687313274
      w: 0.9996515418182158
  covariance: '<array type: double[36]>'
---
header:
  stamp:
    sec: 1778498240
    nanosec: 72000000
  frame_id: map
pose:
  pose:
    position:
      x: 0.9195396045795107
      y: -0.21348038058603783
      z: 0.0
    orientation:
      x: 0.0
      y: 0.0
      z: 0.032741588675045966
      w: 0.999463850457351
  covariance: '<array type: double[36]>'
---
header:
  stamp:
    sec: 1778498241
    nanosec: 590000000
  frame_id: map
pose:
  pose:
    position:
      x: 0.915374456369225
      y: -0.2182327953105324
      z: 0.0
    orientation:
      x: 0.0
      y: 0.0
      z: 0.08121111929652748
      w: 0.9966969218887982
  covariance: '<array type: double[36]>'
---
header:
  stamp:
    sec: 1778498241
    nanosec: 909000000
  frame_id: map
pose:
  pose:
    position:
      x: 1.0304811094651412
      y: -0.21263134826791893
      z: 0.0
    orientation:
      x: 0.0
      y: 0.0
      z: 0.13077805942179724
      w: 0.9914116698798078
  covariance: '<array type: double[36]>'
---
header:
  stamp:
    sec: 1778498242
    nanosec: 236000000
  frame_id: map
pose:
  pose:
    position:
      x: 1.0484045664224777
      y: -0.19141440897541087
      z: 0.0
    orientation:
      x: 0.0
      y: 0.0
      z: 0.12980524368824822
      w: 0.9915395094049629
  covariance: '<array type: double[36]>'
---
header:
  stamp:
    sec: 1778498243
    nanosec: 192000000
  frame_id: map
pose:
  pose:
    position:
      x: 1.0401360508936368
      y: -0.18811638458967334
      z: 0.0
    orientation:
      x: 0.0
      y: 0.0
      z: 0.0864885113716547
      w: 0.9962528481267771
  covariance: '<array type: double[36]>'
---
header:
  stamp:
    sec: 1778498243
    nanosec: 435000000
  frame_id: map
pose:
  pose:
    position:
      x: 1.0329128156325356
      y: -0.18923486554891875
      z: 0.0
    orientation:
      x: 0.0
      y: 0.0
      z: 0.03603222120358262
      w: 0.9993506286760099
  covariance: '<array type: double[36]>'
---
header:
  stamp:
    sec: 1778498243
    nanosec: 589000000
  frame_id: map
pose:
  pose:
    position:
      x: 1.1563574346003376
      y: -0.19005851316002237
      z: 0.0
    orientation:
      x: 0.0
      y: 0.0
      z: 0.009619375159674818
      w: 0.9999537327404391
  covariance: '<array type: double[36]>'
---
header:
  stamp:
    sec: 1778498244
    nanosec: 81000000
  frame_id: map
pose:
  pose:
    position:
      x: 1.2038869583351344
      y: -0.19305294552642738
      z: 0.0
    orientation:
      x: 0.0
      y: 0.0
      z: 0.0015399936999529373
      w: 0.999998814208999
  covariance: '<array type: double[36]>'
---
header:
  stamp:
    sec: 1778498244
    nanosec: 468000000
  frame_id: map
pose:
  pose:
    position:
      x: 1.2564527835299297
      y: -0.19200836171990712
      z: 0.0
    orientation:
      x: 0.0
      y: 0.0
      z: -0.015647767861874502
      w: 0.999877566185451
  covariance: '<array type: double[36]>'
---
header:
  stamp:
    sec: 1778498246
    nanosec: 72000000
  frame_id: map
pose:
  pose:
    position:
      x: 1.2927102456416866
      y: -0.19181473813316532
      z: 0.0
    orientation:
      x: 0.0
      y: 0.0
      z: -0.06475015350053225
      w: 0.9979015069743394
  covariance: '<array type: double[36]>'
---
header:
  stamp:
    sec: 1778498246
    nanosec: 634000000
  frame_id: map
pose:
  pose:
    position:
      x: 1.3079460910077711
      y: -0.19921224155744555
      z: 0.0
    orientation:
      x: 0.0
      y: 0.0
      z: -0.10468597691624892
      w: 0.9945053274050827
  covariance: '<array type: double[36]>'
---
header:
  stamp:
    sec: 1778498247
    nanosec: 116000000
  frame_id: map
pose:
  pose:
    position:
      x: 1.3338947633060592
      y: -0.2012960512021368
      z: 0.0
    orientation:
      x: 0.0
      y: 0.0
      z: -0.14366490167268484
      w: 0.9896263921437108
  covariance: '<array type: double[36]>'
---
header:
  stamp:
    sec: 1778498247
    nanosec: 593000000
  frame_id: map
pose:
  pose:
    position:
      x: 1.3661349603855457
      y: -0.20808350412982152
      z: 0.0
    orientation:
      x: 0.0
      y: 0.0
      z: -0.17975362808800197
      w: 0.9837116616108605
  covariance: '<array type: double[36]>'
---
header:
  stamp:
    sec: 1778498248
    nanosec: 71000000
  frame_id: map
pose:
  pose:
    position:
      x: 1.3950404836594061
      y: -0.21524346197218877
      z: 0.0
    orientation:
      x: 0.0
      y: 0.0
      z: -0.22116786771096034
      w: 0.9752357531859602
  covariance: '<array type: double[36]>'
---
header:
  stamp:
    sec: 1778498248
    nanosec: 632000000
  frame_id: map
pose:
  pose:
    position:
      x: 1.4485481350389724
      y: -0.23605545034881545
      z: 0.0
    orientation:
      x: 0.0
      y: 0.0
      z: -0.255664270223634
      w: 0.9667656287492934
  covariance: '<array type: double[36]>'
---
header:
  stamp:
    sec: 1778498249
    nanosec: 111000000
  frame_id: map
pose:
  pose:
    position:
      x: 1.4760990176875268
      y: -0.24930305027364558
      z: 0.0
    orientation:
      x: 0.0
      y: 0.0
      z: -0.29657809950826425
      w: 0.9550086025225459
  covariance: '<array type: double[36]>'
---
header:
  stamp:
    sec: 1778498249
    nanosec: 515000000
  frame_id: map
pose:
  pose:
    position:
      x: 1.4990930581665716
      y: -0.2678298249640575
      z: 0.0
    orientation:
      x: 0.0
      y: 0.0
      z: -0.3360374718544545
      w: 0.9418486170875162
  covariance: '<array type: double[36]>'
---
header:
  stamp:
    sec: 1778498249
    nanosec: 999000000
  frame_id: map
pose:
  pose:
    position:
      x: 1.5317138748483339
      y: -0.29575646141747647
      z: 0.0
    orientation:
      x: 0.0
      y: 0.0
      z: -0.3744942628443464
      w: 0.9272292311487325
  covariance: '<array type: double[36]>'
---
header:
  stamp:
    sec: 1778498250
    nanosec: 394000000
  frame_id: map
pose:
  pose:
    position:
      x: 1.5395510099894165
      y: -0.3079999265836841
      z: 0.0
    orientation:
      x: 0.0
      y: 0.0
      z: -0.4190355105394548
      w: 0.9079698458136913
  covariance: '<array type: double[36]>'
---
header:
  stamp:
    sec: 1778498251
    nanosec: 268000000
  frame_id: map
pose:
  pose:
    position:
      x: 1.5616567194339013
      y: -0.3392410529521247
      z: 0.0
    orientation:
      x: 0.0
      y: 0.0
      z: -0.4544300187956562
      w: 0.8907824414622122
  covariance: '<array type: double[36]>'
---
header:
  stamp:
    sec: 1778498252
    nanosec: 470000000
  frame_id: map
pose:
  pose:
    position:
      x: 1.5965452672216018
      y: -0.38863428901016384
      z: 0.0
    orientation:
      x: 0.0
      y: 0.0
      z: -0.48399892669304573
      w: 0.8750685910030023
  covariance: '<array type: double[36]>'
---
header:
  stamp:
    sec: 1778498254
    nanosec: 552000000
  frame_id: map
pose:
  pose:
    position:
      x: 1.6052153989707403
      y: -0.39205992488828956
      z: 0.0
    orientation:
      x: 0.0
      y: 0.0
      z: -0.4413544491347534
      w: 0.8973328536440413
  covariance: '<array type: double[36]>'
---
header:
  stamp:
    sec: 1778498255
    nanosec: 510000000
  frame_id: map
pose:
  pose:
    position:
      x: 1.6213966915332583
      y: -0.4168274707703009
      z: 0.0
    orientation:
      x: 0.0
      y: 0.0
      z: -0.4055765464679325
      w: 0.9140610838205206
  covariance: '<array type: double[36]>'
---
header:
  stamp:
    sec: 1778498255
    nanosec: 997000000
  frame_id: map
pose:
  pose:
    position:
      x: 1.6132284132002235
      y: -0.41044679777409204
      z: 0.0
    orientation:
      x: 0.0
      y: 0.0
      z: -0.3643948285652877
      w: 0.9312445483947138
  covariance: '<array type: double[36]>'
---
header:
  stamp:
    sec: 1778498256
    nanosec: 397000000
  frame_id: map
pose:
  pose:
    position:
      x: 1.5877523387041084
      y: -0.39298516321733923
      z: 0.0
    orientation:
      x: 0.0
      y: 0.0
      z: -0.3051516518200494
      w: 0.9523037694934823
  covariance: '<array type: double[36]>'
---
header:
  stamp:
    sec: 1778498256
    nanosec: 797000000
  frame_id: map
pose:
  pose:
    position:
      x: 1.586715953538077
      y: -0.38912450211499183
      z: 0.0
    orientation:
      x: 0.0
      y: 0.0
      z: -0.2632896952207075
      w: 0.9647168166827957
  covariance: '<array type: double[36]>'
---
header:
  stamp:
    sec: 1778498257
    nanosec: 211000000
  frame_id: map
pose:
  pose:
    position:
      x: 1.5897307607164626
      y: -0.3930307283187744
      z: 0.0
    orientation:
      x: 0.0
      y: 0.0
      z: -0.2083661502356145
      w: 0.9780508920480515
  covariance: '<array type: double[36]>'
---
header:
  stamp:
    sec: 1778498257
    nanosec: 511000000
  frame_id: map
pose:
  pose:
    position:
      x: 1.5911290332627668
      y: -0.3952075293464905
      z: 0.0
    orientation:
      x: 0.0
      y: 0.0
      z: -0.16406066919200007
      w: 0.9864502505571546
  covariance: '<array type: double[36]>'
---
header:
  stamp:
    sec: 1778498257
    nanosec: 760000000
  frame_id: map
pose:
  pose:
    position:
      x: 1.589209779763901
      y: -0.3944736473293345
      z: 0.0
    orientation:
      x: 0.0
      y: 0.0
      z: -0.12443824185861622
      w: 0.9922273549762355
  covariance: '<array type: double[36]>'
---
header:
  stamp:
    sec: 1778498258
    nanosec: 74000000
  frame_id: map
pose:
  pose:
    position:
      x: 1.5910119839886414
      y: -0.39308837355426024
      z: 0.0
    orientation:
      x: 0.0
      y: 0.0
      z: -0.08100703326517084
      w: 0.996713529837724
  covariance: '<array type: double[36]>'
---
header:
  stamp:
    sec: 1778498264
    nanosec: 72000000
  frame_id: map
pose:
  pose:
    position:
      x: 1.5828545027330139
      y: -0.3910159898150243
      z: 0.0
    orientation:
      x: 0.0
      y: 0.0
      z: -0.12235477637877251
      w: 0.9924864274625123
  covariance: '<array type: double[36]>'
---
header:
  stamp:
    sec: 1778498264
    nanosec: 552000000
  frame_id: map
pose:
  pose:
    position:
      x: 1.5779002416259251
      y: -0.3897911229082151
      z: 0.0
    orientation:
      x: 0.0
      y: 0.0
      z: -0.16440074312724043
      w: 0.986393631193557
  covariance: '<array type: double[36]>'
---
header:
  stamp:
    sec: 1778498265
    nanosec: 273000000
  frame_id: map
pose:
  pose:
    position:
      x: 1.5818688327023307
      y: -0.39040297547719804
      z: 0.0
    orientation:
      x: 0.0
      y: 0.0
      z: -0.20816169044533728
      w: 0.9780944282792636
  covariance: '<array type: double[36]>'
---
header:
  stamp:
    sec: 1778498265
    nanosec: 591000000
  frame_id: map
pose:
  pose:
    position:
      x: 1.5873904295051493
      y: -0.3928410697635964
      z: 0.0
    orientation:
      x: 0.0
      y: 0.0
      z: -0.25398067734023794
      w: 0.9672092925203903
  covariance: '<array type: double[36]>'
---
header:
  stamp:
    sec: 1778498265
    nanosec: 997000000
  frame_id: map
pose:
  pose:
    position:
      x: 1.5744488985333611
      y: -0.3844453074438386
      z: 0.0
    orientation:
      x: 0.0
      y: 0.0
      z: -0.3008076613130105
      w: 0.953684827862642
  covariance: '<array type: double[36]>'
---
header:
  stamp:
    sec: 1778498266
    nanosec: 309000000
  frame_id: map
pose:
  pose:
    position:
      x: 1.5792313213322602
      y: -0.38862006816555567
      z: 0.0
    orientation:
      x: 0.0
      y: 0.0
      z: -0.34708462240111004
      w: 0.9378338151787229
  covariance: '<array type: double[36]>'
---
header:
  stamp:
    sec: 1778498266
    nanosec: 712000000
  frame_id: map
pose:
  pose:
    position:
      x: 1.5812172023897373
      y: -0.396238433270702
      z: 0.0
    orientation:
      x: 0.0
      y: 0.0
      z: -0.39001216866242516
      w: 0.9208097025418618
  covariance: '<array type: double[36]>'
---
header:
  stamp:
    sec: 1778498267
    nanosec: 39000000
  frame_id: map
pose:
  pose:
    position:
      x: 1.5859258559143756
      y: -0.402079259224006
      z: 0.0
    orientation:
      x: 0.0
      y: 0.0
      z: -0.42888789500282476
      w: 0.9033577217913432
  covariance: '<array type: double[36]>'
---
header:
  stamp:
    sec: 1778498267
    nanosec: 668000000
  frame_id: map
pose:
  pose:
    position:
      x: 1.5824210757323534
      y: -0.4005387324459319
      z: 0.0
    orientation:
      x: 0.0
      y: 0.0
      z: -0.4696923015735376
      w: 0.8828301885654755
  covariance: '<array type: double[36]>'
---
header:
  stamp:
    sec: 1778498268
    nanosec: 155000000
  frame_id: map
pose:
  pose:
    position:
      x: 1.5851750151499149
      y: -0.4021554394861947
      z: 0.0
    orientation:
      x: 0.0
      y: 0.0
      z: -0.5175078365150757
      w: 0.8556784671507667
  covariance: '<array type: double[36]>'
---
header:
  stamp:
    sec: 1778498268
    nanosec: 551000000
  frame_id: map
pose:
  pose:
    position:
      x: 1.589640422260729
      y: -0.4090802475610353
      z: 0.0
    orientation:
      x: 0.0
      y: 0.0
      z: -0.5468354345625634
      w: 0.8372401134123785
  covariance: '<array type: double[36]>'
---
header:
  stamp:
    sec: 1778498268
    nanosec: 869000000
  frame_id: map
pose:
  pose:
    position:
      x: 1.5867645276123317
      y: -0.4093122644536139
      z: 0.0
    orientation:
      x: 0.0
      y: 0.0
      z: -0.5834617653217247
      w: 0.8121406087665218
  covariance: '<array type: double[36]>'
---
header:
  stamp:
    sec: 1778498269
    nanosec: 189000000
  frame_id: map
pose:
  pose:
    position:
      x: 1.5962909155168559
      y: -0.4203620806019495
      z: 0.0
    orientation:
      x: 0.0
      y: 0.0
      z: -0.6184532197460555
      w: 0.7858216177897737
  covariance: '<array type: double[36]>'
---
header:
  stamp:
    sec: 1778498269
    nanosec: 509000000
  frame_id: map
pose:
  pose:
    position:
      x: 1.595406206673569
      y: -0.41707671801154755
      z: 0.0
    orientation:
      x: 0.0
      y: 0.0
      z: -0.6506989665426725
      w: 0.7593357985373125
  covariance: '<array type: double[36]>'
---
header:
  stamp:
    sec: 1778498269
    nanosec: 752000000
  frame_id: map
pose:
  pose:
    position:
      x: 1.5939638376243803
      y: -0.4563867073768196
      z: 0.0
    orientation:
      x: 0.0
      y: 0.0
      z: -0.6860877016483053
      w: 0.7275188421250312
  covariance: '<array type: double[36]>'
---
header:
  stamp:
    sec: 1778498270
    nanosec: 71000000
  frame_id: map
pose:
  pose:
    position:
      x: 1.5939640254600957
      y: -0.49058850892916167
      z: 0.0
    orientation:
      x: 0.0
      y: 0.0
      z: -0.7171488037284798
      w: 0.6969200767023507
  covariance: '<array type: double[36]>'
---
header:
  stamp:
    sec: 1778498270
    nanosec: 495000000
  frame_id: map
pose:
  pose:
    position:
      x: 1.6009744230535146
      y: -0.5036809363611484
      z: 0.0
    orientation:
      x: 0.0
      y: 0.0
      z: -0.7411613274001629
      w: 0.6713269596600664
  covariance: '<array type: double[36]>'
---
header:
  stamp:
    sec: 1778498271
    nanosec: 35000000
  frame_id: map
pose:
  pose:
    position:
      x: 1.5918717589942843
      y: -0.5547912882819102
      z: 0.0
    orientation:
      x: 0.0
      y: 0.0
      z: -0.7529505382341715
      w: 0.6580771132419599
  covariance: '<array type: double[36]>'
---
header:
  stamp:
    sec: 1778498272
    nanosec: 162000000
  frame_id: map
pose:
  pose:
    position:
      x: 1.5720353370664901
      y: -0.6373944165508127
      z: 0.0
    orientation:
      x: 0.0
      y: 0.0
      z: -0.7682367785074519
      w: 0.6401658005145952
  covariance: '<array type: double[36]>'
---
header:
  stamp:
    sec: 1778498272
    nanosec: 793000000
  frame_id: map
pose:
  pose:
    position:
      x: 1.5584998726508654
      y: -0.6909433647115486
      z: 0.0
    orientation:
      x: 0.0
      y: 0.0
      z: -0.768927596786442
      w: 0.6393358670528558
  covariance: '<array type: double[36]>'
---
header:
  stamp:
    sec: 1778498273
    nanosec: 386000000
  frame_id: map
pose:
  pose:
    position:
      x: 1.5465954799720205
      y: -0.7415421441220758
      z: 0.0
    orientation:
      x: 0.0
      y: 0.0
      z: -0.7624478571293472
      w: 0.647049662049882
  covariance: '<array type: double[36]>'
---
header:
  stamp:
    sec: 1778498274
    nanosec: 635000000
  frame_id: map
pose:
  pose:
    position:
      x: 1.5498920510616148
      y: -0.7206817612070615
      z: 0.0
    orientation:
      x: 0.0
      y: 0.0
      z: -0.7372309783015225
      w: 0.6756407955656468
  covariance: '<array type: double[36]>'
---
header:
  stamp:
    sec: 1778498274
    nanosec: 951000000
  frame_id: map
pose:
  pose:
    position:
      x: 1.5559492289676713
      y: -0.732320118415933
      z: 0.0
    orientation:
      x: 0.0
      y: 0.0
      z: -0.700461627570725
      w: 0.7136900645945485
  covariance: '<array type: double[36]>'
---
header:
  stamp:
    sec: 1778498275
    nanosec: 200000000
  frame_id: map
pose:
  pose:
    position:
      x: 1.550440253656381
      y: -0.7833801790539877
      z: 0.0
    orientation:
      x: 0.0
      y: 0.0
      z: -0.6649227673641217
      w: 0.7469121189543239
  covariance: '<array type: double[36]>'
---
header:
  stamp:
    sec: 1778498275
    nanosec: 509000000
  frame_id: map
pose:
  pose:
    position:
      x: 1.5553276858868124
      y: -0.7930343898372955
      z: 0.0
    orientation:
      x: 0.0
      y: 0.0
      z: -0.6321186690213204
      w: 0.7748715947011572
  covariance: '<array type: double[36]>'
---
header:
  stamp:
    sec: 1778498275
    nanosec: 921000000
  frame_id: map
pose:
  pose:
    position:
      x: 1.560512580346096
      y: -0.8060892519081312
      z: 0.0
    orientation:
      x: 0.0
      y: 0.0
      z: -0.6056630942578942
      w: 0.7957211925379097
  covariance: '<array type: double[36]>'
---
header:
  stamp:
    sec: 1778498276
    nanosec: 398000000
  frame_id: map
pose:
  pose:
    position:
      x: 1.5740678491947584
      y: -0.8402588582097488
      z: 0.0
    orientation:
      x: 0.0
      y: 0.0
      z: -0.5714649993998
      w: 0.8206264402643791
  covariance: '<array type: double[36]>'
---
header:
  stamp:
    sec: 1778498277
    nanosec: 194000000
  frame_id: map
pose:
  pose:
    position:
      x: 1.581942184634757
      y: -0.8498738790555919
      z: 0.0
    orientation:
      x: 0.0
      y: 0.0
      z: -0.534623718467475
      w: 0.8450902198298179
  covariance: '<array type: double[36]>'
---
header:
  stamp:
    sec: 1778498277
    nanosec: 753000000
  frame_id: map
pose:
  pose:
    position:
      x: 1.5850387050605796
      y: -0.8542827354502533
      z: 0.0
    orientation:
      x: 0.0
      y: 0.0
      z: -0.5035605013113272
      w: 0.8639599652293414
  covariance: '<array type: double[36]>'
---
header:
  stamp:
    sec: 1778498278
    nanosec: 151000000
  frame_id: map
pose:
  pose:
    position:
      x: 1.5870977135942947
      y: -0.8540008581204983
      z: 0.0
    orientation:
      x: 0.0
      y: 0.0
      z: -0.46453611464155503
      w: 0.8855541757530863
  covariance: '<array type: double[36]>'
---
header:
  stamp:
    sec: 1778498278
    nanosec: 711000000
  frame_id: map
pose:
  pose:
    position:
      x: 1.5989924657744543
      y: -0.858249643228946
      z: 0.0
    orientation:
      x: 0.0
      y: 0.0
      z: -0.42215893803203747
      w: 0.9065218315295348
  covariance: '<array type: double[36]>'
---
header:
  stamp:
    sec: 1778498279
    nanosec: 588000000
  frame_id: map
pose:
  pose:
    position:
      x: 1.6052264121042759
      y: -0.8591496141358614
      z: 0.0
    orientation:
      x: 0.0
      y: 0.0
      z: -0.3885643617596214
      w: 0.9214215847104614
  covariance: '<array type: double[36]>'
---
header:
  stamp:
    sec: 1778498281
    nanosec: 273000000
  frame_id: map
pose:
  pose:
    position:
      x: 1.6178473608384383
      y: -0.8674501536853689
      z: 0.0
    orientation:
      x: 0.0
      y: 0.0
      z: -0.3516231244929039
      w: 0.9361416443689746
  covariance: '<array type: double[36]>'
---
header:
  stamp:
    sec: 1778498281
    nanosec: 830000000
  frame_id: map
pose:
  pose:
    position:
      x: 1.6116091964990162
      y: -0.8610927343671332
      z: 0.0
    orientation:
      x: 0.0
      y: 0.0
      z: -0.30565623720142404
      w: 0.9521419351440555
  covariance: '<array type: double[36]>'
---
header:
  stamp:
    sec: 1778498282
    nanosec: 313000000
  frame_id: map
pose:
  pose:
    position:
      x: 1.6084279794629828
      y: -0.8543276314353717
      z: 0.0
    orientation:
      x: 0.0
      y: 0.0
      z: -0.2729386528415232
      w: 0.962031440122959
  covariance: '<array type: double[36]>'
---
header:
  stamp:
    sec: 1778498282
    nanosec: 708000000
  frame_id: map
pose:
  pose:
    position:
      x: 1.613550158988316
      y: -0.8493252512732985
      z: 0.0
    orientation:
      x: 0.0
      y: 0.0
      z: -0.23042251934935618
      w: 0.9730906754134969
  covariance: '<array type: double[36]>'
---
header:
  stamp:
    sec: 1778498283
    nanosec: 118000000
  frame_id: map
pose:
  pose:
    position:
      x: 1.621382355894854
      y: -0.8554014044629725
      z: 0.0
    orientation:
      x: 0.0
      y: 0.0
      z: -0.18433170685004002
      w: 0.9828640912403662
  covariance: '<array type: double[36]>'
---
header:
  stamp:
    sec: 1778498283
    nanosec: 514000000
  frame_id: map
pose:
  pose:
    position:
      x: 1.6220422602973485
      y: -0.8521654360140202
      z: 0.0
    orientation:
      x: 0.0
      y: 0.0
      z: -0.1367482709283495
      w: 0.9906058299839078
  covariance: '<array type: double[36]>'
---
header:
  stamp:
    sec: 1778498283
    nanosec: 914000000
  frame_id: map
pose:
  pose:
    position:
      x: 1.617300460651518
      y: -0.8493025640998804
      z: 0.0
    orientation:
      x: 0.0
      y: 0.0
      z: -0.08938856147321093
      w: 0.9959968298532631
  covariance: '<array type: double[36]>'
---
header:
  stamp:
    sec: 1778498284
    nanosec: 310000000
  frame_id: map
pose:
  pose:
    position:
      x: 1.6186211560331776
      y: -0.8486435411151998
      z: 0.0
    orientation:
      x: 0.0
      y: 0.0
      z: -0.046208125184465265
      w: 0.9989318340942673
  covariance: '<array type: double[36]>'
---
header:
  stamp:
    sec: 1778498286
    nanosec: 309000000
  frame_id: map
pose:
  pose:
    position:
      x: 1.674931463831053
      y: -0.8505472144257751
      z: 0.0
    orientation:
      x: 0.0
      y: 0.0
      z: -0.04456593480889623
      w: 0.9990064451516864
  covariance: '<array type: double[36]>'
---
header:
  stamp:
    sec: 1778498286
    nanosec: 731000000
  frame_id: map
pose:
  pose:
    position:
      x: 1.743448733752436
      y: -0.8576311272074362
      z: 0.0
    orientation:
      x: 0.0
      y: 0.0
      z: -0.045224529582036564
      w: 0.9989768475415651
  covariance: '<array type: double[36]>'
---
header:
  stamp:
    sec: 1778498287
    nanosec: 109000000
  frame_id: map
pose:
  pose:
    position:
      x: 1.7999275908426646
      y: -0.8632089189586162
      z: 0.0
    orientation:
      x: 0.0
      y: 0.0
      z: -0.038422702689416874
      w: 0.9992615753235189
  covariance: '<array type: double[36]>'
---
header:
  stamp:
    sec: 1778498287
    nanosec: 509000000
  frame_id: map
pose:
  pose:
    position:
      x: 1.86490119871412
      y: -0.8633360260185153
      z: 0.0
    orientation:
      x: 0.0
      y: 0.0
      z: -0.03956338387307643
      w: 0.999217062832952
  covariance: '<array type: double[36]>'
---
header:
  stamp:
    sec: 1778498287
    nanosec: 910000000
  frame_id: map
pose:
  pose:
    position:
      x: 1.926564901137323
      y: -0.8648490661508363
      z: 0.0
    orientation:
      x: 0.0
      y: 0.0
      z: -0.0287405885920688
      w: 0.9995869039595214
  covariance: '<array type: double[36]>'
---
header:
  stamp:
    sec: 1778498288
    nanosec: 319000000
  frame_id: map
pose:
  pose:
    position:
      x: 1.9899927727614442
      y: -0.8691239929890002
      z: 0.0
    orientation:
      x: 0.0
      y: 0.0
      z: -0.0184252369851078
      w: 0.9998302409119473
  covariance: '<array type: double[36]>'
---
header:
  stamp:
    sec: 1778498288
    nanosec: 712000000
  frame_id: map
pose:
  pose:
    position:
      x: 2.03442403473936
      y: -0.8688599749133423
      z: 0.0
    orientation:
      x: 0.0
      y: 0.0
      z: -0.003461001947406332
      w: 0.9999940107148243
  covariance: '<array type: double[36]>'
---
header:
  stamp:
    sec: 1778498289
    nanosec: 113000000
  frame_id: map
pose:
  pose:
    position:
      x: 2.084456025614977
      y: -0.8644197948771902
      z: 0.0
    orientation:
      x: 0.0
      y: 0.0
      z: 0.013114704118913563
      w: 0.9999139985698137
  covariance: '<array type: double[36]>'
---
header:
  stamp:
    sec: 1778498289
    nanosec: 521000000
  frame_id: map
pose:
  pose:
    position:
      x: 2.1375039735543324
      y: -0.8633260418117531
      z: 0.0
    orientation:
      x: 0.0
      y: 0.0
      z: 0.024035417842335934
      w: 0.9997111076151671
  covariance: '<array type: double[36]>'
---
header:
  stamp:
    sec: 1778498289
    nanosec: 988000000
  frame_id: map
pose:
  pose:
    position:
      x: 2.1898250576581595
      y: -0.8566556496127126
      z: 0.0
    orientation:
      x: 0.0
      y: 0.0
      z: 0.03198658178340289
      w: 0.9994882983736296
  covariance: '<array type: double[36]>'
---
header:
  stamp:
    sec: 1778498290
    nanosec: 470000000
  frame_id: map
pose:
  pose:
    position:
      x: 2.2511840012208237
      y: -0.8482299931117715
      z: 0.0
    orientation:
      x: 0.0
      y: 0.0
      z: 0.03900044152884065
      w: 0.9992391933669112
  covariance: '<array type: double[36]>'
---
header:
  stamp:
    sec: 1778498291
    nanosec: 112000000
  frame_id: map
pose:
  pose:
    position:
      x: 2.30204836902572
      y: -0.842457978028657
      z: 0.0
    orientation:
      x: 0.0
      y: 0.0
      z: 0.0394500541098613
      w: 0.9992215436181954
  covariance: '<array type: double[36]>'
---
header:
  stamp:
    sec: 1778498291
    nanosec: 764000000
  frame_id: map
pose:
  pose:
    position:
      x: 2.367173355448123
      y: -0.8369715770373779
      z: 0.0
    orientation:
      x: 0.0
      y: 0.0
      z: 0.026740455084735108
      w: 0.9996424100956608
  covariance: '<array type: double[36]>'
---
header:
  stamp:
    sec: 1778498292
    nanosec: 311000000
  frame_id: map
pose:
  pose:
    position:
      x: 2.4230745487421936
      y: -0.8289156470566298
      z: 0.0
    orientation:
      x: 0.0
      y: 0.0
      z: 0.024082908046247388
      w: 0.9997099647097832
  covariance: '<array type: double[36]>'
---
header:
  stamp:
    sec: 1778498292
    nanosec: 954000000
  frame_id: map
pose:
  pose:
    position:
      x: 2.4860757263887905
      y: -0.8214372323685193
      z: 0.0
    orientation:
      x: 0.0
      y: 0.0
      z: 0.025918587762967342
      w: 0.9996640569753288
  covariance: '<array type: double[36]>'
---
header:
  stamp:
    sec: 1778498293
    nanosec: 508000000
  frame_id: map
pose:
  pose:
    position:
      x: 2.5430811419397057
      y: -0.821019259319686
      z: 0.0
    orientation:
      x: 0.0
      y: 0.0
      z: 0.024766529989191776
      w: 0.9996932624521856
  covariance: '<array type: double[36]>'
---
header:
  stamp:
    sec: 1778498294
    nanosec: 85000000
  frame_id: map
pose:
  pose:
    position:
      x: 2.588560662851543
      y: -0.8438327328962228
      z: 0.0
    orientation:
      x: 0.0
      y: 0.0
      z: 0.0024226742605400514
      w: 0.9999970653204074
  covariance: '<array type: double[36]>'
---
header:
  stamp:
    sec: 1778498295
    nanosec: 915000000
  frame_id: map
pose:
  pose:
    position:
      x: 2.5886049167217124
      y: -0.8417541621226076
      z: 0.0
    orientation:
      x: 0.0
      y: 0.0
      z: -0.041203475154208774
      w: 0.9991507762271
  covariance: '<array type: double[36]>'
---
header:
  stamp:
    sec: 1778498296
    nanosec: 396000000
  frame_id: map
pose:
  pose:
    position:
      x: 2.585057015240212
      y: -0.8379256592247322
      z: 0.0
    orientation:
      x: 0.0
      y: 0.0
      z: -0.08129723496161564
      w: 0.9966899014174849
  covariance: '<array type: double[36]>'
---
header:
  stamp:
    sec: 1778498296
    nanosec: 834000000
  frame_id: map
pose:
  pose:
    position:
      x: 2.5796766017915993
      y: -0.8454290160776524
      z: 0.0
    orientation:
      x: 0.0
      y: 0.0
      z: -0.1478557248682537
      w: 0.9890089406186798
  covariance: '<array type: double[36]>'
---
header:
  stamp:
    sec: 1778498297
    nanosec: 191000000
  frame_id: map
pose:
  pose:
    position:
      x: 2.5758741627407415
      y: -0.8494228962471536
      z: 0.0
    orientation:
      x: 0.0
      y: 0.0
      z: -0.20443215826661135
      w: 0.9788807346487391
  covariance: '<array type: double[36]>'
---
header:
  stamp:
    sec: 1778498297
    nanosec: 536000000
  frame_id: map
pose:
  pose:
    position:
      x: 2.5669953561686105
      y: -0.8444491702764682
      z: 0.0
    orientation:
      x: 0.0
      y: 0.0
      z: -0.2615858083733719
      w: 0.9651802240295071
  covariance: '<array type: double[36]>'
---
header:
  stamp:
    sec: 1778498297
    nanosec: 841000000
  frame_id: map
pose:
  pose:
    position:
      x: 2.5633735654416436
      y: -0.8460137234331777
      z: 0.0
    orientation:
      x: 0.0
      y: 0.0
      z: -0.30414262976859263
      w: 0.9526265064323188
  covariance: '<array type: double[36]>'
---
header:
  stamp:
    sec: 1778498298
    nanosec: 237000000
  frame_id: map
pose:
  pose:
    position:
      x: 2.5605906571782824
      y: -0.8440556387768666
      z: 0.0
    orientation:
      x: 0.0
      y: 0.0
      z: -0.34128395081865887
      w: 0.9399602464538632
  covariance: '<array type: double[36]>'
---
header:
  stamp:
    sec: 1778498298
    nanosec: 634000000
  frame_id: map
pose:
  pose:
    position:
      x: 2.5729066847158015
      y: -0.8492164904746516
      z: 0.0
    orientation:
      x: 0.0
      y: 0.0
      z: -0.3823517652778437
      w: 0.9240168437798721
  covariance: '<array type: double[36]>'
---
header:
  stamp:
    sec: 1778498302
    nanosec: 153000000
  frame_id: map
pose:
  pose:
    position:
      x: 2.5668334886704574
      y: -0.8431785977711335
      z: 0.0
    orientation:
      x: 0.0
      y: 0.0
      z: -0.42674730512641185
      w: 0.9043709070770384
  covariance: '<array type: double[36]>'
---
header:
  stamp:
    sec: 1778498302
    nanosec: 563000000
  frame_id: map
pose:
  pose:
    position:
      x: 2.576029592200975
      y: -0.8444730319818963
      z: 0.0
    orientation:
      x: 0.0
      y: 0.0
      z: -0.46199499409405137
      w: 0.8868825319240634
  covariance: '<array type: double[36]>'
---
header:
  stamp:
    sec: 1778498303
    nanosec: 30000000
  frame_id: map
pose:
  pose:
    position:
      x: 2.578720479610376
      y: -0.8502645617020315
      z: 0.0
    orientation:
      x: 0.0
      y: 0.0
      z: -0.5039104851982286
      w: 0.8637558815471452
  covariance: '<array type: double[36]>'
---
header:
  stamp:
    sec: 1778498303
    nanosec: 353000000
  frame_id: map
pose:
  pose:
    position:
      x: 2.5782345841097323
      y: -0.8543368857581574
      z: 0.0
    orientation:
      x: 0.0
      y: 0.0
      z: -0.5382644826760611
      w: 0.8427759765735331
  covariance: '<array type: double[36]>'
---
header:
  stamp:
    sec: 1778498303
    nanosec: 752000000
  frame_id: map
pose:
  pose:
    position:
      x: 2.5763632410037047
      y: -0.8526548481399149
      z: 0.0
    orientation:
      x: 0.0
      y: 0.0
      z: -0.5823420117646898
      w: 0.8129438980236299
  covariance: '<array type: double[36]>'
---
header:
  stamp:
    sec: 1778498304
    nanosec: 155000000
  frame_id: map
pose:
  pose:
    position:
      x: 2.5803934442568397
      y: -0.8574875080819496
      z: 0.0
    orientation:
      x: 0.0
      y: 0.0
      z: -0.6193513110799985
      w: 0.7851139748237111
  covariance: '<array type: double[36]>'
---
header:
  stamp:
    sec: 1778498304
    nanosec: 472000000
  frame_id: map
pose:
  pose:
    position:
      x: 2.580598828955097
      y: -0.8599994403622
      z: 0.0
    orientation:
      x: 0.0
      y: 0.0
      z: -0.6579908279764164
      w: 0.7530259426466727
  covariance: '<array type: double[36]>'
---
header:
  stamp:
    sec: 1778498305
    nanosec: 592000000
  frame_id: map
pose:
  pose:
    position:
      x: 2.5811489776541214
      y: -0.8154503979236557
      z: 0.0
    orientation:
      x: 0.0
      y: 0.0
      z: -0.656224928018369
      w: 0.7545653343795263
  covariance: '<array type: double[36]>'
---
header:
  stamp:
    sec: 1778498305
    nanosec: 751000000
  frame_id: map
pose:
  pose:
    position:
      x: 2.5872716720260223
      y: -0.8648702600135223
      z: 0.0
    orientation:
      x: 0.0
      y: 0.0
      z: -0.6604776758389299
      w: 0.7508456830257503
  covariance: '<array type: double[36]>'
---
header:
  stamp:
    sec: 1778498306
    nanosec: 163000000
  frame_id: map
pose:
  pose:
    position:
      x: 2.5975122808410798
      y: -0.9275227836320262
      z: 0.0
    orientation:
      x: 0.0
      y: 0.0
      z: -0.6631155808426116
      w: 0.7485170181390439
  covariance: '<array type: double[36]>'
---
header:
  stamp:
    sec: 1778498306
    nanosec: 883000000
  frame_id: map
pose:
  pose:
    position:
      x: 2.601364276408615
      y: -0.9776464610624073
      z: 0.0
    orientation:
      x: 0.0
      y: 0.0
      z: -0.6808915915035322
      w: 0.7323842165283104
  covariance: '<array type: double[36]>'
---
header:
  stamp:
    sec: 1778498307
    nanosec: 430000000
  frame_id: map
pose:
  pose:
    position:
      x: 2.6022501883545277
      y: -1.0274315906311666
      z: 0.0
    orientation:
      x: 0.0
      y: 0.0
      z: -0.705174276737429
      w: 0.7090340185265047
  covariance: '<array type: double[36]>'
---
header:
  stamp:
    sec: 1778498307
    nanosec: 914000000
  frame_id: map
pose:
  pose:
    position:
      x: 2.604393149054946
      y: -1.0820908804274976
      z: 0.0
    orientation:
      x: 0.0
      y: 0.0
      z: -0.7161662706540467
      w: 0.6979297047536197
  covariance: '<array type: double[36]>'
---
header:
  stamp:
    sec: 1778498308
    nanosec: 394000000
  frame_id: map
pose:
  pose:
    position:
      x: 2.6048286908562006
      y: -1.1375722824796486
      z: 0.0
    orientation:
      x: 0.0
      y: 0.0
      z: -0.7169116877886235
      w: 0.6971639921224182
  covariance: '<array type: double[36]>'
---
header:
  stamp:
    sec: 1778498309
    nanosec: 436000000
  frame_id: map
pose:
  pose:
    position:
      x: 2.60816627799222
      y: -1.1750279216482746
      z: 0.0
    orientation:
      x: 0.0
      y: 0.0
      z: -0.6894880402676475
      w: 0.7242970677338676
  covariance: '<array type: double[36]>'
---
header:
  stamp:
    sec: 1778498310
    nanosec: 156000000
  frame_id: map
pose:
  pose:
    position:
      x: 2.6145108086152504
      y: -1.224759898380214
      z: 0.0
    orientation:
      x: 0.0
      y: 0.0
      z: -0.6757979090822247
      w: 0.7370869596459383
  covariance: '<array type: double[36]>'
---
header:
  stamp:
    sec: 1778498310
    nanosec: 552000000
  frame_id: map
pose:
  pose:
    position:
      x: 2.6167743749073638
      y: -1.2598207493144722
      z: 0.0
    orientation:
      x: 0.0
      y: 0.0
      z: -0.6456915377411796
      w: 0.7635983486686119
  covariance: '<array type: double[36]>'
---
header:
  stamp:
    sec: 1778498312
    nanosec: 474000000
  frame_id: map
pose:
  pose:
    position:
      x: 2.6135770921814947
      y: -1.2192909691248246
      z: 0.0
    orientation:
      x: 0.0
      y: 0.0
      z: -0.6152177772723294
      w: 0.7883572074434879
  covariance: '<array type: double[36]>'
---
header:
  stamp:
    sec: 1778498313
    nanosec: 33000000
  frame_id: map
pose:
  pose:
    position:
      x: 2.6153736580775706
      y: -1.2200157480705025
      z: 0.0
    orientation:
      x: 0.0
      y: 0.0
      z: -0.5852445169749155
      w: 0.810856864897127
  covariance: '<array type: double[36]>'
---
header:
  stamp:
    sec: 1778498313
    nanosec: 188000000
  frame_id: map
pose:
  pose:
    position:
      x: 2.6299269648902786
      y: -1.281118783330864
      z: 0.0
    orientation:
      x: 0.0
      y: 0.0
      z: -0.5811341106611925
      w: 0.8138078061962941
  covariance: '<array type: double[36]>'
---
header:
  stamp:
    sec: 1778498313
    nanosec: 751000000
  frame_id: map
pose:
  pose:
    position:
      x: 2.643537367703569
      y: -1.3192916572502342
      z: 0.0
    orientation:
      x: 0.0
      y: 0.0
      z: -0.5738491475725891
      w: 0.8189610221678519
  covariance: '<array type: double[36]>'
---
header:
  stamp:
    sec: 1778498315
    nanosec: 755000000
  frame_id: map
pose:
  pose:
    position:
      x: 2.629326730592563
      y: -1.2701842715482583
      z: 0.0
    orientation:
      x: 0.0
      y: 0.0
      z: -0.5987077915201473
      w: 0.8009675276645538
  covariance: '<array type: double[36]>'
---
header:
  stamp:
    sec: 1778498316
    nanosec: 392000000
  frame_id: map
pose:
  pose:
    position:
      x: 2.6236371073542157
      y: -1.261317697831351
      z: 0.0
    orientation:
      x: 0.0
      y: 0.0
      z: -0.6333993500321289
