header:
  stamp:
    sec: 1778498070
    nanosec: 68000000
  frame_id: odom
child_frame_id: base_footprint
pose:
  pose:
    position:
      x: 0.022885205155056584
      y: -0.25378083597768575
      z: 0.0
    orientation:
      x: 0.0
      y: 0.0
      z: -0.01823979612159886
      w: 0.9998336410810763
  covariance: '<array type: double[36]>'
twist:
  twist:
    linear:
      x: 7.324855404278208e-135
      y: 0.0
      z: 0.0
    angular:
      x: 0.0
      y: 0.0
      z: -6.143118154973226e-20
  covariance: '<array type: double[36]>'
---
header:
  stamp:
    sec: 1778498070
    nanosec: 148000000
  frame_id: odom
child_frame_id: base_footprint
pose:
  pose:
    position:
      x: 0.022885205155056584
      y: -0.25378083597768575
      z: 0.0
    orientation:
      x: 0.0
      y: 0.0
      z: -0.018239833312836528
      w: 0.9998336404026021
  covariance: '<array type: double[36]>'
twist:
  twist:
    linear:
      x: 5.473325230787867e-135
      y: 0.0
      z: 0.0
    angular:
      x: 0.0
      y: 0.0
      z: -6.030894818063883e-17
  covariance: '<array type: double[36]>'
---
header:
  stamp:
    sec: 1778498070
    nanosec: 272000000
  frame_id: odom
child_frame_id: base_footprint
pose:
  pose:
    position:
      x: 0.022885205155056584
      y: -0.25378083597768575
      z: 0.0
    orientation:
      x: 0.0
      y: 0.0
      z: -0.01823480852139498
      w: 0.9998337320565795
  covariance: '<array type: double[36]>'
twist:
  twist:
    linear:
      x: 1.9432063193340743e-135
      y: 0.0
      z: 0.0
    angular:
      x: 0.0
      y: 0.0
      z: 6.270903250223097e-15
  covariance: '<array type: double[36]>'
---
header:
  stamp:
    sec: 1778498070
    nanosec: 383000000
  frame_id: odom
child_frame_id: base_footprint
pose:
  pose:
    position:
      x: 0.022885205155056584
      y: -0.25378083597768575
      z: 0.0
    orientation:
      x: 0.0
      y: 0.0
      z: -0.018232909708235538
      w: 0.9998337666850282
  covariance: '<array type: double[36]>'
twist:
  twist:
    linear:
      x: 3.538541627178327e-135
      y: 0.0
      z: 0.0
    angular:
      x: 0.0
      y: 0.0
      z: -3.9628154176186926e-20
  covariance: '<array type: double[36]>'
---
header:
  stamp:
    sec: 1778498070
    nanosec: 473000000
  frame_id: odom
child_frame_id: base_footprint
pose:
  pose:
    position:
      x: 0.022885205155056584
      y: -0.25378083597768575
      z: 0.0
    orientation:
      x: 0.0
      y: 0.0
      z: -0.018230709474004868
      w: 0.9998338068059484
  covariance: '<array type: double[36]>'
twist:
  twist:
    linear:
      x: 1.7959110091323825e-135
      y: 0.0
      z: 0.0
    angular:
      x: 0.0
      y: 0.0
      z: -1.103018151043437e-14
  covariance: '<array type: double[36]>'
---
header:
  stamp:
    sec: 1778498070
    nanosec: 582000000
  frame_id: odom
child_frame_id: base_footprint
pose:
  pose:
    position:
      x: 0.022885205155056584
      y: -0.25378083597768575
      z: 0.0
    orientation:
      x: 0.0
      y: 0.0
      z: -0.01822721190520288
      w: 0.9998338705735883
  covariance: '<array type: double[36]>'
twist:
  twist:
    linear:
      x: 4.592902745780845e-135
      y: 0.0
      z: 0.0
    angular:
      x: 0.0
      y: 0.0
      z: 7.531844451238582e-21
  covariance: '<array type: double[36]>'
---
header:
  stamp:
    sec: 1778498070
    nanosec: 679000000
  frame_id: odom
child_frame_id: base_footprint
pose:
  pose:
    position:
      x: 0.022885205155056584
      y: -0.25378083597768575
      z: 0.0
    orientation:
      x: 0.0
      y: 0.0
      z: -0.018229648856644593
      w: 0.9998338261444065
  covariance: '<array type: double[36]>'
twist:
  twist:
    linear:
      x: 4.745033276025326e-135
      y: 0.0
      z: 0.0
    angular:
      x: 0.0
      y: 0.0
      z: -1.7700563641716583e-19
  covariance: '<array type: double[36]>'
---
header:
  stamp:
    sec: 1778498070
    nanosec: 742000000
  frame_id: odom
child_frame_id: base_footprint
pose:
  pose:
    position:
      x: 0.022885205155056584
      y: -0.25378083597768575
      z: 0.0
    orientation:
      x: 0.0
      y: 0.0
      z: -0.018228464432591445
      w: 0.9998338477389279
  covariance: '<array type: double[36]>'
twist:
  twist:
    linear:
      x: 2.814707423222624e-135
      y: 0.0
      z: 0.0
    angular:
      x: 0.0
      y: 0.0
      z: -3.353607782992102e-19
  covariance: '<array type: double[36]>'
---
header:
  stamp:
    sec: 1778498070
    nanosec: 873000000
  frame_id: odom
child_frame_id: base_footprint
pose:
  pose:
    position:
      x: 0.022885205155056584
      y: -0.25378083597768575
      z: 0.0
    orientation:
      x: 0.0
      y: 0.0
      z: -0.01826171132412033
      w: 0.9998332410454828
  covariance: '<array type: double[36]>'
twist:
  twist:
    linear:
      x: 3.3880064120707675e-135
      y: 0.0
      z: 0.0
    angular:
      x: 0.0
      y: 0.0
      z: -6.888195152467355e-14
  covariance: '<array type: double[36]>'
---
header:
  stamp:
    sec: 1778498070
    nanosec: 942000000
  frame_id: odom
child_frame_id: base_footprint
pose:
  pose:
    position:
      x: 0.022885205155056584
      y: -0.25378083597768575
      z: 0.0
    orientation:
      x: 0.0
      y: 0.0
      z: -0.01821640832977544
      w: 0.9998340674669787
  covariance: '<array type: double[36]>'
twist:
  twist:
    linear:
      x: 3.003137670315528e-135
      y: 0.0
      z: 0.0
    angular:
      x: 0.0
      y: 0.0
      z: 9.366589067951586e-19
  covariance: '<array type: double[36]>'
---
header:
  stamp:
    sec: 1778498071
    nanosec: 24000000
  frame_id: odom
child_frame_id: base_footprint
pose:
  pose:
    position:
      x: 0.022885205155056584
      y: -0.25378083597768575
      z: 0.0
    orientation:
      x: 0.0
      y: 0.0
      z: -0.018164541097220037
      w: 0.9998350111126972
  covariance: '<array type: double[36]>'
twist:
  twist:
    linear:
      x: 3.018949087943987e-135
      y: 0.0
      z: 0.0
    angular:
      x: 0.0
      y: 0.0
      z: 8.349093959145895e-14
  covariance: '<array type: double[36]>'
---
header:
  stamp:
    sec: 1778498071
    nanosec: 183000000
  frame_id: odom
child_frame_id: base_footprint
pose:
  pose:
    position:
      x: 0.022885205155056584
      y: -0.25378083597768575
      z: 0.0
    orientation:
      x: 0.0
      y: 0.0
      z: -0.018209381546316857
      w: 0.9998341954662786
  covariance: '<array type: double[36]>'
twist:
  twist:
    linear:
      x: 1.6307952687979767e-135
      y: 0.0
      z: 0.0
    angular:
      x: 0.0
      y: 0.0
      z: -3.688032739475163e-15
  covariance: '<array type: double[36]>'
---
header:
  stamp:
    sec: 1778498071
    nanosec: 291000000
  frame_id: odom
child_frame_id: base_footprint
pose:
  pose:
    position:
      x: 0.022885205155056584
      y: -0.25378083597768575
      z: 0.0
    orientation:
      x: 0.0
      y: 0.0
      z: -0.018205414339689027
      w: 0.9998342677107642
  covariance: '<array type: double[36]>'
twist:
  twist:
    linear:
      x: 8.423390665580601e-136
      y: 0.0
      z: 0.0
    angular:
      x: 0.0
      y: 0.0
      z: 9.248080967191966e-16
  covariance: '<array type: double[36]>'
---
header:
  stamp:
    sec: 1778498071
    nanosec: 382000000
  frame_id: odom
child_frame_id: base_footprint
pose:
  pose:
    position:
      x: 0.022885205155056584
      y: -0.25378083597768575
      z: 0.0
    orientation:
      x: 0.0
      y: 0.0
      z: -0.01819561408467609
      w: 0.9998344461099955
  covariance: '<array type: double[36]>'
twist:
  twist:
    linear:
      x: 2.313772417464696e-135
      y: 0.0
      z: 0.0
    angular:
      x: 0.0
      y: 0.0
      z: 3.7879819531980586e-19
  covariance: '<array type: double[36]>'
---
header:
  stamp:
    sec: 1778498071
    nanosec: 441000000
  frame_id: odom
child_frame_id: base_footprint
pose:
  pose:
    position:
      x: 0.022885205155056584
      y: -0.25378083597768575
      z: 0.0
    orientation:
      x: 0.0
      y: 0.0
      z: -0.018213948297901465
      w: 0.9998341122843336
  covariance: '<array type: double[36]>'
twist:
  twist:
    linear:
      x: 8.463474293347333e-136
      y: 0.0
      z: 0.0
    angular:
      x: 0.0
      y: 0.0
      z: -3.665521038679267e-14
  covariance: '<array type: double[36]>'
---
header:
  stamp:
    sec: 1778498071
    nanosec: 582000000
  frame_id: odom
child_frame_id: base_footprint
pose:
  pose:
    position:
      x: 0.022885205155056584
      y: -0.25378083597768575
      z: 0.0
    orientation:
      x: 0.0
      y: 0.0
      z: -0.018185195039184587
      w: 0.9998346356680122
  covariance: '<array type: double[36]>'
twist:
  twist:
    linear:
      x: 2.239168675096142e-135
      y: 0.0
      z: 0.0
    angular:
      x: 0.0
      y: 0.0
      z: 7.845034232721171e-19
  covariance: '<array type: double[36]>'
---
header:
  stamp:
    sec: 1778498071
    nanosec: 662000000
  frame_id: odom
child_frame_id: base_footprint
pose:
  pose:
    position:
      x: 0.022885205155056584
      y: -0.25378083597768575
      z: 0.0
    orientation:
      x: 0.0
      y: 0.0
      z: -0.018195036262569516
      w: 0.9998344566253975
  covariance: '<array type: double[36]>'
twist:
  twist:
    linear:
      x: 1.644173489134871e-135
      y: 0.0
      z: 0.0
    angular:
      x: 0.0
      y: 0.0
      z: 9.58294684296516e-19
  covariance: '<array type: double[36]>'
---
header:
  stamp:
    sec: 1778498071
    nanosec: 792000000
  frame_id: odom
child_frame_id: base_footprint
pose:
  pose:
    position:
      x: 0.022885205155056584
      y: -0.25378083597768575
      z: 0.0
    orientation:
      x: 0.0
      y: 0.0
      z: -0.018169752208448853
      w: 0.9998349164260486
  covariance: '<array type: double[36]>'
twist:
  twist:
    linear:
      x: 4.151530575946555e-136
      y: 0.0
      z: 0.0
    angular:
      x: 0.0
      y: 0.0
      z: 5.080624209576763e-14
  covariance: '<array type: double[36]>'
---
header:
  stamp:
    sec: 1778498071
    nanosec: 872000000
  frame_id: odom
child_frame_id: base_footprint
pose:
  pose:
    position:
      x: 0.022885205155056584
      y: -0.25378083597768575
      z: 0.0
    orientation:
      x: 0.0
      y: 0.0
      z: -0.01821024037279942
      w: 0.9998341798246172
  covariance: '<array type: double[36]>'
twist:
  twist:
    linear:
      x: 1.1727811503052137e-136
      y: 0.0
      z: 0.0
    angular:
      x: 0.0
      y: 0.0
      z: -3.4912314249180864e-19
  covariance: '<array type: double[36]>'
---
header:
  stamp:
    sec: 1778498071
    nanosec: 983000000
  frame_id: odom
child_frame_id: base_footprint
pose:
  pose:
    position:
      x: 0.022885205155056584
      y: -0.25378083597768575
      z: 0.0
    orientation:
      x: 0.0
      y: 0.0
      z: -0.018185812242299596
      w: 0.9998346244420063
  covariance: '<array type: double[36]>'
twist:
  twist:
    linear:
      x: 7.171180307497548e-136
      y: 0.0
      z: 0.0
    angular:
      x: 0.0
      y: 0.0
      z: 5.017334472448833e-14
  covariance: '<array type: double[36]>'
---
header:
  stamp:
    sec: 1778498072
    nanosec: 65000000
  frame_id: odom
child_frame_id: base_footprint
pose:
  pose:
    position:
      x: 0.022885205155056584
      y: -0.25378083597768575
      z: 0.0
    orientation:
      x: 0.0
      y: 0.0
      z: -0.01820175683058721
      w: 0.9998343343015783
  covariance: '<array type: double[36]>'
twist:
  twist:
    linear:
      x: 3.494896734926303e-136
      y: 0.0
      z: 0.0
    angular:
      x: 0.0
      y: 0.0
      z: 6.680859753805745e-14
  covariance: '<array type: double[36]>'
---
header:
  stamp:
    sec: 1778498072
    nanosec: 183000000
  frame_id: odom
child_frame_id: base_footprint
pose:
  pose:
    position:
      x: 0.022885205155056584
      y: -0.25378083597768575
      z: 0.0
    orientation:
      x: 0.0
      y: 0.0
      z: -0.01818076583501607
      w: 0.9998347162174618
  covariance: '<array type: double[36]>'
twist:
  twist:
    linear:
      x: 1.1287287189175022e-135
      y: 0.0
      z: 0.0
    angular:
      x: 0.0
      y: 0.0
      z: 4.751828786399896e-19
  covariance: '<array type: double[36]>'
---
header:
  stamp:
    sec: 1778498072
    nanosec: 262000000
  frame_id: odom
child_frame_id: base_footprint
pose:
  pose:
    position:
      x: 0.022885205155056584
      y: -0.25378083597768575
      z: 0.0
    orientation:
      x: 0.0
      y: 0.0
      z: -0.018179613131250254
      w: 0.9998347371772988
  covariance: '<array type: double[36]>'
twist:
  twist:
    linear:
      x: 5.278876908476254e-136
      y: 0.0
      z: 0.0
    angular:
      x: 0.0
      y: 0.0
      z: -5.62304344874275e-15
  covariance: '<array type: double[36]>'
---
header:
  stamp:
    sec: 1778498072
    nanosec: 382000000
  frame_id: odom
child_frame_id: base_footprint
pose:
  pose:
    position:
      x: 0.022885205155056584
      y: -0.25378083597768575
      z: 0.0
    orientation:
      x: 0.0
      y: 0.0
      z: -0.018153441500483147
      w: 0.9998352127034177
  covariance: '<array type: double[36]>'
twist:
  twist:
    linear:
      x: 1.3242983689198085e-135
      y: 0.0
      z: 0.0
    angular:
      x: 0.0
      y: 0.0
      z: 9.08339556117307e-19
  covariance: '<array type: double[36]>'
---
header:
  stamp:
    sec: 1778498072
    nanosec: 462000000
  frame_id: odom
child_frame_id: base_footprint
pose:
  pose:
    position:
      x: 0.022885205155056584
      y: -0.25378083597768575
      z: 0.0
    orientation:
      x: 0.0
      y: 0.0
      z: -0.018155392591441454
      w: 0.9998351772766603
  covariance: '<array type: double[36]>'
twist:
  twist:
    linear:
      x: 1.1464090269328313e-135
      y: 0.0
      z: 0.0
    angular:
      x: 0.0
      y: 0.0
      z: 9.082566494085272e-19
  covariance: '<array type: double[36]>'
---
header:
  stamp:
    sec: 1778498072
    nanosec: 542000000
  frame_id: odom
child_frame_id: base_footprint
pose:
  pose:
    position:
      x: 0.022885205155056584
      y: -0.25378083597768575
      z: 0.0
    orientation:
      x: 0.0
      y: 0.0
      z: -0.018168577071993108
      w: 0.9998349377808214
  covariance: '<array type: double[36]>'
twist:
  twist:
    linear:
      x: 8.991777528838527e-136
      y: 0.0
      z: 0.0
    angular:
      x: 0.0
      y: 0.0
      z: 6.016018638248558e-19
  covariance: '<array type: double[36]>'
---
header:
  stamp:
    sec: 1778498072
    nanosec: 681000000
  frame_id: odom
child_frame_id: base_footprint
pose:
  pose:
    position:
      x: 0.022885205155056584
      y: -0.25378083597768575
      z: 0.0
    orientation:
      x: 0.0
      y: 0.0
      z: -0.018172990352761997
      w: 0.9998348575748089
  covariance: '<array type: double[36]>'
twist:
  twist:
    linear:
      x: 6.999932422761934e-137
      y: 0.0
      z: 0.0
    angular:
      x: 0.0
      y: 0.0
      z: 1.4292554474068362e-19
  covariance: '<array type: double[36]>'
---
header:
  stamp:
    sec: 1778498072
    nanosec: 783000000
  frame_id: odom
child_frame_id: base_footprint
pose:
  pose:
    position:
      x: 0.022885205155056584
      y: -0.25378083597768575
      z: 0.0
    orientation:
      x: 0.0
      y: 0.0
      z: -0.018150595094708517
      w: 0.9998352643799417
  covariance: '<array type: double[36]>'
twist:
  twist:
    linear:
      x: 2.5659083628044583e-136
      y: 0.0
      z: 0.0
    angular:
      x: 0.0
      y: 0.0
      z: 5.2218606428645176e-14
  covariance: '<array type: double[36]>'
---
header:
  stamp:
    sec: 1778498072
    nanosec: 871000000
  frame_id: odom
child_frame_id: base_footprint
pose:
  pose:
    position:
      x: 0.022885205155056584
      y: -0.25378083597768575
      z: 0.0
    orientation:
      x: 0.0
      y: 0.0
      z: -0.01814946327847537
      w: 0.9998352849258239
  covariance: '<array type: double[36]>'
twist:
  twist:
    linear:
      x: 1.9326718035230906e-136
      y: 0.0
      z: 0.0
    angular:
      x: 0.0
      y: 0.0
      z: 5.0143310567495174e-14
  covariance: '<array type: double[36]>'
---
header:
  stamp:
    sec: 1778498072
    nanosec: 984000000
  frame_id: odom
child_frame_id: base_footprint
pose:
  pose:
    position:
      x: 0.022885205155056584
      y: -0.25378083597768575
      z: 0.0
    orientation:
      x: 0.0
      y: 0.0
      z: -0.018167802505932237
      w: 0.9998349518556078
  covariance: '<array type: double[36]>'
twist:
  twist:
    linear:
      x: 1.803924273947432e-136
      y: 0.0
      z: 0.0
    angular:
      x: 0.0
      y: 0.0
      z: -5.9705632395207e-14
  covariance: '<array type: double[36]>'
---
header:
  stamp:
    sec: 1778498073
    nanosec: 63000000
  frame_id: odom
child_frame_id: base_footprint
pose:
  pose:
    position:
      x: 0.022885205155056584
      y: -0.25378083597768575
      z: 0.0
    orientation:
      x: 0.0
      y: 0.0
      z: -0.018165899383999814
      w: 0.9998349864350469
  covariance: '<array type: double[36]>'
twist:
  twist:
    linear:
      x: 3.1700270324392556e-136
      y: 0.0
      z: 0.0
    angular:
      x: 0.0
      y: 0.0
      z: -5.885837024366168e-14
  covariance: '<array type: double[36]>'
---
header:
  stamp:
    sec: 1778498073
    nanosec: 143000000
  frame_id: odom
child_frame_id: base_footprint
pose:
  pose:
    position:
      x: 0.022885205155056584
      y: -0.25378083597768575
      z: 0.0
    orientation:
      x: 0.0
      y: 0.0
      z: -0.01816816525135339
      w: 0.9998349452641668
  covariance: '<array type: double[36]>'
twist:
  twist:
    linear:
      x: 2.041973791892749e-136
      y: 0.0
      z: 0.0
    angular:
      x: 0.0
      y: 0.0
      z: -6.061300735173187e-14
  covariance: '<array type: double[36]>'
---
header:
  stamp:
    sec: 1778498073
    nanosec: 262000000
  frame_id: odom
child_frame_id: base_footprint
pose:
  pose:
    position:
      x: 0.022885205155056584
      y: -0.25378083597768575
      z: 0.0
    orientation:
      x: 0.0
      y: 0.0
      z: -0.01816289860874903
      w: 0.9998350409513203
  covariance: '<array type: double[36]>'
twist:
  twist:
    linear:
      x: 4.90363257438921e-136
      y: 0.0
      z: 0.0
    angular:
      x: 0.0
      y: 0.0
      z: 1.2404283465840557e-18
  covariance: '<array type: double[36]>'
---
header:
  stamp:
    sec: 1778498073
    nanosec: 382000000
  frame_id: odom
child_frame_id: base_footprint
pose:
  pose:
    position:
      x: 0.022885205155056584
      y: -0.25378083597768575
      z: 0.0
    orientation:
      x: 0.0
      y: 0.0
      z: -0.018135710374911934
      w: 0.9998355344801451
  covariance: '<array type: double[36]>'
twist:
  twist:
    linear:
      x: 8.940814369938318e-136
      y: 0.0
      z: 0.0
    angular:
      x: 0.0
      y: 0.0
      z: 9.45038912967862e-19
  covariance: '<array type: double[36]>'
---
header:
  stamp:
    sec: 1778498073
    nanosec: 462000000
  frame_id: odom
child_frame_id: base_footprint
pose:
  pose:
    position:
      x: 0.022885205155056584
      y: -0.25378083597768575
      z: 0.0
    orientation:
      x: 0.0
      y: 0.0
      z: -0.018135247852868738
      w: 0.9998355428695836
  covariance: '<array type: double[36]>'
twist:
  twist:
    linear:
      x: 7.528051796622757e-136
      y: 0.0
      z: 0.0
    angular:
      x: 0.0
      y: 0.0
      z: 9.067068748321208e-19
  covariance: '<array type: double[36]>'
---
header:
  stamp:
    sec: 1778498073
    nanosec: 582000000
  frame_id: odom
child_frame_id: base_footprint
pose:
  pose:
    position:
      x: 0.022885205155056584
      y: -0.25378083597768575
      z: 0.0
    orientation:
      x: 0.0
      y: 0.0
      z: -0.018136552746741474
      w: 0.9998355192002656
  covariance: '<array type: double[36]>'
twist:
  twist:
    linear:
      x: 3.9728410031336724e-137
      y: 0.0
      z: 0.0
    angular:
      x: 0.0
      y: 0.0
      z: 7.517288182632353e-20
  covariance: '<array type: double[36]>'
---
header:
  stamp:
    sec: 1778498073
    nanosec: 685000000
  frame_id: odom
child_frame_id: base_footprint
pose:
  pose:
    position:
      x: 0.022885205155056584
      y: -0.25378083597768575
      z: 0.0
    orientation:
      x: 0.0
      y: 0.0
      z: -0.018150574745417748
      w: 0.9998352647493541
  covariance: '<array type: double[36]>'
twist:
  twist:
    linear:
      x: 3.7430483121580906e-137
      y: 0.0
      z: 0.0
    angular:
      x: 0.0
      y: 0.0
      z: -1.9403141411911394e-19
  covariance: '<array type: double[36]>'
---
header:
  stamp:
    sec: 1778498073
    nanosec: 782000000
  frame_id: odom
child_frame_id: base_footprint
pose:
  pose:
    position:
      x: 0.022885205155056584
      y: -0.25378083597768575
      z: 0.0
    orientation:
      x: 0.0
      y: 0.0
      z: -0.018125633757716104
      w: 0.9998357172060224
  covariance: '<array type: double[36]>'
twist:
  twist:
    linear:
      x: 2.200115332760236e-136
      y: 0.0
      z: 0.0
    angular:
      x: 0.0
      y: 0.0
      z: 6.686488541871639e-14
  covariance: '<array type: double[36]>'
---
header:
  stamp:
    sec: 1778498073
    nanosec: 864000000
  frame_id: odom
child_frame_id: base_footprint
pose:
  pose:
    position:
      x: 0.022885205155056584
      y: -0.25378083597768575
      z: 0.0
    orientation:
      x: 0.0
      y: 0.0
      z: -0.01812051228766751
      w: 0.9998358100380444
  covariance: '<array type: double[36]>'
twist:
  twist:
    linear:
      x: 1.382335326438655e-136
      y: 0.0
      z: 0.0
    angular:
      x: 0.0
      y: 0.0
      z: 7.027557076006711e-14
  covariance: '<array type: double[36]>'
---
header:
  stamp:
    sec: 1778498073
    nanosec: 983000000
  frame_id: odom
child_frame_id: base_footprint
pose:
  pose:
    position:
      x: 0.022885205155056584
      y: -0.25378083597768575
      z: 0.0
    orientation:
      x: 0.0
      y: 0.0
      z: -0.018126111297736964
      w: 0.9998357085487706
  covariance: '<array type: double[36]>'
twist:
  twist:
    linear:
      x: 3.696919766178119e-136
      y: 0.0
      z: 0.0
    angular:
      x: 0.0
      y: 0.0
      z: -4.177325241544432e-19
  covariance: '<array type: double[36]>'
---
header:
  stamp:
    sec: 1778498074
    nanosec: 62000000
  frame_id: odom
child_frame_id: base_footprint
pose:
  pose:
    position:
      x: 0.022885205155056584
      y: -0.25378083597768575
      z: 0.0
    orientation:
      x: 0.0
      y: 0.0
      z: -0.018124690908216664
      w: 0.9998357342981304
  covariance: '<array type: double[36]>'
twist:
  twist:
    linear:
      x: 2.6354562621675423e-136
      y: 0.0
      z: 0.0
    angular:
      x: 0.0
      y: 0.0
      z: -3.050482217656305e-14
  covariance: '<array type: double[36]>'
---
header:
  stamp:
    sec: 1778498074
    nanosec: 182000000
  frame_id: odom
child_frame_id: base_footprint
pose:
  pose:
    position:
      x: 0.022885205155056584
      y: -0.25378083597768575
      z: 0.0
    orientation:
      x: 0.0
      y: 0.0
      z: -0.01810963047953407
      w: 0.9998360071951273
  covariance: '<array type: double[36]>'
twist:
  twist:
    linear:
      x: 4.620351826536191e-136
      y: 0.0
      z: 0.0
    angular:
      x: 0.0
      y: 0.0
      z: 4.903018423486095e-19
  covariance: '<array type: double[36]>'
---
header:
  stamp:
    sec: 1778498074
    nanosec: 262000000
  frame_id: odom
child_frame_id: base_footprint
pose:
  pose:
    position:
      x: 0.022885205155056584
      y: -0.25378083597768575
      z: 0.0
    orientation:
      x: 0.0
      y: 0.0
      z: -0.01810658082381776
      w: 0.9998360624276714
  covariance: '<array type: double[36]>'
twist:
  twist:
    linear:
      x: 3.7416120804599305e-136
      y: 0.0
      z: 0.0
    angular:
      x: 0.0
      y: 0.0
      z: 5.000583786714352e-19
  covariance: '<array type: double[36]>'
---
header:
  stamp:
    sec: 1778498074
    nanosec: 383000000
  frame_id: odom
child_frame_id: base_footprint
pose:
  pose:
    position:
      x: 0.022885205155056584
      y: -0.25378083597768575
      z: 0.0
    orientation:
      x: 0.0
      y: 0.0
      z: -0.018134342050322355
      w: 0.9998355592988288
  covariance: '<array type: double[36]>'
twist:
  twist:
    linear:
      x: 5.570242816945207e-136
      y: 0.0
      z: 0.0
    angular:
      x: 0.0
      y: 0.0
      z: -1.125989450059857e-18
  covariance: '<array type: double[36]>'
---
header:
  stamp:
    sec: 1778498074
    nanosec: 484000000
  frame_id: odom
child_frame_id: base_footprint
pose:
  pose:
    position:
      x: 0.022885205155056584
      y: -0.25378083597768575
      z: 0.0
    orientation:
      x: 0.0
      y: 0.0
      z: -0.01808062505786762
      w: 0.9998365321378875
  covariance: '<array type: double[36]>'
twist:
  twist:
    linear:
      x: 2.236195785363189e-137
      y: 0.0
      z: 0.0
    angular:
      x: 0.0
      y: 0.0
      z: 2.1832953141509813e-19
  covariance: '<array type: double[36]>'
---
header:
  stamp:
    sec: 1778498074
    nanosec: 585000000
  frame_id: odom
child_frame_id: base_footprint
pose:
  pose:
    position:
      x: 0.022885205155056584
      y: -0.25378083597768575
      z: 0.0
    orientation:
      x: 0.0
      y: 0.0
      z: -0.01810574372007791
      w: 0.9998360775868926
  covariance: '<array type: double[36]>'
twist:
  twist:
    linear:
      x: 8.75902536550983e-137
      y: 0.0
      z: 0.0
    angular:
      x: 0.0
      y: 0.0
      z: -6.05415233257151e-14
  covariance: '<array type: double[36]>'
---
header:
  stamp:
    sec: 1778498074
    nanosec: 678000000
  frame_id: odom
child_frame_id: base_footprint
pose:
  pose:
    position:
      x: 0.022885205155056584
      y: -0.25378083597768575
      z: 0.0
    orientation:
      x: 0.0
      y: 0.0
      z: -0.018114668340619894
      w: 0.9998359159336643
  covariance: '<array type: double[36]>'
twist:
  twist:
    linear:
      x: 9.84301931933083e-137
      y: 0.0
      z: 0.0
    angular:
      x: 0.0
      y: 0.0
      z: -5.989637628145151e-14
  covariance: '<array type: double[36]>'
---
header:
  stamp:
    sec: 1778498074
    nanosec: 783000000
  frame_id: odom
child_frame_id: base_footprint
pose:
  pose:
    position:
      x: 0.022885205155056584
      y: -0.25378083597768575
      z: 0.0
    orientation:
      x: 0.0
      y: 0.0
      z: -0.018104790734708425
      w: 0.9998360948437761
  covariance: '<array type: double[36]>'
twist:
  twist:
    linear:
      x: 1.6700996414218956e-136
      y: 0.0
      z: 0.0
    angular:
      x: 0.0
      y: 0.0
      z: -5.747399023733442e-14
  covariance: '<array type: double[36]>'
---
header:
  stamp:
    sec: 1778498074
    nanosec: 864000000
  frame_id: odom
child_frame_id: base_footprint
pose:
  pose:
    position:
      x: 0.022885205155056584
      y: -0.25378083597768575
      z: 0.0
    orientation:
      x: 0.0
      y: 0.0
      z: -0.0181072055294662
      w: 0.9998360511143383
  covariance: '<array type: double[36]>'
twist:
  twist:
    linear:
      x: 1.1580608695002548e-136
      y: 0.0
      z: 0.0
    angular:
      x: 0.0
      y: 0.0
      z: -6.448438189933804e-14
  covariance: '<array type: double[36]>'
---
header:
  stamp:
    sec: 1778498074
    nanosec: 982000000
  frame_id: odom
child_frame_id: base_footprint
pose:
  pose:
    position:
      x: 0.022885205155056584
      y: -0.25378083597768575
      z: 0.0
    orientation:
      x: 0.0
      y: 0.0
      z: -0.01808409402651907
      w: 0.9998364694004915
  covariance: '<array type: double[36]>'
twist:
  twist:
    linear:
      x: 2.372607248474424e-136
      y: 0.0
      z: 0.0
    angular:
      x: 0.0
      y: 0.0
      z: 9.874765464468987e-19
  covariance: '<array type: double[36]>'
---
header:
  stamp:
    sec: 1778498075
    nanosec: 62000000
  frame_id: odom
child_frame_id: base_footprint
pose:
  pose:
    position:
      x: 0.022885205155056584
      y: -0.25378083597768575
      z: 0.0
    orientation:
      x: 0.0
      y: 0.0
      z: -0.018094244851795352
      w: 0.9998362857504439
  covariance: '<array type: double[36]>'
twist:
  twist:
    linear:
      x: 1.7824748553850206e-136
      y: 0.0
      z: 0.0
    angular:
      x: 0.0
      y: 0.0
      z: 6.6697882054864e-19
  covariance: '<array type: double[36]>'
---
header:
  stamp:
    sec: 1778498075
    nanosec: 182000000
  frame_id: odom
child_frame_id: base_footprint
pose:
  pose:
    position:
      x: 0.022885205155056584
      y: -0.25378083597768575
      z: 0.0
    orientation:
      x: 0.0
      y: 0.0
      z: -0.01807339981315062
      w: 0.9998366627700717
  covariance: '<array type: double[36]>'
twist:
  twist:
    linear:
      x: 2.1722137129161105e-136
      y: 0.0
      z: 0.0
    angular:
      x: 0.0
      y: 0.0
      z: 8.471554828274834e-19
  covariance: '<array type: double[36]>'
---
header:
  stamp:
    sec: 1778498075
    nanosec: 263000000
  frame_id: odom
child_frame_id: base_footprint
pose:
  pose:
    position:
      x: 0.022885205155056584
      y: -0.25378083597768575
      z: 0.0
    orientation:
      x: 0.0
      y: 0.0
      z: -0.01807526956548644
      w: 0.9998366289700208
  covariance: '<array type: double[36]>'
twist:
  twist:
    linear:
      x: 2.2918692318418738e-136
      y: 0.0
      z: 0.0
    angular:
      x: 0.0
      y: 0.0
      z: 8.103555335192939e-19
  covariance: '<array type: double[36]>'
---
header:
  stamp:
    sec: 1778498075
    nanosec: 390000000
  frame_id: odom
child_frame_id: base_footprint
pose:
  pose:
    position:
      x: 0.022885205155056584
      y: -0.25378083597768575
      z: 0.0
    orientation:
      x: 0.0
      y: 0.0
      z: -0.01806135721527761
      w: 0.9998368803837665
  covariance: '<array type: double[36]>'
twist:
  twist:
    linear:
      x: 3.914401142013795e-137
      y: 0.0
      z: 0.0
    angular:
      x: 0.0
      y: 0.0
      z: 5.4976720370902556e-14
  covariance: '<array type: double[36]>'
---
header:
  stamp:
    sec: 1778498075
    nanosec: 473000000
  frame_id: odom
child_frame_id: base_footprint
pose:
  pose:
    position:
      x: 0.022885205155056584
      y: -0.25378083597768575
      z: 0.0
    orientation:
      x: 0.0
      y: 0.0
      z: -0.01805597334442634
      w: 0.9998369776251453
  covariance: '<array type: double[36]>'
twist:
  twist:
    linear:
      x: 1.202025236229695e-137
      y: 0.0
      z: 0.0
    angular:
      x: 0.0
      y: 0.0
      z: 2.9360188520208287e-19
  covariance: '<array type: double[36]>'
---
header:
  stamp:
    sec: 1778498075
    nanosec: 583000000
  frame_id: odom
child_frame_id: base_footprint
pose:
  pose:
    position:
      x: 0.022885205155056584
      y: -0.25378083597768575
      z: 0.0
    orientation:
      x: 0.0
      y: 0.0
      z: -0.01807780682570926
      w: 0.9998365830976442
  covariance: '<array type: double[36]>'
twist:
  twist:
    linear:
      x: 7.348522702517749e-137
      y: 0.0
      z: 0.0
    angular:
      x: 0.0
      y: 0.0
      z: -6.446627131624906e-14
  covariance: '<array type: double[36]>'
---
header:
  stamp:
    sec: 1778498075
    nanosec: 663000000
  frame_id: odom
child_frame_id: base_footprint
pose:
  pose:
    position:
      x: 0.022885205155056584
      y: -0.25378083597768575
      z: 0.0
    orientation:
      x: 0.0
      y: 0.0
      z: -0.018077852741769724
      w: 0.9998365822674458
  covariance: '<array type: double[36]>'
twist:
  twist:
    linear:
      x: 4.147292677161552e-137
      y: 0.0
      z: 0.0
    angular:
      x: 0.0
      y: 0.0
      z: -6.075302860800214e-14
  covariance: '<array type: double[36]>'
---
header:
  stamp:
    sec: 1778498075
    nanosec: 784000000
  frame_id: odom
child_frame_id: base_footprint
pose:
  pose:
    position:
      x: 0.022885205155056584
      y: -0.25378083597768575
      z: 0.0
    orientation:
      x: 0.0
      y: 0.0
      z: -0.01806478871437271
      w: 0.9998368183902336
  covariance: '<array type: double[36]>'
twist:
  twist:
    linear:
      x: 1.1561575547932588e-136
      y: 0.0
      z: 0.0
    angular:
      x: 0.0
      y: 0.0
      z: 1.0374463728916741e-18
  covariance: '<array type: double[36]>'
---
header:
  stamp:
    sec: 1778498075
    nanosec: 862000000
  frame_id: odom
child_frame_id: base_footprint
pose:
  pose:
    position:
      x: 0.022885205155056584
      y: -0.25378083597768575
      z: 0.0
    orientation:
      x: 0.0
      y: 0.0
      z: -0.018063383650133175
      w: 0.9998368437755772
  covariance: '<array type: double[36]>'
twist:
  twist:
    linear:
      x: 5.159330505586056e-137
      y: 0.0
      z: 0.0
    angular:
      x: 0.0
      y: 0.0
      z: -1.4824603362109488e-14
  covariance: '<array type: double[36]>'
---
header:
  stamp:
    sec: 1778498075
    nanosec: 982000000
  frame_id: odom
child_frame_id: base_footprint
pose:
  pose:
    position:
      x: 0.022885205155056584
      y: -0.25378083597768575
      z: 0.0
    orientation:
      x: 0.0
      y: 0.0
      z: -0.018051174859412034
      w: 0.9998370642690713
  covariance: '<array type: double[36]>'
twist:
  twist:
    linear:
      x: 1.1880537707694892e-136
      y: 0.0
      z: 0.0
    angular:
      x: 0.0
      y: 0.0
      z: 4.738971243427377e-19
  covariance: '<array type: double[36]>'
---
header:
  stamp:
    sec: 1778498076
    nanosec: 63000000
  frame_id: odom
child_frame_id: base_footprint
pose:
  pose:
    position:
      x: 0.022885205155056584
      y: -0.25378083597768575
      z: 0.0
    orientation:
      x: 0.0
      y: 0.0
      z: -0.01805146834821754
      w: 0.999837058970347
  covariance: '<array type: double[36]>'
twist:
  twist:
    linear:
      x: 1.1740811249792083e-136
      y: 0.0
      z: 0.0
    angular:
      x: 0.0
      y: 0.0
      z: 3.6797092431307035e-19
  covariance: '<array type: double[36]>'
---
header:
  stamp:
    sec: 1778498076
    nanosec: 182000000
  frame_id: odom
child_frame_id: base_footprint
pose:
  pose:
    position:
      x: 0.022885205155056584
      y: -0.25378083597768575
      z: 0.0
    orientation:
      x: 0.0
      y: 0.0
      z: -0.018037547061421782
      w: 0.9998373102140202
  covariance: '<array type: double[36]>'
twist:
  twist:
    linear:
      x: 1.740687567264742e-136
      y: 0.0
      z: 0.0
    angular:
      x: 0.0
      y: 0.0
      z: 8.493529120074688e-19
  covariance: '<array type: double[36]>'
---
header:
  stamp:
    sec: 1778498076
    nanosec: 282000000
  frame_id: odom
child_frame_id: base_footprint
pose:
  pose:
    position:
      x: 0.022885205155056584
      y: -0.25378083597768575
      z: 0.0
    orientation:
      x: 0.0
      y: 0.0
      z: -0.018038626568819705
      w: 0.9998372907386035
  covariance: '<array type: double[36]>'
twist:
  twist:
    linear:
      x: 7.189033997992114e-138
      y: 0.0
      z: 0.0
    angular:
      x: 0.0
      y: 0.0
      z: 1.4394956713852575e-19
  covariance: '<array type: double[36]>'
---
header:
  stamp:
    sec: 1778498076
    nanosec: 385000000
  frame_id: odom
child_frame_id: base_footprint
pose:
  pose:
    position:
      x: 0.022885205155056584
      y: -0.25378083597768575
      z: 0.0
    orientation:
      x: 0.0
      y: 0.0
      z: -0.018054921384771303
      w: 0.9998369966218442
  covariance: '<array type: double[36]>'
twist:
  twist:
    linear:
      x: 2.805743168670478e-137
      y: 0.0
      z: 0.0
    angular:
      x: 0.0
      y: 0.0
      z: -3.382616508676834e-14
  covariance: '<array type: double[36]>'
---
header:
  stamp:
    sec: 1778498076
    nanosec: 470000000
  frame_id: odom
child_frame_id: base_footprint
pose:
  pose:
    position:
      x: 0.022885205155056584
      y: -0.25378083597768575
      z: 0.0
    orientation:
      x: 0.0
      y: 0.0
      z: -0.018044993168776044
      w: 0.9998371758549183
  covariance: '<array type: double[36]>'
twist:
  twist:
    linear:
      x: 1.9819062296264553e-137
      y: 0.0
      z: 0.0
    angular:
      x: 0.0
      y: 0.0
      z: -1.3830688115818342e-15
  covariance: '<array type: double[36]>'
---
header:
  stamp:
    sec: 1778498076
    nanosec: 582000000
  frame_id: odom
child_frame_id: base_footprint
pose:
  pose:
    position:
      x: 0.022885205155056584
      y: -0.25378083597768575
      z: 0.0
    orientation:
      x: 0.0
      y: 0.0
      z: -0.018044141444380865
      w: 0.9998371912264192
  covariance: '<array type: double[36]>'
twist:
  twist:
    linear:
      x: 3.5899777114550153e-137
      y: 0.0
      z: 0.0
    angular:
      x: 0.0
      y: 0.0
      z: -2.09349849296791e-14
  covariance: '<array type: double[36]>'
---
header:
  stamp:
    sec: 1778498076
    nanosec: 662000000
  frame_id: odom
child_frame_id: base_footprint
pose:
  pose:
    position:
      x: 0.022885205155056584
      y: -0.25378083597768575
      z: 0.0
    orientation:
      x: 0.0
      y: 0.0
      z: -0.018041470261410814
      w: 0.9998372394299018
  covariance: '<array type: double[36]>'
twist:
  twist:
    linear:
      x: 2.8041913260712067e-137
      y: 0.0
      z: 0.0
    angular:
      x: 0.0
      y: 0.0
      z: -1.828213531169795e-14
  covariance: '<array type: double[36]>'
---
header:
  stamp:
    sec: 1778498076
    nanosec: 782000000
  frame_id: odom
child_frame_id: base_footprint
pose:
  pose:
    position:
      x: 0.022885205155056584
      y: -0.25378083597768575
      z: 0.0
    orientation:
      x: 0.0
      y: 0.0
      z: -0.018033526541386652
      w: 0.9998373827380536
  covariance: '<array type: double[36]>'
twist:
  twist:
    linear:
      x: 7.452024327250428e-137
      y: 0.0
      z: 0.0
    angular:
      x: 0.0
      y: 0.0
      z: 2.3335104073949794e-19
  covariance: '<array type: double[36]>'
---
header:
  stamp:
    sec: 1778498076
    nanosec: 864000000
  frame_id: odom
child_frame_id: base_footprint
pose:
  pose:
    position:
      x: 0.022885205155056584
      y: -0.25378083597768575
      z: 0.0
    orientation:
      x: 0.0
      y: 0.0
      z: -0.01803370348868413
      w: 0.9998373795465352
  covariance: '<array type: double[36]>'
twist:
  twist:
    linear:
      x: 6.111929884142221e-137
      y: 0.0
      z: 0.0
    angular:
      x: 0.0
      y: 0.0
      z: 9.723403040065483e-21
  covariance: '<array type: double[36]>'
---
header:
  stamp:
    sec: 1778498076
    nanosec: 982000000
  frame_id: odom
child_frame_id: base_footprint
pose:
  pose:
    position:
      x: 0.022885205155056584
      y: -0.25378083597768575
      z: 0.0
    orientation:
      x: 0.0
      y: 0.0
      z: -0.018022175519344895
      w: 0.9998375874058496
  covariance: '<array type: double[36]>'
twist:
  twist:
    linear:
      x: 9.037626683379904e-137
      y: 0.0
      z: 0.0
    angular:
      x: 0.0
      y: 0.0
      z: 4.35573196784025e-19
  covariance: '<array type: double[36]>'
---
header:
  stamp:
    sec: 1778498077
    nanosec: 62000000
  frame_id: odom
child_frame_id: base_footprint
pose:
  pose:
    position:
      x: 0.022885205155056584
      y: -0.25378083597768575
      z: 0.0
    orientation:
      x: 0.0
      y: 0.0
      z: -0.01802078437305064
      w: 0.9998376124804368
  covariance: '<array type: double[36]>'
twist:
  twist:
    linear:
      x: 7.4719101510045425e-137
      y: 0.0
      z: 0.0
    angular:
      x: 0.0
      y: 0.0
      z: 4.364194791690993e-19
  covariance: '<array type: double[36]>'
---
header:
  stamp:
    sec: 1778498077
    nanosec: 183000000
  frame_id: odom
child_frame_id: base_footprint
pose:
  pose:
    position:
      x: 0.022885205155056584
      y: -0.25378083597768575
      z: 0.0
    orientation:
      x: 0.0
      y: 0.0
      z: -0.018026077880502863
      w: 0.9998375170577698
  covariance: '<array type: double[36]>'
twist:
  twist:
    linear:
      x: 4.0731024512024375e-138
      y: 0.0
      z: 0.0
    angular:
      x: 0.0
      y: 0.0
      z: 3.0817481316625196e-20
  covariance: '<array type: double[36]>'
---
header:
  stamp:
    sec: 1778498077
    nanosec: 284000000
  frame_id: odom
child_frame_id: base_footprint
pose:
  pose:
    position:
      x: 0.022885205155056584
      y: -0.25378083597768575
      z: 0.0
    orientation:
      x: 0.0
      y: 0.0
      z: -0.018024863490124058
      w: 0.999837538951285
  covariance: '<array type: double[36]>'
twist:
  twist:
    linear:
      x: 3.838110525658104e-138
      y: 0.0
      z: 0.0
    angular:
      x: 0.0
      y: 0.0
      z: -7.998653271928934e-20
  covariance: '<array type: double[36]>'
---
header:
  stamp:
    sec: 1778498077
    nanosec: 383000000
  frame_id: odom
child_frame_id: base_footprint
pose:
  pose:
    position:
      x: 0.022885205155056584
      y: -0.25378083597768575
      z: 0.0
    orientation:
      x: 0.0
      y: 0.0
      z: -0.01801259253983666
      w: 0.9998377600941034
  covariance: '<array type: double[36]>'
twist:
  twist:
    linear:
      x: 1.9679448343361175e-137
      y: 0.0
      z: 0.0
    angular:
      x: 0.0
      y: 0.0
      z: 3.6203059182456085e-14
  covariance: '<array type: double[36]>'
---
header:
  stamp:
    sec: 1778498077
    nanosec: 463000000
  frame_id: odom
child_frame_id: base_footprint
pose:
  pose:
    position:
      x: 0.022885205155056584
      y: -0.25378083597768575
      z: 0.0
    orientation:
      x: 0.0
      y: 0.0
      z: -0.018012813222146047
      w: 0.9998377561183734
  covariance: '<array type: double[36]>'
twist:
  twist:
    linear:
      x: 1.3274188616588456e-137
      y: 0.0
      z: 0.0
    angular:
      x: 0.0
      y: 0.0
      z: 2.7797897458019797e-14
  covariance: '<array type: double[36]>'
---
header:
  stamp:
    sec: 1778498077
    nanosec: 584000000
  frame_id: odom
child_frame_id: base_footprint
pose:
  pose:
    position:
      x: 0.022885205155056584
      y: -0.25378083597768575
      z: 0.0
    orientation:
      x: 0.0
      y: 0.0
      z: -0.0180196683332604
      w: 0.9998376325949926
  covariance: '<array type: double[36]>'
twist:
  twist:
    linear:
      x: 3.8758030155144973e-137
      y: 0.0
      z: 0.0
    angular:
      x: 0.0
      y: 0.0
      z: -4.0134592829255567e-19
  covariance: '<array type: double[36]>'
---
header:
  stamp:
    sec: 1778498077
    nanosec: 663000000
  frame_id: odom
child_frame_id: base_footprint
pose:
  pose:
    position:
      x: 0.022885205155056584
      y: -0.25378083597768575
      z: 0.0
    orientation:
      x: 0.0
      y: 0.0
      z: -0.018030390435251918
      w: 0.9998374392973852
  covariance: '<array type: double[36]>'
twist:
  twist:
    linear:
      x: 2.7012005160801683e-137
      y: 0.0
      z: 0.0
    angular:
      x: 0.0
      y: 0.0
      z: -5.4455971173637223e-14
  covariance: '<array type: double[36]>'
---
header:
  stamp:
    sec: 1778498077
    nanosec: 782000000
  frame_id: odom
child_frame_id: base_footprint
pose:
  pose:
    position:
      x: 0.022885205155056584
      y: -0.25378083597768575
      z: 0.0
    orientation:
      x: 0.0
      y: 0.0
      z: -0.018010435207266574
      w: 0.9998377989572332
  covariance: '<array type: double[36]>'
twist:
  twist:
    linear:
      x: 4.816586982200492e-137
      y: 0.0
      z: 0.0
    angular:
      x: 0.0
      y: 0.0
      z: -6.973651255151634e-19
  covariance: '<array type: double[36]>'
---
header:
  stamp:
    sec: 1778498077
    nanosec: 862000000
  frame_id: odom
child_frame_id: base_footprint
pose:
  pose:
    position:
      x: 0.022885205155056584
      y: -0.25378083597768575
      z: 0.0
    orientation:
      x: 0.0
      y: 0.0
      z: -0.018009015607895976
      w: 0.9998378245279754
  covariance: '<array type: double[36]>'
twist:
  twist:
    linear:
      x: 3.763882944410138e-137
      y: 0.0
      z: 0.0
    angular:
      x: 0.0
      y: 0.0
      z: -3.4420248697665025e-19
  covariance: '<array type: double[36]>'
---
header:
  stamp:
    sec: 1778498077
    nanosec: 982000000
  frame_id: odom
child_frame_id: base_footprint
pose:
  pose:
    position:
      x: 0.022885205155056584
      y: -0.25378083597768575
      z: 0.0
    orientation:
      x: 0.0
      y: 0.0
      z: -0.018024698619030836
      w: 0.9998375419235332
  covariance: '<array type: double[36]>'
twist:
  twist:
    linear:
      x: 5.645268947376971e-137
      y: 0.0
      z: 0.0
    angular:
      x: 0.0
      y: 0.0
      z: -9.968386650511386e-19
  covariance: '<array type: double[36]>'
---
header:
  stamp:
    sec: 1778498078
    nanosec: 87000000
  frame_id: odom
child_frame_id: base_footprint
pose:
  pose:
    position:
      x: 0.022885205155056584
      y: -0.25378083597768575
      z: 0.0
    orientation:
      x: 0.0
      y: 0.0
      z: -0.018012081850252534
      w: 0.999837769294309
  covariance: '<array type: double[36]>'
twist:
  twist:
    linear:
      x: 2.2939064130794216e-138
      y: 0.0
      z: 0.0
    angular:
      x: 0.0
      y: 0.0
      z: -5.512477444852918e-20
  covariance: '<array type: double[36]>'
---
header:
  stamp:
    sec: 1778498078
    nanosec: 183000000
  frame_id: odom
child_frame_id: base_footprint
pose:
  pose:
    position:
      x: 0.022885205155056584
      y: -0.25378083597768575
      z: 0.0
    orientation:
      x: 0.0
      y: 0.0
      z: -0.017997531020954336
      w: 0.9998380313216485
  covariance: '<array type: double[36]>'
twist:
  twist:
    linear:
      x: 8.41744132932268e-138
      y: 0.0
      z: 0.0
    angular:
      x: 0.0
      y: 0.0
      z: 2.0226994768122955e-14
  covariance: '<array type: double[36]>'
---
header:
  stamp:
    sec: 1778498078
    nanosec: 273000000
  frame_id: odom
child_frame_id: base_footprint
pose:
  pose:
    position:
      x: 0.022885205155056584
      y: -0.25378083597768575
      z: 0.0
    orientation:
      x: 0.0
      y: 0.0
      z: -0.017994240191914392
      w: 0.9998380905526233
  covariance: '<array type: double[36]>'
twist:
  twist:
    linear:
      x: 7.416928505223764e-138
      y: 0.0
      z: 0.0
    angular:
      x: 0.0
      y: 0.0
      z: 1.239552762904582e-14
  covariance: '<array type: double[36]>'
---
header:
  stamp:
    sec: 1778498078
    nanosec: 384000000
  frame_id: odom
child_frame_id: base_footprint
pose:
  pose:
    position:
      x: 0.022885205155056584
      y: -0.25378083597768575
      z: 0.0
    orientation:
      x: 0.0
      y: 0.0
      z: -0.0179933996293664
      w: 0.9998381056800035
  covariance: '<array type: double[36]>'
twist:
  twist:
    linear:
      x: 1.7120119812795405e-137
      y: 0.0
      z: 0.0
    angular:
      x: 0.0
      y: 0.0
      z: -5.2982196279550085e-14
  covariance: '<array type: double[36]>'
---
header:
  stamp:
    sec: 1778498078
    nanosec: 487000000
  frame_id: odom
child_frame_id: base_footprint
pose:
  pose:
    position:
      x: 0.022885205155056584
      y: -0.25378083597768575
      z: 0.0
    orientation:
      x: 0.0
      y: 0.0
      z: -0.017999004916478926
      w: 0.9998380047897842
  covariance: '<array type: double[36]>'
twist:
  twist:
    linear:
      x: 2.386079886611314e-137
      y: 0.0
      z: 0.0
    angular:
      x: 0.0
      y: 0.0
      z: -5.3250479316027166e-14
  covariance: '<array type: double[36]>'
---
header:
  stamp:
    sec: 1778498078
    nanosec: 582000000
  frame_id: odom
child_frame_id: base_footprint
pose:
  pose:
    position:
      x: 0.022885205155056584
      y: -0.25378083597768575
      z: 0.0
    orientation:
      x: 0.0
      y: 0.0
      z: -0.017991060960459365
      w: 0.9998381477646855
  covariance: '<array type: double[36]>'
twist:
  twist:
    linear:
      x: 2.3871833969961553e-137
      y: 0.0
      z: 0.0
    angular:
      x: 0.0
      y: 0.0
      z: -9.237333193820061e-19
  covariance: '<array type: double[36]>'
---
header:
  stamp:
    sec: 1778498078
    nanosec: 664000000
  frame_id: odom
child_frame_id: base_footprint
pose:
  pose:
    position:
      x: 0.022885205155056584
      y: -0.25378083597768575
      z: 0.0
    orientation:
      x: 0.0
      y: 0.0
      z: -0.01798563301384665
      w: 0.9998382454202736
  covariance: '<array type: double[36]>'
twist:
  twist:
    linear:
      x: 1.9573455322171864e-137
      y: 0.0
      z: 0.0
    angular:
      x: 0.0
      y: 0.0
      z: -1.0413273726643118e-18
  covariance: '<array type: double[36]>'
---
header:
  stamp:
    sec: 1778498078
    nanosec: 783000000
  frame_id: odom
child_frame_id: base_footprint
pose:
  pose:
    position:
      x: 0.022885205155056584
      y: -0.25378083597768575
      z: 0.0
    orientation:
      x: 0.0
      y: 0.0
      z: -0.017971606221179468
      w: 0.9998384976434098
  covariance: '<array type: double[36]>'
twist:
  twist:
    linear:
      x: 1.6547486326783572e-137
      y: 0.0
      z: 0.0
    angular:
      x: 0.0
      y: 0.0
      z: 9.982922850617771e-19
  covariance: '<array type: double[36]>'
---
header:
  stamp:
    sec: 1778498078
    nanosec: 862000000
  frame_id: odom
child_frame_id: base_footprint
pose:
  pose:
    position:
      x: 0.022885205155056584
      y: -0.25378083597768575
      z: 0.0
    orientation:
      x: 0.0
      y: 0.0
      z: -0.017972031123066654
      w: 0.9998384900059166
  covariance: '<array type: double[36]>'
twist:
  twist:
    linear:
      x: 2.1149758968030836e-137
      y: 0.0
      z: 0.0
    angular:
      x: 0.0
      y: 0.0
      z: 1.0237035500778848e-18
  covariance: '<array type: double[36]>'
---
header:
  stamp:
    sec: 1778498078
    nanosec: 983000000
  frame_id: odom
child_frame_id: base_footprint
pose:
  pose:
    position:
      x: 0.022885205155056584
      y: -0.25378083597768575
      z: 0.0
    orientation:
      x: 0.0
      y: 0.0
      z: -0.01797717918571104
      w: 0.9998383974565714
  covariance: '<array type: double[36]>'
twist:
  twist:
    linear:
      x: 1.3021143884251254e-138
      y: 0.0
      z: 0.0
    angular:
      x: 0.0
      y: 0.0
      z: 8.78632899315691e-20
  covariance: '<array type: double[36]>'
---
header:
  stamp:
    sec: 1778498079
    nanosec: 76000000
  frame_id: odom
child_frame_id: base_footprint
pose:
  pose:
    position:
      x: 0.022885205155056584
      y: -0.25378083597768575
      z: 0.0
    orientation:
      x: 0.0
      y: 0.0
      z: -0.017975696305376633
      w: 0.9998384241177856
  covariance: '<array type: double[36]>'
twist:
  twist:
    linear:
      x: 1.2315873453025594e-138
      y: 0.0
      z: 0.0
    angular:
      x: 0.0
      y: 0.0
      z: -2.2957395463236474e-19
  covariance: '<array type: double[36]>'
---
header:
  stamp:
    sec: 1778498079
    nanosec: 183000000
  frame_id: odom
child_frame_id: base_footprint
pose:
  pose:
    position:
      x: 0.022885205155056584
      y: -0.25378083597768575
      z: 0.0
    orientation:
      x: 0.0
      y: 0.0
      z: -0.017959203935636995
      w: 0.9998387204914592
  covariance: '<array type: double[36]>'
twist:
  twist:
    linear:
      x: 7.227725130725841e-138
      y: 0.0
      z: 0.0
    angular:
      x: 0.0
      y: 0.0
      z: 4.030713001867929e-14
  covariance: '<array type: double[36]>'
---
header:
  stamp:
    sec: 1778498079
    nanosec: 262000000
  frame_id: odom
child_frame_id: base_footprint
pose:
  pose:
    position:
      x: 0.022885205155056584
      y: -0.25378083597768575
      z: 0.0
    orientation:
      x: 0.0
      y: 0.0
      z: -0.01795937372623358
      w: 0.9998387174416489
  covariance: '<array type: double[36]>'
twist:
  twist:
    linear:
      x: 3.9664235349900216e-138
      y: 0.0
      z: 0.0
    angular:
      x: 0.0
      y: 0.0
      z: 3.6856784025179915e-14
  covariance: '<array type: double[36]>'
---
header:
  stamp:
    sec: 1778498079
    nanosec: 382000000
  frame_id: odom
child_frame_id: base_footprint
pose:
  pose:
    position:
      x: 0.022885205155056584
      y: -0.25378083597768575
      z: 0.0
    orientation:
      x: 0.0
      y: 0.0
      z: -0.017977415537311078
      w: 0.9998383932069217
  covariance: '<array type: double[36]>'
twist:
  twist:
    linear:
      x: 1.187201932849703e-137
      y: 0.0
      z: 0.0
    angular:
      x: 0.0
      y: 0.0
      z: -9.23595783915626e-19
  covariance: '<array type: double[36]>'
---
header:
  stamp:
    sec: 1778498079
    nanosec: 464000000
  frame_id: odom
child_frame_id: base_footprint
pose:
  pose:
    position:
      x: 0.022885205155056584
      y: -0.25378083597768575
      z: 0.0
    orientation:
      x: 0.0
      y: 0.0
      z: -0.017978157189808643
      w: 0.9998383798714963
  covariance: '<array type: double[36]>'
twist:
  twist:
    linear:
      x: 7.088940215131663e-138
      y: 0.0
      z: 0.0
    angular:
      x: 0.0
      y: 0.0
      z: -6.619443743331531e-14
  covariance: '<array type: double[36]>'
---
header:
  stamp:
    sec: 1778498079
    nanosec: 583000000
  frame_id: odom
child_frame_id: base_footprint
pose:
  pose:
    position:
      x: 0.022885205155056584
      y: -0.25378083597768575
      z: 0.0
    orientation:
      x: 0.0
      y: 0.0
      z: -0.01795625704081141
      w: 0.9998387734195371
  covariance: '<array type: double[36]>'
twist:
  twist:
    linear:
      x: 1.4662863335826342e-137
      y: 0.0
      z: 0.0
    angular:
      x: 0.0
      y: 0.0
      z: 4.981819631255578e-19
  covariance: '<array type: double[36]>'
---
header:
  stamp:
    sec: 1778498079
    nanosec: 662000000
  frame_id: odom
child_frame_id: base_footprint
pose:
  pose:
    position:
      x: 0.022885205155056584
      y: -0.25378083597768575
      z: 0.0
    orientation:
      x: 0.0
      y: 0.0
      z: -0.017955014764816802
      w: 0.9998387957289891
  covariance: '<array type: double[36]>'
twist:
  twist:
    linear:
      x: 1.205289302251708e-137
      y: 0.0
      z: 0.0
    angular:
      x: 0.0
      y: 0.0
      z: -9.742223321423536e-19
  covariance: '<array type: double[36]>'
---
header:
  stamp:
    sec: 1778498079
    nanosec: 793000000
  frame_id: odom
child_frame_id: base_footprint
pose:
  pose:
    position:
      x: 0.022885205155056584
      y: -0.25378083597768575
      z: 0.0
    orientation:
      x: 0.0
      y: 0.0
      z: -0.01796565005942919
      w: 0.9998386046847472
  covariance: '<array type: double[36]>'
twist:
  twist:
    linear:
      x: 7.804166156477928e-139
      y: 0.0
      z: 0.0
    angular:
      x: 0.0
      y: 0.0
      z: -3.032985243034218e-19
  covariance: '<array type: double[36]>'
---
header:
  stamp:
    sec: 1778498079
    nanosec: 882000000
  frame_id: odom
child_frame_id: base_footprint
pose:
  pose:
    position:
      x: 0.022885205155056584
      y: -0.25378083597768575
      z: 0.0
    orientation:
      x: 0.0
      y: 0.0
      z: -0.01796198261059665
      w: 0.9998386705767569
  covariance: '<array type: double[36]>'
twist:
  twist:
    linear:
      x: 7.383871460786704e-139
      y: 0.0
      z: 0.0
    angular:
      x: 0.0
      y: 0.0
      z: -1.7695178685253396e-19
  covariance: '<array type: double[36]>'
---
header:
  stamp:
    sec: 1778498079
    nanosec: 987000000
  frame_id: odom
child_frame_id: base_footprint
pose:
  pose:
    position:
      x: 0.022885205155056584
      y: -0.25378083597768575
      z: 0.0
    orientation:
      x: 0.0
      y: 0.0
      z: -0.01793817588156518
      w: 0.9998390979782907
  covariance: '<array type: double[36]>'
twist:
  twist:
    linear:
      x: 2.6919224094393e-138
      y: 0.0
      z: 0.0
    angular:
      x: 0.0
      y: 0.0
      z: 5.547264273431542e-14
  covariance: '<array type: double[36]>'
---
header:
  stamp:
    sec: 1778498080
    nanosec: 73000000
  frame_id: odom
child_frame_id: base_footprint
pose:
  pose:
    position:
      x: 0.022885205155056584
      y: -0.25378083597768575
      z: 0.0
    orientation:
      x: 0.0
      y: 0.0
      z: -0.017932749184584117
      w: 0.9998391953242696
  covariance: '<array type: double[36]>'
twist:
  twist:
    linear:
      x: 2.3742081416592815e-138
      y: 0.0
      z: 0.0
    angular:
      x: 0.0
      y: 0.0
      z: 7.208930998246122e-14
  covariance: '<array type: double[36]>'
---
header:
  stamp:
    sec: 1778498080
    nanosec: 170000000
  frame_id: odom
child_frame_id: base_footprint
pose:
  pose:
    position:
      x: 0.022885205155056584
      y: -0.25378083597768575
      z: 0.0
    orientation:
      x: 0.0
      y: 0.0
      z: -0.01792793475263999
      w: 0.9998392816625605
  covariance: '<array type: double[36]>'
twist:
  twist:
    linear:
      x: 6.197130411418014e-139
      y: 0.0
      z: 0.0
    angular:
      x: 0.0
      y: 0.0
      z: 1.536707403515277e-19
  covariance: '<array type: double[36]>'
---
header:
  stamp:
    sec: 1778498080
    nanosec: 205000000
  frame_id: odom
child_frame_id: base_footprint
pose:
  pose:
    position:
      x: 0.022885205155056584
      y: -0.25378083597768575
      z: 0.0
    orientation:
      x: 0.0
      y: 0.0
      z: -0.017968526175906843
      w: 0.9998385530009661
  covariance: '<array type: double[36]>'
twist:
  twist:
    linear:
      x: 6.233493797703062e-138
      y: 0.0
      z: 0.0
    angular:
      x: 0.0
      y: 0.0
      z: -8.217480429995926e-14
  covariance: '<array type: double[36]>'
---
header:
  stamp:
    sec: 1778498080
    nanosec: 382000000
  frame_id: odom
child_frame_id: base_footprint
pose:
  pose:
    position:
      x: 0.022885205155056584
      y: -0.25378083597768575
      z: 0.0
    orientation:
      x: 0.0
      y: 0.0
      z: -0.01788939887221006
      w: 0.999839971899499
  covariance: '<array type: double[36]>'
twist:
  twist:
    linear:
      x: 5.362079636878208e-139
      y: 0.0
      z: 0.0
    angular:
      x: 0.0
      y: 0.0
      z: 1.1976563694003673e-14
  covariance: '<array type: double[36]>'
---
header:
  stamp:
    sec: 1778498080
    nanosec: 463000000
  frame_id: odom
child_frame_id: base_footprint
pose:
  pose:
    position:
      x: 0.022885205155056584
      y: -0.25378083597768575
      z: 0.0
    orientation:
      x: 0.0
      y: 0.0
      z: -0.017937556710720053
      w: 0.9998391090866818
  covariance: '<array type: double[36]>'
twist:
  twist:
    linear:
      x: 5.696478121196276e-138
      y: 0.0
      z: 0.0
    angular:
      x: 0.0
      y: 0.0
      z: -1.0964034713338422e-18
  covariance: '<array type: double[36]>'
---
header:
  stamp:
    sec: 1778498080
    nanosec: 517000000
  frame_id: odom
child_frame_id: base_footprint
pose:
  pose:
    position:
      x: 0.022885205155056584
      y: -0.25378083597768575
      z: 0.0
    orientation:
      x: 0.0
      y: 0.0
      z: -0.017937556710720053
      w: 0.9998391090866818
  covariance: '<array type: double[36]>'
twist:
  twist:
    linear:
      x: 4.95242917939427e-139
      y: 0.0
      z: 0.0
    angular:
      x: 0.0
      y: 0.0
      z: -9.291546967633457e-20
  covariance: '<array type: double[36]>'
---
header:
  stamp:
    sec: 1778498080
    nanosec: 683000000
  frame_id: odom
child_frame_id: base_footprint
pose:
  pose:
    position:
      x: 0.022885205155056584
      y: -0.25378083597768575
      z: 0.0
    orientation:
      x: 0.0
      y: 0.0
      z: -0.01789213100577445
      w: 0.999839923011715
  covariance: '<array type: double[36]>'
twist:
  twist:
    linear:
      x: 4.0151117972970753e-138
      y: 0.0
      z: 0.0
    angular:
      x: 0.0
      y: 0.0
      z: -3.2697795976101145e-15
  covariance: '<array type: double[36]>'
---
header:
  stamp:
    sec: 1778498080
    nanosec: 790000000
  frame_id: odom
child_frame_id: base_footprint
pose:
  pose:
    position:
      x: 0.022885205155056584
      y: -0.25378083597768575
      z: 0.0
    orientation:
      x: 0.0
      y: 0.0
      z: -0.01793651736771845
      w: 0.9998391277324156
  covariance: '<array type: double[36]>'
twist:
  twist:
    linear:
      x: 1.2913998345162106e-138
      y: 0.0
      z: 0.0
    angular:
      x: 0.0
      y: 0.0
      z: -5.4529783299285683e-14
  covariance: '<array type: double[36]>'
---
header:
  stamp:
    sec: 1778498080
    nanosec: 889000000
  frame_id: odom
child_frame_id: base_footprint
pose:
  pose:
    position:
      x: 0.022885205155056584
      y: -0.25378083597768575
      z: 0.0
