header:
  stamp:
    sec: 1778498740
    nanosec: 631000000
  frame_id: map
pose:
  pose:
    position:
      x: 0.0
      y: 0.0
      z: 0.0
    orientation:
      x: 0.0
      y: 0.0
      z: 0.0
      w: 1.0
  covariance: '<array type: double[36]>'
---
header:
  stamp:
    sec: 1778498790
    nanosec: 231000000
  frame_id: map
pose:
  pose:
    position:
      x: 0.006539838762285532
      y: -3.1461183215920657e-09
      z: 0.0
    orientation:
      x: 0.0
      y: 0.0
      z: -0.05091199655124078
      w: 0.9987031433850433
  covariance: '<array type: double[36]>'
---
header:
  stamp:
    sec: 1778498809
    nanosec: 671000000
  frame_id: map
pose:
  pose:
    position:
      x: -0.059079188151053834
      y: 0.04079244025648008
      z: 0.0
    orientation:
      x: 0.0
      y: 0.0
      z: 0.039616006023925274
      w: 0.9992149779035102
  covariance: '<array type: double[36]>'
---
header:
  stamp:
    sec: 1778498815
    nanosec: 198000000
  frame_id: map
pose:
  pose:
    position:
      x: 0.051303525988011994
      y: 0.07425010445235812
      z: 0.0
    orientation:
      x: 0.0
      y: 0.0
      z: 0.007090218882920284
      w: 0.9999748640821889
  covariance: '<array type: double[36]>'
---
header:
  stamp:
    sec: 1778498838
    nanosec: 150000000
  frame_id: map
pose:
  pose:
    position:
      x: 0.1547908415227447
      y: -0.03742510575483561
      z: 0.0
    orientation:
      x: 0.0
      y: 0.0
      z: 0.018505245343877652
      w: 0.9998287632863754
  covariance: '<array type: double[36]>'
---
header:
  stamp:
    sec: 1778498838
    nanosec: 556000000
  frame_id: map
pose:
  pose:
    position:
      x: 0.2182870301986441
      y: -0.07366438872239549
      z: 0.0
    orientation:
      x: 0.0
      y: 0.0
      z: 0.024351920670727174
      w: 0.9997034480082814
  covariance: '<array type: double[36]>'
---
header:
  stamp:
    sec: 1778498838
    nanosec: 963000000
  frame_id: map
pose:
  pose:
    position:
      x: 0.26091628961516034
      y: -0.0971448969216657
      z: 0.0
    orientation:
      x: 0.0
      y: 0.0
      z: 0.021799266266909104
      w: 0.9997623677605716
  covariance: '<array type: double[36]>'
---
header:
  stamp:
    sec: 1778498839
    nanosec: 432000000
  frame_id: map
pose:
  pose:
    position:
      x: 0.3002295949005702
      y: -0.0888923800253818
      z: 0.0
    orientation:
      x: 0.0
      y: 0.0
      z: 0.0173420652424612
      w: 0.9998496150787508
  covariance: '<array type: double[36]>'
---
header:
  stamp:
    sec: 1778498840
    nanosec: 401000000
  frame_id: map
pose:
  pose:
    position:
      x: 0.34432805588862686
      y: -0.07791623019646597
      z: 0.0
    orientation:
      x: 0.0
      y: 0.0
      z: 0.04045575286158844
      w: 0.9991813309206703
  covariance: '<array type: double[36]>'
---
header:
  stamp:
    sec: 1778498841
    nanosec: 35000000
  frame_id: map
pose:
  pose:
    position:
      x: 0.390998911532277
      y: -0.06420616956669253
      z: 0.0
    orientation:
      x: 0.0
      y: 0.0
      z: 0.05807398261945866
      w: 0.998312282075461
  covariance: '<array type: double[36]>'
---
header:
  stamp:
    sec: 1778498841
    nanosec: 592000000
  frame_id: map
pose:
  pose:
    position:
      x: 0.4272110564100107
      y: -0.05673878569610937
      z: 0.0
    orientation:
      x: 0.0
      y: 0.0
      z: 0.08863239114551151
      w: 0.996064405166568
  covariance: '<array type: double[36]>'
---
header:
  stamp:
    sec: 1778498842
    nanosec: 157000000
  frame_id: map
pose:
  pose:
    position:
      x: 0.4754596814244997
      y: -0.03408313049585822
      z: 0.0
    orientation:
      x: 0.0
      y: 0.0
      z: 0.11730662318607389
      w: 0.9930957437008179
  covariance: '<array type: double[36]>'
---
header:
  stamp:
    sec: 1778498842
    nanosec: 708000000
  frame_id: map
pose:
  pose:
    position:
      x: 0.5212677165322405
      y: -0.013673706942833467
      z: 0.0
    orientation:
      x: 0.0
      y: 0.0
      z: 0.15101832562387021
      w: 0.9885309632610213
  covariance: '<array type: double[36]>'
---
header:
  stamp:
    sec: 1778498843
    nanosec: 278000000
  frame_id: map
pose:
  pose:
    position:
      x: 0.5609077001627742
      y: 0.0075352123954975075
      z: 0.0
    orientation:
      x: 0.0
      y: 0.0
      z: 0.18575805802435735
      w: 0.982595513870799
  covariance: '<array type: double[36]>'
---
header:
  stamp:
    sec: 1778498845
    nanosec: 34000000
  frame_id: map
pose:
  pose:
    position:
      x: 0.5868493979469689
      y: 0.017139190498779055
      z: 0.0
    orientation:
      x: 0.0
      y: 0.0
      z: 0.13454117411625932
      w: 0.9909080040384266
  covariance: '<array type: double[36]>'
---
header:
  stamp:
    sec: 1778498846
    nanosec: 32000000
  frame_id: map
pose:
  pose:
    position:
      x: 0.5988376807672161
      y: 0.02537156269072986
      z: 0.0
    orientation:
      x: 0.0
      y: 0.0
      z: 0.08935001462433718
      w: 0.9960002885976644
  covariance: '<array type: double[36]>'
---
header:
  stamp:
    sec: 1778498848
    nanosec: 7000000
  frame_id: map
pose:
  pose:
    position:
      x: 0.6044332394788705
      y: 0.033316768282041456
      z: 0.0
    orientation:
      x: 0.0
      y: 0.0
      z: 0.040656992444868804
      w: 0.9991731626526694
  covariance: '<array type: double[36]>'
---
header:
  stamp:
    sec: 1778498848
    nanosec: 392000000
  frame_id: map
pose:
  pose:
    position:
      x: 0.6222181365134961
      y: 0.034414417865479136
      z: 0.0
    orientation:
      x: 0.0
      y: 0.0
      z: -0.0011242012158720748
      w: 0.9999993680856134
  covariance: '<array type: double[36]>'
---
header:
  stamp:
    sec: 1778498848
    nanosec: 951000000
  frame_id: map
pose:
  pose:
    position:
      x: 0.6112306352219389
      y: 0.035165113679761675
      z: 0.0
    orientation:
      x: 0.0
      y: 0.0
      z: -0.04262941450201802
      w: 0.9990909533266804
  covariance: '<array type: double[36]>'
---
header:
  stamp:
    sec: 1778498849
    nanosec: 511000000
  frame_id: map
pose:
  pose:
    position:
      x: 0.6114305507632714
      y: 0.04158812206594995
      z: 0.0
    orientation:
      x: 0.0
      y: 0.0
      z: -0.09142382749669947
      w: 0.9958120725146155
  covariance: '<array type: double[36]>'
---
header:
  stamp:
    sec: 1778498849
    nanosec: 763000000
  frame_id: map
pose:
  pose:
    position:
      x: 0.6047939410180831
      y: 0.04688480833693611
      z: 0.0
    orientation:
      x: 0.0
      y: 0.0
      z: -0.13355218028897856
      w: 0.9910417827418075
  covariance: '<array type: double[36]>'
---
header:
  stamp:
    sec: 1778498850
    nanosec: 84000000
  frame_id: map
pose:
  pose:
    position:
      x: 0.6074908969038029
      y: 0.050540643315220776
      z: 0.0
    orientation:
      x: 0.0
      y: 0.0
      z: -0.1838607247572518
      w: 0.9829523049933492
  covariance: '<array type: double[36]>'
---
header:
  stamp:
    sec: 1778498850
    nanosec: 485000000
  frame_id: map
pose:
  pose:
    position:
      x: 0.6257787433157652
      y: 0.046977522285035225
      z: 0.0
    orientation:
      x: 0.0
      y: 0.0
      z: -0.23022043663254826
      w: 0.9731385053304175
  covariance: '<array type: double[36]>'
---
header:
  stamp:
    sec: 1778498850
    nanosec: 871000000
  frame_id: map
pose:
  pose:
    position:
      x: 0.6067788811207852
      y: 0.0510277600232615
      z: 0.0
    orientation:
      x: 0.0
      y: 0.0
      z: -0.2745249256934882
      w: 0.9615799837626534
  covariance: '<array type: double[36]>'
---
header:
  stamp:
    sec: 1778498851
    nanosec: 154000000
  frame_id: map
pose:
  pose:
    position:
      x: 0.6121200392249352
      y: 0.047364817112500936
      z: 0.0
    orientation:
      x: 0.0
      y: 0.0
      z: -0.31441747086085997
      w: 0.9492848118544088
  covariance: '<array type: double[36]>'
---
header:
  stamp:
    sec: 1778498851
    nanosec: 381000000
  frame_id: map
pose:
  pose:
    position:
      x: 0.6182358612763301
      y: 0.04554009992084511
      z: 0.0
    orientation:
      x: 0.0
      y: 0.0
      z: -0.3550117391845953
      w: 0.9348618427559919
  covariance: '<array type: double[36]>'
---
header:
  stamp:
    sec: 1778498851
    nanosec: 753000000
  frame_id: map
pose:
  pose:
    position:
      x: 0.6141421425853729
      y: 0.044170386045425246
      z: 0.0
    orientation:
      x: 0.0
      y: 0.0
      z: -0.3969250645462558
      w: 0.9178510190302949
  covariance: '<array type: double[36]>'
---
header:
  stamp:
    sec: 1778498852
    nanosec: 151000000
  frame_id: map
pose:
  pose:
    position:
      x: 0.596933554339057
      y: 0.05962357222160029
      z: 0.0
    orientation:
      x: 0.0
      y: 0.0
      z: -0.43445363360535383
      w: 0.9006941990748608
  covariance: '<array type: double[36]>'
---
header:
  stamp:
    sec: 1778498852
    nanosec: 400000000
  frame_id: map
pose:
  pose:
    position:
      x: 0.5987040039380057
      y: 0.0551927663975425
      z: 0.0
    orientation:
      x: 0.0
      y: 0.0
      z: -0.4715963184379633
      w: 0.8818145567157298
  covariance: '<array type: double[36]>'
---
header:
  stamp:
    sec: 1778498852
    nanosec: 790000000
  frame_id: map
pose:
  pose:
    position:
      x: 0.6013094898136855
      y: 0.05023468269085682
      z: 0.0
    orientation:
      x: 0.0
      y: 0.0
      z: -0.5108211581909429
      w: 0.8596870037080145
  covariance: '<array type: double[36]>'
---
header:
  stamp:
    sec: 1778498853
    nanosec: 114000000
  frame_id: map
pose:
  pose:
    position:
      x: 0.6058775050773586
      y: 0.0430323788456498
      z: 0.0
    orientation:
      x: 0.0
      y: 0.0
      z: -0.5470410866050711
      w: 0.8371057576948943
  covariance: '<array type: double[36]>'
---
header:
  stamp:
    sec: 1778498853
    nanosec: 994000000
  frame_id: map
pose:
  pose:
    position:
      x: 0.6068444110507125
      y: 0.0404891636253329
      z: 0.0
    orientation:
      x: 0.0
      y: 0.0
      z: -0.5827767918889568
      w: 0.8126322728243173
  covariance: '<array type: double[36]>'
---
header:
  stamp:
    sec: 1778498854
    nanosec: 311000000
  frame_id: map
pose:
  pose:
    position:
      x: 0.6064825816520532
      y: 0.03816389876249675
      z: 0.0
    orientation:
      x: 0.0
      y: 0.0
      z: -0.6167582070519758
      w: 0.7871526624702683
  covariance: '<array type: double[36]>'
---
header:
  stamp:
    sec: 1778498854
    nanosec: 752000000
  frame_id: map
pose:
  pose:
    position:
      x: 0.6071725693679555
      y: 0.03631880068529587
      z: 0.0
    orientation:
      x: 0.0
      y: 0.0
      z: -0.6516245919564644
      w: 0.7585416212427446
  covariance: '<array type: double[36]>'
---
header:
  stamp:
    sec: 1778498855
    nanosec: 110000000
  frame_id: map
pose:
  pose:
    position:
      x: 0.6038911133065115
      y: 0.02599160969844211
      z: 0.0
    orientation:
      x: 0.0
      y: 0.0
      z: -0.6820246047691607
      w: 0.7313292271538655
  covariance: '<array type: double[36]>'
---
header:
  stamp:
    sec: 1778498856
    nanosec: 398000000
  frame_id: map
pose:
  pose:
    position:
      x: 0.6054577886658883
      y: -0.025011311405390067
      z: 0.0
    orientation:
      x: 0.0
      y: 0.0
      z: -0.6838414118155364
      w: 0.7296306760862882
  covariance: '<array type: double[36]>'
---
header:
  stamp:
    sec: 1778498856
    nanosec: 632000000
  frame_id: map
pose:
  pose:
    position:
      x: 0.6011244607534031
      y: -0.06860811232638307
      z: 0.0
    orientation:
      x: 0.0
      y: 0.0
      z: -0.6820206760397871
      w: 0.731332890997138
  covariance: '<array type: double[36]>'
---
header:
  stamp:
    sec: 1778498857
    nanosec: 274000000
  frame_id: map
pose:
  pose:
    position:
      x: 0.6019383866904304
      y: -0.11261772764020361
      z: 0.0
    orientation:
      x: 0.0
      y: 0.0
      z: -0.6657473800566454
      w: 0.7461772081400722
  covariance: '<array type: double[36]>'
---
header:
  stamp:
    sec: 1778498857
    nanosec: 663000000
  frame_id: map
pose:
  pose:
    position:
      x: 0.6056135640806046
      y: -0.12392830147252357
      z: 0.0
    orientation:
      x: 0.0
      y: 0.0
      z: -0.6236938101934343
      w: 0.781668747697128
  covariance: '<array type: double[36]>'
---
header:
  stamp:
    sec: 1778498858
    nanosec: 75000000
  frame_id: map
pose:
  pose:
    position:
      x: 0.6094485830274479
      y: -0.14276950074527298
      z: 0.0
    orientation:
      x: 0.0
      y: 0.0
      z: -0.5807059552443095
      w: 0.8141133788016225
  covariance: '<array type: double[36]>'
---
header:
  stamp:
    sec: 1778498858
    nanosec: 550000000
  frame_id: map
pose:
  pose:
    position:
      x: 0.6043692593846781
      y: -0.11366706231793657
      z: 0.0
    orientation:
      x: 0.0
      y: 0.0
      z: -0.5399157324878225
      w: 0.8417190753524231
  covariance: '<array type: double[36]>'
---
header:
  stamp:
    sec: 1778498859
    nanosec: 117000000
  frame_id: map
pose:
  pose:
    position:
      x: 0.6226434953277338
      y: -0.13953462424442234
      z: 0.0
    orientation:
      x: 0.0
      y: 0.0
      z: -0.5052487682129395
      w: 0.8629737436442128
  covariance: '<array type: double[36]>'
---
header:
  stamp:
    sec: 1778498859
    nanosec: 674000000
  frame_id: map
pose:
  pose:
    position:
      x: 0.6449391515934021
      y: -0.1705138686304832
      z: 0.0
    orientation:
      x: 0.0
      y: 0.0
      z: -0.48229270020636705
      w: 0.8760101319777365
  covariance: '<array type: double[36]>'
---
header:
  stamp:
    sec: 1778498860
    nanosec: 156000000
  frame_id: map
pose:
  pose:
    position:
      x: 0.667579793254334
      y: -0.1974446260395738
      z: 0.0
    orientation:
      x: 0.0
      y: 0.0
      z: -0.4824293645424276
      w: 0.8759348767044212
  covariance: '<array type: double[36]>'
---
header:
  stamp:
    sec: 1778498861
    nanosec: 353000000
  frame_id: map
pose:
  pose:
    position:
      x: 0.6477910336595386
      y: -0.16817106666353043
      z: 0.0
    orientation:
      x: 0.0
      y: 0.0
      z: -0.524823240191782
      w: 0.8512112349790733
  covariance: '<array type: double[36]>'
---
header:
  stamp:
    sec: 1778498861
    nanosec: 910000000
  frame_id: map
pose:
  pose:
    position:
      x: 0.6493787575064789
      y: -0.1674090851337499
      z: 0.0
    orientation:
      x: 0.0
      y: 0.0
      z: -0.5656532236660846
      w: 0.8246432140969612
  covariance: '<array type: double[36]>'
---
header:
  stamp:
    sec: 1778498862
    nanosec: 313000000
  frame_id: map
pose:
  pose:
    position:
      x: 0.6476896207182266
      y: -0.1594490160435356
      z: 0.0
    orientation:
      x: 0.0
      y: 0.0
      z: -0.6030189764830604
      w: 0.797726841720474
  covariance: '<array type: double[36]>'
---
header:
  stamp:
    sec: 1778498862
    nanosec: 718000000
  frame_id: map
pose:
  pose:
    position:
      x: 0.6482683603616841
      y: -0.16606952988619014
      z: 0.0
    orientation:
      x: 0.0
      y: 0.0
      z: -0.6411047613930922
      w: 0.7674533763813318
  covariance: '<array type: double[36]>'
---
header:
  stamp:
    sec: 1778498863
    nanosec: 33000000
  frame_id: map
pose:
  pose:
    position:
      x: 0.647303243917829
      y: -0.15211610282888738
      z: 0.0
    orientation:
      x: 0.0
      y: 0.0
      z: -0.6746317892015549
      w: 0.7381544208353079
  covariance: '<array type: double[36]>'
---
header:
  stamp:
    sec: 1778498871
    nanosec: 358000000
  frame_id: map
pose:
  pose:
    position:
      x: 0.6468891661811941
      y: -0.1391377253164988
      z: 0.0
    orientation:
      x: 0.0
      y: 0.0
      z: -0.6426937811971017
      w: 0.7661231647787267
  covariance: '<array type: double[36]>'
---
header:
  stamp:
    sec: 1778498871
    nanosec: 751000000
  frame_id: map
pose:
  pose:
    position:
      x: 0.6501159918877972
      y: -0.14967515689519215
      z: 0.0
    orientation:
      x: 0.0
      y: 0.0
      z: -0.6123785974526386
      w: 0.7905646421273465
  covariance: '<array type: double[36]>'
---
header:
  stamp:
    sec: 1778498872
    nanosec: 152000000
  frame_id: map
pose:
  pose:
    position:
      x: 0.6540886331220652
      y: -0.15834030242630082
      z: 0.0
    orientation:
      x: 0.0
      y: 0.0
      z: -0.5793037820196447
      w: 0.8151117273955368
  covariance: '<array type: double[36]>'
---
header:
  stamp:
    sec: 1778498872
    nanosec: 471000000
  frame_id: map
pose:
  pose:
    position:
      x: 0.6552917582211444
      y: -0.15502642270586364
      z: 0.0
    orientation:
      x: 0.0
      y: 0.0
      z: -0.5477214733620956
      w: 0.8366607362713128
  covariance: '<array type: double[36]>'
---
header:
  stamp:
    sec: 1778498872
    nanosec: 970000000
  frame_id: map
pose:
  pose:
    position:
      x: 0.6592339989400982
      y: -0.15787463680299751
      z: 0.0
    orientation:
      x: 0.0
      y: 0.0
      z: -0.5022416600517223
      w: 0.8647273066744743
  covariance: '<array type: double[36]>'
---
header:
  stamp:
    sec: 1778498873
    nanosec: 216000000
  frame_id: map
pose:
  pose:
    position:
      x: 0.6491318266318649
      y: -0.1428730979125364
      z: 0.0
    orientation:
      x: 0.0
      y: 0.0
      z: -0.4640080109214295
      w: 0.8858310029575271
  covariance: '<array type: double[36]>'
---
header:
  stamp:
    sec: 1778498873
    nanosec: 636000000
  frame_id: map
pose:
  pose:
    position:
      x: 0.6486497046365144
      y: -0.14090727483955487
      z: 0.0
    orientation:
      x: 0.0
      y: 0.0
      z: -0.42502184054428155
      w: 0.9051830947716331
  covariance: '<array type: double[36]>'
---
header:
  stamp:
    sec: 1778498874
    nanosec: 90000000
  frame_id: map
pose:
  pose:
    position:
      x: 0.6510478481684011
      y: -0.14965439687609886
      z: 0.0
    orientation:
      x: 0.0
      y: 0.0
      z: -0.3745002631224641
      w: 0.9272268077019803
  covariance: '<array type: double[36]>'
---
header:
  stamp:
    sec: 1778498874
    nanosec: 637000000
  frame_id: map
pose:
  pose:
    position:
      x: 0.6518276243471068
      y: -0.1498166137673345
      z: 0.0
    orientation:
      x: 0.0
      y: 0.0
      z: -0.3369574765524174
      w: 0.9415198664900423
  covariance: '<array type: double[36]>'
---
header:
  stamp:
    sec: 1778498875
    nanosec: 111000000
  frame_id: map
pose:
  pose:
    position:
      x: 0.651627481199822
      y: -0.149436898584502
      z: 0.0
    orientation:
      x: 0.0
      y: 0.0
      z: -0.2951085667294173
      w: 0.9554637271204538
  covariance: '<array type: double[36]>'
---
header:
  stamp:
    sec: 1778498875
    nanosec: 513000000
  frame_id: map
pose:
  pose:
    position:
      x: 0.6465017853017169
      y: -0.1477739188839287
      z: 0.0
    orientation:
      x: 0.0
      y: 0.0
      z: -0.2509101561844903
      w: 0.9680103788304517
  covariance: '<array type: double[36]>'
---
header:
  stamp:
    sec: 1778498875
    nanosec: 914000000
  frame_id: map
pose:
  pose:
    position:
      x: 0.6544513938046038
      y: -0.15414880004408843
      z: 0.0
    orientation:
      x: 0.0
      y: 0.0
      z: -0.20462440245850164
      w: 0.9788405661385827
  covariance: '<array type: double[36]>'
---
header:
  stamp:
    sec: 1778498876
    nanosec: 238000000
  frame_id: map
pose:
  pose:
    position:
      x: 0.6655325295637234
      y: -0.15703673695731216
      z: 0.0
    orientation:
      x: 0.0
      y: 0.0
      z: -0.15770194874734556
      w: 0.987486757056159
  covariance: '<array type: double[36]>'
---
header:
  stamp:
    sec: 1778498876
    nanosec: 791000000
  frame_id: map
pose:
  pose:
    position:
      x: 0.6906483598701756
      y: -0.15768095870112922
      z: 0.0
    orientation:
      x: 0.0
      y: 0.0
      z: -0.11316775683771466
      w: 0.9935758948426234
  covariance: '<array type: double[36]>'
---
header:
  stamp:
    sec: 1778498877
    nanosec: 674000000
  frame_id: map
pose:
  pose:
    position:
      x: 0.7519341504591787
      y: -0.17024239249572404
      z: 0.0
    orientation:
      x: 0.0
      y: 0.0
      z: -0.07313824732216014
      w: 0.9973218120439573
  covariance: '<array type: double[36]>'
---
header:
  stamp:
    sec: 1778498878
    nanosec: 235000000
  frame_id: map
pose:
  pose:
    position:
      x: 0.8137632654827262
      y: -0.1747544897137241
      z: 0.0
    orientation:
      x: 0.0
      y: 0.0
      z: -0.03664911792491107
      w: 0.999328195416964
  covariance: '<array type: double[36]>'
---
header:
  stamp:
    sec: 1778498878
    nanosec: 631000000
  frame_id: map
pose:
  pose:
    position:
      x: 0.8686291125971408
      y: -0.1777063508997441
      z: 0.0
    orientation:
      x: 0.0
      y: 0.0
      z: -0.007235005628437433
      w: 0.9999738270042654
  covariance: '<array type: double[36]>'
---
header:
  stamp:
    sec: 1778498879
    nanosec: 34000000
  frame_id: map
pose:
  pose:
    position:
      x: 0.9265284932107585
      y: -0.17206279611231945
      z: 0.0
    orientation:
      x: 0.0
      y: 0.0
      z: 0.01599377111501274
      w: 0.9998720914624633
  covariance: '<array type: double[36]>'
---
header:
  stamp:
    sec: 1778498881
    nanosec: 191000000
  frame_id: map
pose:
  pose:
    position:
      x: 0.9872732237548463
      y: -0.1682935284876123
      z: 0.0
    orientation:
      x: 0.0
      y: 0.0
      z: 0.028695925935086224
      w: 0.9995881871224409
  covariance: '<array type: double[36]>'
---
header:
  stamp:
    sec: 1778498881
    nanosec: 995000000
  frame_id: map
pose:
  pose:
    position:
      x: 1.0384264760415534
      y: -0.16119098023039
      z: 0.0
    orientation:
      x: 0.0
      y: 0.0
      z: 0.049647296162527166
      w: 0.9987668126163135
  covariance: '<array type: double[36]>'
---
header:
  stamp:
    sec: 1778498882
    nanosec: 469000000
  frame_id: map
pose:
  pose:
    position:
      x: 1.098852279149118
      y: -0.15009921616993338
      z: 0.0
    orientation:
      x: 0.0
      y: 0.0
      z: 0.0877077950030527
      w: 0.9961462456365041
  covariance: '<array type: double[36]>'
---
header:
  stamp:
    sec: 1778498882
    nanosec: 794000000
  frame_id: map
pose:
  pose:
    position:
      x: 1.1585919163884082
      y: -0.1389136102124729
      z: 0.0
    orientation:
      x: 0.0
      y: 0.0
      z: 0.09708126717171427
      w: 0.9952764578569787
  covariance: '<array type: double[36]>'
---
header:
  stamp:
    sec: 1778498884
    nanosec: 634000000
  frame_id: map
pose:
  pose:
    position:
      x: 1.1660132644535692
      y: -0.13716600848133884
      z: 0.0
    orientation:
      x: 0.0
      y: 0.0
      z: 0.05203728399017977
      w: 0.9986451427183358
  covariance: '<array type: double[36]>'
---
header:
  stamp:
    sec: 1778498885
    nanosec: 48000000
  frame_id: map
pose:
  pose:
    position:
      x: 1.1944526772619297
      y: -0.13212395451609701
      z: 0.0
    orientation:
      x: 0.0
      y: 0.0
      z: 0.011404564895502092
      w: 0.9999349658350508
  covariance: '<array type: double[36]>'
---
header:
  stamp:
    sec: 1778498885
    nanosec: 432000000
  frame_id: map
pose:
  pose:
    position:
      x: 1.20848555201324
      y: -0.12947070657746848
      z: 0.0
    orientation:
      x: 0.0
      y: 0.0
      z: -0.024455516482964897
      w: 0.9997009191320929
  covariance: '<array type: double[36]>'
---
header:
  stamp:
    sec: 1778498885
    nanosec: 760000000
  frame_id: map
pose:
  pose:
    position:
      x: 1.223646125125371
      y: -0.12743829535217602
      z: 0.0
    orientation:
      x: 0.0
      y: 0.0
      z: -0.06639747780527615
      w: 0.9977932526035129
  covariance: '<array type: double[36]>'
---
header:
  stamp:
    sec: 1778498886
    nanosec: 232000000
  frame_id: map
pose:
  pose:
    position:
      x: 1.2576177022138932
      y: -0.13140187174291126
      z: 0.0
    orientation:
      x: 0.0
      y: 0.0
      z: -0.10668983218207469
      w: 0.9942923512272237
  covariance: '<array type: double[36]>'
---
header:
  stamp:
    sec: 1778498886
    nanosec: 644000000
  frame_id: map
pose:
  pose:
    position:
      x: 1.2798187947258557
      y: -0.13766482515844264
      z: 0.0
    orientation:
      x: 0.0
      y: 0.0
      z: -0.15125320695336272
      w: 0.9884950517763471
  covariance: '<array type: double[36]>'
---
header:
  stamp:
    sec: 1778498887
    nanosec: 112000000
  frame_id: map
pose:
  pose:
    position:
      x: 1.3004106397272035
      y: -0.14131065699958642
      z: 0.0
    orientation:
      x: 0.0
      y: 0.0
      z: -0.1861185225215093
      w: 0.9825273001674867
  covariance: '<array type: double[36]>'
---
header:
  stamp:
    sec: 1778498887
    nanosec: 515000000
  frame_id: map
pose:
  pose:
    position:
      x: 1.3172251854308772
      y: -0.1470634066012182
      z: 0.0
    orientation:
      x: 0.0
      y: 0.0
      z: -0.2280368366622181
      w: 0.9736525053247123
  covariance: '<array type: double[36]>'
---
header:
  stamp:
    sec: 1778498888
    nanosec: 69000000
  frame_id: map
pose:
  pose:
    position:
      x: 1.342441375391281
      y: -0.15973358568907042
      z: 0.0
    orientation:
      x: 0.0
      y: 0.0
      z: -0.2695416459490855
      w: 0.9629887336303877
  covariance: '<array type: double[36]>'
---
header:
  stamp:
    sec: 1778498888
    nanosec: 569000000
  frame_id: map
pose:
  pose:
    position:
      x: 1.3691370165380037
      y: -0.17113925279805683
      z: 0.0
    orientation:
      x: 0.0
      y: 0.0
      z: -0.30682123665845773
      w: 0.9517671609881141
  covariance: '<array type: double[36]>'
---
header:
  stamp:
    sec: 1778498889
    nanosec: 34000000
  frame_id: map
pose:
  pose:
    position:
      x: 1.396138199322051
      y: -0.19040305319629625
      z: 0.0
    orientation:
      x: 0.0
      y: 0.0
      z: -0.34717428798894856
      w: 0.9378006258045292
  covariance: '<array type: double[36]>'
---
header:
  stamp:
    sec: 1778498889
    nanosec: 592000000
  frame_id: map
pose:
  pose:
    position:
      x: 1.4369181260748036
      y: -0.22422416930853922
      z: 0.0
    orientation:
      x: 0.0
      y: 0.0
      z: -0.38234594235031555
      w: 0.9240192532454339
  covariance: '<array type: double[36]>'
---
header:
  stamp:
    sec: 1778498890
    nanosec: 176000000
  frame_id: map
pose:
  pose:
    position:
      x: 1.4808613872282115
      y: -0.26963608306695336
      z: 0.0
    orientation:
      x: 0.0
      y: 0.0
      z: -0.40535646085362065
      w: 0.9141587059390875
  covariance: '<array type: double[36]>'
---
header:
  stamp:
    sec: 1778498890
    nanosec: 723000000
  frame_id: map
pose:
  pose:
    position:
      x: 1.5166964266061191
      y: -0.3097839225945591
      z: 0.0
    orientation:
      x: 0.0
      y: 0.0
      z: -0.41263332891825727
      w: 0.9108972147645624
  covariance: '<array type: double[36]>'
---
header:
  stamp:
    sec: 1778498891
    nanosec: 351000000
  frame_id: map
pose:
  pose:
    position:
      x: 1.554366733574463
      y: -0.35142644453993965
      z: 0.0
    orientation:
      x: 0.0
      y: 0.0
      z: -0.4253270448230514
      w: 0.9050397256154505
  covariance: '<array type: double[36]>'
---
header:
  stamp:
    sec: 1778498894
    nanosec: 477000000
  frame_id: map
pose:
  pose:
    position:
      x: 1.5760524566450416
      y: -0.3776412935533018
      z: 0.0
    orientation:
      x: 0.0
      y: 0.0
      z: -0.3772021303121168
      w: 0.9261309588216997
  covariance: '<array type: double[36]>'
---
header:
  stamp:
    sec: 1778498894
    nanosec: 873000000
  frame_id: map
pose:
  pose:
    position:
      x: 1.586819388275335
      y: -0.3860165926871478
      z: 0.0
    orientation:
      x: 0.0
      y: 0.0
      z: -0.33108321275247643
      w: 0.9436015611652507
  covariance: '<array type: double[36]>'
---
header:
  stamp:
    sec: 1778498896
    nanosec: 68000000
  frame_id: map
pose:
  pose:
    position:
      x: 1.6332683595799238
      y: -0.41778942722226736
      z: 0.0
    orientation:
      x: 0.0
      y: 0.0
      z: -0.29728945132646134
      w: 0.9547874015350284
  covariance: '<array type: double[36]>'
---
header:
  stamp:
    sec: 1778498898
    nanosec: 11000000
  frame_id: map
pose:
  pose:
    position:
      x: 1.6311090785300233
      y: -0.41817261157306806
      z: 0.0
    orientation:
      x: 0.0
      y: 0.0
      z: -0.25696303010225463
      w: 0.9664212338109442
  covariance: '<array type: double[36]>'
---
header:
  stamp:
    sec: 1778498899
    nanosec: 31000000
  frame_id: map
pose:
  pose:
    position:
      x: 1.6181696302347737
      y: -0.4124394874407034
      z: 0.0
    orientation:
      x: 0.0
      y: 0.0
      z: -0.21357586797664813
      w: 0.9769264806616829
  covariance: '<array type: double[36]>'
---
header:
  stamp:
    sec: 1778498899
    nanosec: 513000000
  frame_id: map
pose:
  pose:
    position:
      x: 1.6339865371803743
      y: -0.4177532236056897
      z: 0.0
    orientation:
      x: 0.0
      y: 0.0
      z: -0.16856387826365718
      w: 0.9856907318955145
  covariance: '<array type: double[36]>'
---
header:
  stamp:
    sec: 1778498899
    nanosec: 921000000
  frame_id: map
pose:
  pose:
    position:
      x: 1.6416092920492782
      y: -0.4191441878698359
      z: 0.0
    orientation:
      x: 0.0
      y: 0.0
      z: -0.12799732698212582
      w: 0.9917745128230664
  covariance: '<array type: double[36]>'
---
header:
  stamp:
    sec: 1778498900
    nanosec: 232000000
  frame_id: map
pose:
  pose:
    position:
      x: 1.6300946906069367
      y: -0.41925605566262447
      z: 0.0
    orientation:
      x: 0.0
      y: 0.0
      z: -0.08293234104584896
      w: 0.9965551800119524
  covariance: '<array type: double[36]>'
---
header:
  stamp:
    sec: 1778498906
    nanosec: 894000000
  frame_id: map
pose:
  pose:
    position:
      x: 1.621712655852907
      y: -0.412806657796939
      z: 0.0
    orientation:
      x: 0.0
      y: 0.0
      z: -0.116724820932225
      w: 0.9931642946553908
  covariance: '<array type: double[36]>'
---
header:
  stamp:
    sec: 1778498907
    nanosec: 283000000
  frame_id: map
pose:
  pose:
    position:
      x: 1.6357211937957092
      y: -0.423401701941045
      z: 0.0
    orientation:
      x: 0.0
      y: 0.0
      z: -0.17470896860027263
      w: 0.984620117756401
  covariance: '<array type: double[36]>'
---
header:
  stamp:
    sec: 1778498907
    nanosec: 596000000
  frame_id: map
pose:
  pose:
    position:
      x: 1.643162726020987
      y: -0.4264189504816055
      z: 0.0
    orientation:
      x: 0.0
      y: 0.0
      z: -0.22472706720664756
      w: 0.9744217491747087
  covariance: '<array type: double[36]>'
---
header:
  stamp:
    sec: 1778498907
    nanosec: 910000000
  frame_id: map
pose:
  pose:
    position:
      x: 1.6476743759889292
      y: -0.43131328429790006
      z: 0.0
    orientation:
      x: 0.0
      y: 0.0
      z: -0.2707333043427312
      w: 0.9626543917313555
  covariance: '<array type: double[36]>'
---
header:
  stamp:
    sec: 1778498908
    nanosec: 159000000
  frame_id: map
pose:
  pose:
    position:
      x: 1.647330440957428
      y: -0.41807113223847114
      z: 0.0
    orientation:
      x: 0.0
      y: 0.0
      z: -0.29851591940814737
      w: 0.9544046551960591
  covariance: '<array type: double[36]>'
---
header:
  stamp:
    sec: 1778498908
    nanosec: 472000000
  frame_id: map
pose:
  pose:
    position:
      x: 1.652203724850312
      y: -0.42222960128674203
      z: 0.0
    orientation:
      x: 0.0
      y: 0.0
      z: -0.3407602685368889
      w: 0.9401502217128215
  covariance: '<array type: double[36]>'
---
header:
  stamp:
    sec: 1778498908
    nanosec: 799000000
  frame_id: map
pose:
  pose:
    position:
      x: 1.6462145194090239
      y: -0.41736350280155454
      z: 0.0
    orientation:
      x: 0.0
      y: 0.0
      z: -0.3802061327063933
      w: 0.9249017767592668
  covariance: '<array type: double[36]>'
---
header:
  stamp:
    sec: 1778498909
    nanosec: 190000000
  frame_id: map
pose:
  pose:
    position:
      x: 1.6435150534582168
      y: -0.4202199820714261
      z: 0.0
    orientation:
      x: 0.0
      y: 0.0
      z: -0.4219058764160265
      w: 0.9066396370364714
  covariance: '<array type: double[36]>'
---
header:
  stamp:
    sec: 1778498909
    nanosec: 624000000
  frame_id: map
pose:
  pose:
    position:
      x: 1.6501650825309064
      y: -0.42918249177086387
      z: 0.0
    orientation:
      x: 0.0
      y: 0.0
      z: -0.45807446885467784
      w: 0.8889138208980131
  covariance: '<array type: double[36]>'
---
header:
  stamp:
    sec: 1778498910
    nanosec: 71000000
  frame_id: map
pose:
  pose:
    position:
      x: 1.6497939965751203
      y: -0.43172150581973356
      z: 0.0
    orientation:
      x: 0.0
      y: 0.0
      z: -0.4928099257280731
      w: 0.8701369875507483
  covariance: '<array type: double[36]>'
---
header:
  stamp:
    sec: 1778498910
    nanosec: 387000000
  frame_id: map
pose:
  pose:
    position:
      x: 1.6452332089879542
      y: -0.42981223850861155
      z: 0.0
    orientation:
      x: 0.0
      y: 0.0
      z: -0.5369701152920837
      w: 0.8436012655770535
  covariance: '<array type: double[36]>'
---
header:
  stamp:
    sec: 1778498910
    nanosec: 793000000
  frame_id: map
pose:
  pose:
    position:
      x: 1.6439547155334986
      y: -0.4289529704295807
      z: 0.0
    orientation:
      x: 0.0
      y: 0.0
      z: -0.5724350036833391
      w: 0.8199501000414937
  covariance: '<array type: double[36]>'
---
header:
  stamp:
    sec: 1778498911
    nanosec: 109000000
  frame_id: map
pose:
  pose:
    position:
      x: 1.643855164497524
      y: -0.42988097862420277
      z: 0.0
    orientation:
      x: 0.0
      y: 0.0
      z: -0.6022397952471467
      w: 0.7983152441364719
  covariance: '<array type: double[36]>'
---
header:
  stamp:
    sec: 1778498911
    nanosec: 432000000
  frame_id: map
pose:
  pose:
    position:
      x: 1.6472357979796524
      y: -0.43764946080911027
      z: 0.0
    orientation:
      x: 0.0
      y: 0.0
      z: -0.6368259326521545
      w: 0.7710076079402288
  covariance: '<array type: double[36]>'
---
header:
  stamp:
    sec: 1778498911
    nanosec: 751000000
  frame_id: map
pose:
  pose:
    position:
      x: 1.6488134950606417
      y: -0.4496423140116582
      z: 0.0
    orientation:
      x: 0.0
      y: 0.0
      z: -0.6719040999170802
      w: 0.7406381576145117
  covariance: '<array type: double[36]>'
---
header:
  stamp:
    sec: 1778498912
    nanosec: 79000000
  frame_id: map
pose:
  pose:
    position:
      x: 1.6474159385134295
      y: -0.46568664898910017
      z: 0.0
    orientation:
      x: 0.0
      y: 0.0
      z: -0.7037389864894438
      w: 0.710458611669118
  covariance: '<array type: double[36]>'
---
header:
  stamp:
    sec: 1778498912
    nanosec: 955000000
  frame_id: map
pose:
  pose:
    position:
      x: 1.6415850738740916
      y: -0.526568043840069
      z: 0.0
    orientation:
      x: 0.0
      y: 0.0
      z: -0.7194250717735281
      w: 0.6945700584560595
  covariance: '<array type: double[36]>'
---
header:
  stamp:
    sec: 1778498913
    nanosec: 910000000
  frame_id: map
pose:
  pose:
    position:
      x: 1.6406605521494395
      y: -0.591935649920947
      z: 0.0
    orientation:
      x: 0.0
      y: 0.0
      z: -0.7167947059117488
      w: 0.6972842674095621
  covariance: '<array type: double[36]>'
---
header:
  stamp:
    sec: 1778498914
    nanosec: 470000000
  frame_id: map
pose:
  pose:
    position:
      x: 1.6433535838652331
      y: -0.6559083191669861
      z: 0.0
    orientation:
      x: 0.0
      y: 0.0
      z: -0.718422840218458
      w: 0.6956066579989325
  covariance: '<array type: double[36]>'
---
header:
  stamp:
    sec: 1778498915
    nanosec: 34000000
  frame_id: map
pose:
  pose:
    position:
      x: 1.642466871673523
      y: -0.7171361615407827
      z: 0.0
    orientation:
      x: 0.0
      y: 0.0
      z: -0.7208291239257038
      w: 0.6931128148436606
  covariance: '<array type: double[36]>'
---
header:
  stamp:
    sec: 1778498915
    nanosec: 706000000
  frame_id: map
pose:
  pose:
    position:
      x: 1.6253554362921954
      y: -0.7960755810489829
      z: 0.0
    orientation:
      x: 0.0
      y: 0.0
      z: -0.7278418507720424
      w: 0.6857450256944835
  covariance: '<array type: double[36]>'
---
header:
  stamp:
    sec: 1778498916
    nanosec: 351000000
  frame_id: map
pose:
  pose:
    position:
      x: 1.623958873950835
      y: -0.8653745504777028
      z: 0.0
    orientation:
      x: 0.0
      y: 0.0
      z: -0.7307126344750452
      w: 0.6826851732816079
  covariance: '<array type: double[36]>'
---
header:
  stamp:
    sec: 1778498919
    nanosec: 600000000
  frame_id: map
pose:
  pose:
    position:
      x: 1.621045045619896
      y: -0.8876488370856782
      z: 0.0
    orientation:
      x: 0.0
      y: 0.0
      z: -0.7028999602877339
      w: 0.7112887218475364
  covariance: '<array type: double[36]>'
---
header:
  stamp:
    sec: 1778498920
    nanosec: 391000000
  frame_id: map
pose:
  pose:
    position:
      x: 1.6222964410060663
      y: -0.9073664138035767
      z: 0.0
    orientation:
      x: 0.0
      y: 0.0
      z: -0.6722105780096498
      w: 0.7403600062212522
  covariance: '<array type: double[36]>'
---
header:
  stamp:
    sec: 1778498920
    nanosec: 951000000
  frame_id: map
pose:
  pose:
    position:
      x: 1.6237330362458322
      y: -0.9146062376310082
      z: 0.0
    orientation:
      x: 0.0
      y: 0.0
      z: -0.6406081385743069
      w: 0.7678679657287193
  covariance: '<array type: double[36]>'
---
header:
  stamp:
    sec: 1778498921
    nanosec: 196000000
  frame_id: map
pose:
  pose:
    position:
      x: 1.6253174743875587
      y: -0.922702002190833
      z: 0.0
    orientation:
      x: 0.0
      y: 0.0
      z: -0.6128245030776684
      w: 0.7902190382593984
  covariance: '<array type: double[36]>'
---
header:
  stamp:
    sec: 1778498921
    nanosec: 511000000
  frame_id: map
pose:
  pose:
    position:
      x: 1.6227374006240038
      y: -0.9220774226742976
      z: 0.0
    orientation:
      x: 0.0
      y: 0.0
      z: -0.5722143138022524
      w: 0.8201041269740187
  covariance: '<array type: double[36]>'
---
header:
  stamp:
    sec: 1778498921
    nanosec: 931000000
  frame_id: map
pose:
  pose:
    position:
      x: 1.6251858495927098
      y: -0.9264049914458834
      z: 0.0
    orientation:
      x: 0.0
      y: 0.0
      z: -0.5307174812727741
      w: 0.84754879214797
  covariance: '<array type: double[36]>'
---
header:
  stamp:
    sec: 1778498922
    nanosec: 236000000
  frame_id: map
pose:
  pose:
    position:
      x: 1.628438173662153
      y: -0.932109467189764
      z: 0.0
    orientation:
      x: 0.0
      y: 0.0
      z: -0.487728825115756
      w: 0.8729951850675949
  covariance: '<array type: double[36]>'
---
header:
  stamp:
    sec: 1778498922
    nanosec: 565000000
  frame_id: map
pose:
  pose:
    position:
      x: 1.6264639113941675
      y: -0.9308160174318768
      z: 0.0
    orientation:
      x: 0.0
      y: 0.0
      z: -0.4489571511220158
      w: 0.8935532868589334
  covariance: '<array type: double[36]>'
---
header:
  stamp:
    sec: 1778498923
    nanosec: 43000000
  frame_id: map
pose:
  pose:
    position:
      x: 1.6375334282307712
      y: -0.9234507923990722
      z: 0.0
    orientation:
      x: 0.0
      y: 0.0
      z: -0.40181790779844684
      w: 0.9157195907986674
  covariance: '<array type: double[36]>'
---
header:
  stamp:
    sec: 1778498924
    nanosec: 152000000
  frame_id: map
pose:
  pose:
    position:
      x: 1.6305965856106537
      y: -0.9302645324491591
      z: 0.0
    orientation:
      x: 0.0
      y: 0.0
      z: -0.3655188818268433
      w: 0.9308039251249719
  covariance: '<array type: double[36]>'
---
header:
  stamp:
    sec: 1778498924
    nanosec: 560000000
  frame_id: map
pose:
  pose:
    position:
      x: 1.6415691093112326
      y: -0.9275447142895507
      z: 0.0
    orientation:
      x: 0.0
      y: 0.0
      z: -0.3289358504773693
      w: 0.9443522681027084
  covariance: '<array type: double[36]>'
---
header:
  stamp:
    sec: 1778498924
    nanosec: 951000000
  frame_id: map
pose:
  pose:
    position:
      x: 1.6436618842944417
      y: -0.9309940829272711
      z: 0.0
    orientation:
      x: 0.0
      y: 0.0
      z: -0.2821712800202926
      w: 0.9593640439018494
  covariance: '<array type: double[36]>'
---
header:
  stamp:
    sec: 1778498925
    nanosec: 251000000
  frame_id: map
pose:
  pose:
    position:
      x: 1.6398746926175785
      y: -0.9279523224895576
      z: 0.0
    orientation:
      x: 0.0
      y: 0.0
      z: -0.23834546395877906
      w: 0.971180436278591
  covariance: '<array type: double[36]>'
---
header:
  stamp:
    sec: 1778498925
    nanosec: 514000000
  frame_id: map
pose:
  pose:
    position:
      x: 1.6401211047780664
      y: -0.9298915825511792
      z: 0.0
    orientation:
      x: 0.0
      y: 0.0
      z: -0.18985070735129742
      w: 0.9818129704369423
  covariance: '<array type: double[36]>'
---
header:
  stamp:
    sec: 1778498925
    nanosec: 863000000
  frame_id: map
pose:
  pose:
    position:
      x: 1.636495835513846
      y: -0.9286039900598946
      z: 0.0
    orientation:
      x: 0.0
      y: 0.0
      z: -0.13667197030214395
      w: 0.9906163599162543
  covariance: '<array type: double[36]>'
---
header:
  stamp:
    sec: 1778498926
    nanosec: 813000000
  frame_id: map
pose:
  pose:
    position:
      x: 1.6276314096757725
      y: -0.9292564773809305
      z: 0.0
    orientation:
      x: 0.0
      y: 0.0
      z: -0.07190921123444415
      w: 0.9974111816796722
  covariance: '<array type: double[36]>'
---
header:
  stamp:
    sec: 1778498927
    nanosec: 411000000
  frame_id: map
pose:
  pose:
    position:
      x: 1.627012287849904
      y: -0.9292103998538517
      z: 0.0
    orientation:
      x: 0.0
      y: 0.0
      z: -0.02016143716956298
      w: 0.9997967375678207
  covariance: '<array type: double[36]>'
---
header:
  stamp:
    sec: 1778498928
    nanosec: 31000000
  frame_id: map
pose:
  pose:
    position:
      x: 1.6277996984921161
      y: -0.9303641747738416
      z: 0.0
    orientation:
      x: 0.0
      y: 0.0
      z: 0.045973258324794805
      w: 0.9989426707869685
  covariance: '<array type: double[36]>'
---
header:
  stamp:
    sec: 1778498929
    nanosec: 670000000
  frame_id: map
pose:
  pose:
    position:
      x: 1.7890663336728396
      y: -0.9062262722911909
      z: 0.0
    orientation:
      x: 0.0
      y: 0.0
      z: 0.04366123071934981
      w: 0.9990463937836279
  covariance: '<array type: double[36]>'
---
header:
  stamp:
    sec: 1778498930
    nanosec: 34000000
  frame_id: map
pose:
  pose:
    position:
      x: 1.8257665246210308
      y: -0.901933560894181
      z: 0.0
    orientation:
      x: 0.0
      y: 0.0
      z: 0.028135225721946832
      w: 0.9996041261787464
  covariance: '<array type: double[36]>'
---
header:
  stamp:
    sec: 1778498930
    nanosec: 573000000
  frame_id: map
pose:
  pose:
    position:
      x: 1.8679583850585157
      y: -0.8957186665024987
      z: 0.0
    orientation:
      x: 0.0
      y: 0.0
      z: 0.009073626302176304
      w: 0.9999588338055364
  covariance: '<array type: double[36]>'
---
header:
  stamp:
    sec: 1778498931
    nanosec: 270000000
  frame_id: map
pose:
  pose:
    position:
      x: 1.926010523593495
      y: -0.9000221765517896
      z: 0.0
    orientation:
      x: 0.0
      y: 0.0
      z: -0.029870646739369254
      w: 0.9995537726722719
  covariance: '<array type: double[36]>'
---
header:
  stamp:
    sec: 1778498931
    nanosec: 754000000
  frame_id: map
pose:
  pose:
    position:
      x: 1.9729482283341895
      y: -0.9070699668296555
      z: 0.0
    orientation:
      x: 0.0
      y: 0.0
      z: -0.07115909647643623
      w: 0.9974649783268871
  covariance: '<array type: double[36]>'
---
header:
  stamp:
    sec: 1778498932
    nanosec: 149000000
  frame_id: map
pose:
  pose:
    position:
      x: 2.02951199024855
      y: -0.9201637674690518
      z: 0.0
    orientation:
      x: 0.0
      y: 0.0
      z: -0.08806382582933499
      w: 0.9961148340328542
  covariance: '<array type: double[36]>'
---
header:
  stamp:
    sec: 1778498934
    nanosec: 151000000
  frame_id: map
pose:
  pose:
    position:
      x: 2.108005922059612
      y: -0.9321696016534384
      z: 0.0
    orientation:
      x: 0.0
      y: 0.0
      z: -0.07235650131700387
      w: 0.997378833100624
  covariance: '<array type: double[36]>'
---
header:
  stamp:
    sec: 1778498934
    nanosec: 878000000
  frame_id: map
pose:
  pose:
    position:
      x: 2.1594817732506466
      y: -0.9406972038933044
      z: 0.0
    orientation:
      x: 0.0
      y: 0.0
      z: -0.04435915468918899
      w: 0.9990156482234203
  covariance: '<array type: double[36]>'
---
header:
  stamp:
    sec: 1778498937
    nanosec: 523000000
  frame_id: map
pose:
  pose:
    position:
      x: 2.224506471077396
      y: -0.9470255593056405
      z: 0.0
    orientation:
      x: 0.0
      y: 0.0
      z: -0.034869802010837475
      w: 0.9993918635388849
  covariance: '<array type: double[36]>'
---
header:
  stamp:
    sec: 1778498938
    nanosec: 634000000
  frame_id: map
pose:
  pose:
    position:
      x: 2.2802894794713757
      y: -0.947765448215469
      z: 0.0
    orientation:
      x: 0.0
      y: 0.0
      z: -0.023769792202339237
      w: 0.9997174585745002
  covariance: '<array type: double[36]>'
---
header:
  stamp:
    sec: 1778498939
    nanosec: 351000000
  frame_id: map
pose:
  pose:
    position:
      x: 2.327993924480682
      y: -0.949768868166859
      z: 0.0
    orientation:
      x: 0.0
      y: 0.0
      z: 0.014726665608676028
      w: 0.9998915567800591
  covariance: '<array type: double[36]>'
---
header:
  stamp:
    sec: 1778498940
    nanosec: 76000000
  frame_id: map
pose:
  pose:
    position:
      x: 2.358555779174555
      y: -0.9455445297945775
      z: 0.0
    orientation:
      x: 0.0
      y: 0.0
      z: 0.06148369034882641
      w: 0.9981080882455015
  covariance: '<array type: double[36]>'
---
header:
  stamp:
    sec: 1778498940
    nanosec: 793000000
  frame_id: map
pose:
  pose:
    position:
      x: 2.4040747673089298
      y: -0.9427869453099176
      z: 0.0
    orientation:
      x: 0.0
      y: 0.0
      z: 0.10124097532024101
      w: 0.994861932589747
  covariance: '<array type: double[36]>'
---
header:
  stamp:
    sec: 1778498941
    nanosec: 432000000
  frame_id: map
pose:
  pose:
    position:
      x: 2.4462833333876746
      y: -0.9348368464552559
      z: 0.0
    orientation:
      x: 0.0
      y: 0.0
      z: 0.145015762282055
      w: 0.9894293449710062
  covariance: '<array type: double[36]>'
---
header:
  stamp:
    sec: 1778498941
    nanosec: 922000000
  frame_id: map
pose:
  pose:
    position:
      x: 2.4801286623655048
      y: -0.9272082679029504
      z: 0.0
    orientation:
      x: 0.0
      y: 0.0
      z: 0.1856267017924938
      w: 0.9826203374557442
  covariance: '<array type: double[36]>'
---
header:
  stamp:
    sec: 1778498942
    nanosec: 424000000
  frame_id: map
pose:
  pose:
    position:
      x: 2.5167715663428676
      y: -0.916111591138666
      z: 0.0
    orientation:
      x: 0.0
      y: 0.0
      z: 0.22371560697004247
      w: 0.9746544655404937
  covariance: '<array type: double[36]>'
---
header:
  stamp:
    sec: 1778498942
    nanosec: 948000000
  frame_id: map
pose:
  pose:
    position:
      x: 2.5631908747246843
      y: -0.8900091907838108
      z: 0.0
    orientation:
      x: 0.0
      y: 0.0
      z: 0.2685128674695543
      w: 0.9632760974940039
  covariance: '<array type: double[36]>'
---
header:
  stamp:
    sec: 1778498943
    nanosec: 675000000
  frame_id: map
pose:
  pose:
    position:
      x: 2.585430743783635
      y: -0.8742078869300872
      z: 0.0
    orientation:
      x: 0.0
      y: 0.0
      z: 0.32966993511494935
      w: 0.944096252445324
  covariance: '<array type: double[36]>'
---
header:
  stamp:
    sec: 1778498944
    nanosec: 874000000
  frame_id: map
pose:
  pose:
    position:
      x: 2.6122956096384615
      y: -0.8531080942270507
      z: 0.0
    orientation:
      x: 0.0
      y: 0.0
      z: 0.37126816833538356
      w: 0.9285256847179238
  covariance: '<array type: double[36]>'
---
header:
  stamp:
    sec: 1778498945
    nanosec: 114000000
  frame_id: map
pose:
  pose:
    position:
      x: 2.6075076778812387
      y: -0.8593383859767679
      z: 0.0
    orientation:
      x: 0.0
      y: 0.0
      z: 0.3275895706466099
      w: 0.9448201274335607
  covariance: '<array type: double[36]>'
---
header:
  stamp:
    sec: 1778498946
    nanosec: 242000000
  frame_id: map
pose:
  pose:
    position:
      x: 2.6106083266195124
      y: -0.8597461668584826
      z: 0.0
    orientation:
      x: 0.0
      y: 0.0
      z: 0.28218266572746836
      w: 0.9593606950271311
  covariance: '<array type: double[36]>'
---
header:
  stamp:
    sec: 1778498946
    nanosec: 873000000
  frame_id: map
pose:
  pose:
    position:
      x: 2.614367088850317
      y: -0.859989135354198
      z: 0.0
    orientation:
      x: 0.0
      y: 0.0
      z: 0.23438275995083402
      w: 0.9721443935125222
  covariance: '<array type: double[36]>'
---
header:
  stamp:
    sec: 1778498947
    nanosec: 508000000
  frame_id: map
pose:
  pose:
    position:
      x: 2.6168542958756587
      y: -0.861677477764052
      z: 0.0
    orientation:
      x: 0.0
      y: 0.0
      z: 0.19439623748244056
      w: 0.980923087123894
  covariance: '<array type: double[36]>'
---
header:
  stamp:
    sec: 1778498948
    nanosec: 71000000
  frame_id: map
pose:
  pose:
    position:
      x: 2.620512644115334
      y: -0.8632717938569482
      z: 0.0
    orientation:
      x: 0.0
      y: 0.0
      z: 0.14948957922833186
      w: 0.9887633011505516
  covariance: '<array type: double[36]>'
---
header:
  stamp:
    sec: 1778498948
    nanosec: 471000000
  frame_id: map
pose:
  pose:
    position:
      x: 2.619747138797929
      y: -0.8622596497395884
      z: 0.0
    orientation:
      x: 0.0
      y: 0.0
      z: 0.10560920810524622
      w: 0.9944077107320632
  covariance: '<array type: double[36]>'
---
header:
  stamp:
    sec: 1778498948
    nanosec: 803000000
  frame_id: map
pose:
  pose:
    position:
      x: 2.6136540002578084
      y: -0.8639802899410752
      z: 0.0
    orientation:
      x: 0.0
      y: 0.0
      z: 0.059479999456347604
      w: 0.9982294974927723
  covariance: '<array type: double[36]>'
---
header:
  stamp:
    sec: 1778498949
    nanosec: 117000000
  frame_id: map
pose:
  pose:
    position:
      x: 2.626128523345421
      y: -0.863976445776381
      z: 0.0
    orientation:
      x: 0.0
      y: 0.0
      z: 0.016038479678655876
      w: 0.9998713753126436
  covariance: '<array type: double[36]>'
---
header:
  stamp:
    sec: 1778498949
    nanosec: 433000000
  frame_id: map
pose:
  pose:
    position:
      x: 2.622577298461558
      y: -0.8653007813528825
      z: 0.0
    orientation:
      x: 0.0
      y: 0.0
      z: -0.02866537152267872
      w: 0.9995890638034546
  covariance: '<array type: double[36]>'
---
header:
  stamp:
    sec: 1778498949
    nanosec: 845000000
  frame_id: map
pose:
  pose:
    position:
      x: 2.622118489970876
      y: -0.8673475417167936
      z: 0.0
    orientation:
      x: 0.0
      y: 0.0
      z: -0.08007594841746057
      w: 0.9967887652281421
  covariance: '<array type: double[36]>'
---
header:
  stamp:
    sec: 1778498950
    nanosec: 148000000
  frame_id: map
pose:
  pose:
    position:
      x: 2.6267103527177795
      y: -0.8686103352027225
      z: 0.0
    orientation:
      x: 0.0
      y: 0.0
      z: -0.12943102224371356
      w: 0.9915884279684527
  covariance: '<array type: double[36]>'
---
header:
  stamp:
    sec: 1778498950
    nanosec: 475000000
  frame_id: map
pose:
  pose:
    position:
      x: 2.6247593560341453
      y: -0.8738444803253315
      z: 0.0
    orientation:
      x: 0.0
      y: 0.0
      z: -0.18347313313783797
      w: 0.9830247247229263
  covariance: '<array type: double[36]>'
---
header:
  stamp:
    sec: 1778498950
    nanosec: 871000000
  frame_id: map
pose:
  pose:
    position:
      x: 2.6264878376444085
      y: -0.8762682869443444
      z: 0.0
    orientation:
      x: 0.0
      y: 0.0
      z: -0.22420686705327478
      w: 0.9745415746730127
  covariance: '<array type: double[36]>'
---
header:
  stamp:
    sec: 1778498951
    nanosec: 111000000
  frame_id: map
pose:
  pose:
    position:
      x: 2.627215796406323
      y: -0.8809254692284767
      z: 0.0
    orientation:
      x: 0.0
      y: 0.0
      z: -0.26645347308189876
      w: 0.9638477819046916
  covariance: '<array type: double[36]>'
---
header:
  stamp:
    sec: 1778498951
    nanosec: 432000000
  frame_id: map
pose:
  pose:
    position:
      x: 2.626215073657839
      y: -0.8835027210847893
      z: 0.0
    orientation:
      x: 0.0
      y: 0.0
      z: -0.31692982217831756
      w: 0.9484489906231226
  covariance: '<array type: double[36]>'
---
header:
  stamp:
    sec: 1778498951
    nanosec: 751000000
  frame_id: map
pose:
  pose:
    position:
      x: 2.621991546132299
      y: -0.8872176830490441
      z: 0.0
    orientation:
      x: 0.0
      y: 0.0
      z: -0.363860976405706
      w: 0.9314532676678343
  covariance: '<array type: double[36]>'
---
header:
  stamp:
    sec: 1778498952
    nanosec: 86000000
  frame_id: map
pose:
  pose:
    position:
      x: 2.6212192142999418
      y: -0.8893365906154838
      z: 0.0
    orientation:
      x: 0.0
      y: 0.0
      z: -0.40624165825284175
      w: 0.913765678442773
  covariance: '<array type: double[36]>'
---
header:
  stamp:
    sec: 1778498952
    nanosec: 391000000
  frame_id: map
pose:
  pose:
    position:
      x: 2.6261171767316527
      y: -0.8939986264160646
      z: 0.0
    orientation:
      x: 0.0
      y: 0.0
      z: -0.4456097498997396
      w: 0.8952273179446053
  covariance: '<array type: double[36]>'
---
header:
  stamp:
    sec: 1778498952
    nanosec: 720000000
  frame_id: map
pose:
  pose:
    position:
      x: 2.6249090196408917
      y: -0.8982839755236841
      z: 0.0
    orientation:
      x: 0.0
      y: 0.0
      z: -0.48136008505295624
      w: 0.8765229423796109
  covariance: '<array type: double[36]>'
---
header:
  stamp:
    sec: 1778498953
    nanosec: 32000000
  frame_id: map
pose:
  pose:
    position:
      x: 2.6247563380760583
      y: -0.8977983684698811
      z: 0.0
    orientation:
      x: 0.0
      y: 0.0
      z: -0.514644257001337
      w: 0.8574038072784269
  covariance: '<array type: double[36]>'
---
header:
  stamp:
    sec: 1778498953
    nanosec: 452000000
  frame_id: map
pose:
  pose:
    position:
      x: 2.6234147731296344
      y: -0.8957059218396629
      z: 0.0
    orientation:
      x: 0.0
      y: 0.0
      z: -0.5533381161766844
      w: 0.8329567390843525
  covariance: '<array type: double[36]>'
---
header:
  stamp:
    sec: 1778498953
    nanosec: 834000000
  frame_id: map
pose:
  pose:
    position:
      x: 2.621006923103095
      y: -0.8951439728884877
      z: 0.0
    orientation:
      x: 0.0
      y: 0.0
      z: -0.5896847591338896
      w: 0.8076335089910562
  covariance: '<array type: double[36]>'
---
header:
  stamp:
    sec: 1778498954
    nanosec: 304000000
  frame_id: map
pose:
  pose:
    position:
      x: 2.621017285812187
      y: -0.8953672144605983
      z: 0.0
    orientation:
      x: 0.0
      y: 0.0
      z: -0.6411522232633516
      w: 0.767413725837935
  covariance: '<array type: double[36]>'
---
header:
  stamp:
    sec: 1778498956
    nanosec: 417000000
  frame_id: map
pose:
  pose:
    position:
      x: 2.6226076244395413
      y: -0.9384788837553597
      z: 0.0
    orientation:
      x: 0.0
      y: 0.0
      z: -0.664135773457354
      w: 0.7476119811869003
  covariance: '<array type: double[36]>'
---
header:
  stamp:
    sec: 1778498956
    nanosec: 994000000
  frame_id: map
pose:
  pose:
    position:
      x: 2.630356214588522
      y: -0.9952784066736484
      z: 0.0
    orientation:
      x: 0.0
      y: 0.0
      z: -0.6723527720470592
      w: 0.7402308760924764
  covariance: '<array type: double[36]>'
---
header:
  stamp:
    sec: 1778498957
    nanosec: 595000000
  frame_id: map
pose:
  pose:
    position:
      x: 2.6337458170657553
      y: -1.0465689053569787
      z: 0.0
    orientation:
      x: 0.0
      y: 0.0
      z: -0.6928045233072063
      w: 0.7211254346402397
  covariance: '<array type: double[36]>'
---
header:
  stamp:
    sec: 1778498958
    nanosec: 155000000
  frame_id: map
pose:
  pose:
    position:
      x: 2.6340721318294764
      y: -1.102845237070415
      z: 0.0
    orientation:
      x: 0.0
      y: 0.0
      z: -0.7115272196847546
      w: 0.7026585341740915
  covariance: '<array type: double[36]>'
---
header:
  stamp:
    sec: 1778498958
    nanosec: 710000000
  frame_id: map
pose:
  pose:
    position:
      x: 2.6320008721960972
      y: -1.1574008721401126
      z: 0.0
    orientation:
      x: 0.0
      y: 0.0
      z: -0.7237655824934747
      w: 0.6900459271656354
  covariance: '<array type: double[36]>'
---
header:
  stamp:
    sec: 1778498959
    nanosec: 352000000
  frame_id: map
pose:
  pose:
    position:
      x: 2.6300126954212586
      y: -1.2052102118830885
      z: 0.0
    orientation:
      x: 0.0
      y: 0.0
      z: -0.7246920829290573
      w: 0.6890728444365982
  covariance: '<array type: double[36]>'
---
header:
  stamp:
    sec: 1778498960
    nanosec: 554000000
  frame_id: map
pose:
  pose:
    position:
      x: 2.6305816020550736
      y: -1.2509610679532497
      z: 0.0
    orientation:
      x: 0.0
      y: 0.0
      z: -0.7114603153954641
      w: 0.7027262764529207
  covariance: '<array type: double[36]>'
---
header:
  stamp:
    sec: 1778498963
    nanosec: 674000000
  frame_id: map
pose:
  pose:
    position:
      x: 2.636095924380212
      y: -1.2296103097251598
      z: 0.0
    orientation:
      x: 0.0
      y: 0.0
      z: -0.737736756509207
      w: 0.6750884964915895
  covariance: '<array type: double[36]>'
---
header:
  stamp:
    sec: 1778498964
    nanosec: 71000000
  frame_id: map
pose:
  pose:
    position:
      x: 2.636183678410966
      y: -1.233712469086552
      z: 0.0
    orientation:
      x: 0.0
      y: 0.0
      z: -0.7642719093525318
      w: 0.6448941374943918
  covariance: '<array type: double[36]>'
---
header:
  stamp:
    sec: 1778498964
    nanosec: 397000000
  frame_id: map
pose:
  pose:
    position:
      x: 2.635635858616963
      y: -1.2327621500027937
      z: 0.0
    orientation:
      x: 0.0
      y: 0.0
      z: -0.7899937050277646
      w: 0.6131149533460306
  covariance: '<array type: double[36]>'
---
header:
  stamp:
    sec: 1778498964
    nanosec: 789000000
  frame_id: map
pose:
  pose:
    position:
      x: 2.6379828468098507
      y: -1.2297537043192999
      z: 0.0
    orientation:
      x: 0.0
      y: 0.0
      z: -0.815259934214658
      w: 0.5790951905035229
  covariance: '<array type: double[36]>'
---
header:
  stamp:
    sec: 1778498965
    nanosec: 111000000
  frame_id: map
pose:
  pose:
    position:
      x: 2.6363422672110435
      y: -1.234131562602358
      z: 0.0
    orientation:
      x: 0.0
      y: 0.0
      z: -0.8424018820199506
      w: 0.5388497649338312
  covariance: '<array type: double[36]>'
---
header:
  stamp:
    sec: 1778498965
    nanosec: 434000000
