linear:
  x: 0.15
  y: 0.0
  z: 0.0
angular:
  x: 0.0
  y: 0.0
  z: 0.02891470086889813
---
linear:
  x: 0.15
  y: 0.0
  z: 0.0
angular:
  x: 0.0
  y: 0.0
  z: 0.02891470086889813
---
linear:
  x: 0.15
  y: 0.0
  z: 0.0
angular:
  x: 0.0
  y: 0.0
  z: 0.028913859715018298
---
linear:
  x: 0.15
  y: 0.0
  z: 0.0
angular:
  x: 0.0
  y: 0.0
  z: 0.028913859715018298
---
linear:
  x: 0.15
  y: 0.0
  z: 0.0
angular:
  x: 0.0
  y: 0.0
  z: 0.02884126319800363
---
linear:
  x: 0.15
  y: 0.0
  z: 0.0
angular:
  x: 0.0
  y: 0.0
  z: 0.02884126319800363
---
linear:
  x: 0.15
  y: 0.0
  z: 0.0
angular:
  x: 0.0
  y: 0.0
  z: 0.028793842468397224
---
linear:
  x: 0.15
  y: 0.0
  z: 0.0
angular:
  x: 0.0
  y: 0.0
  z: 0.028793842468397224
---
linear:
  x: 0.15
  y: 0.0
  z: 0.0
angular:
  x: 0.0
  y: 0.0
  z: 0.024512517870382847
---
linear:
  x: 0.15
  y: 0.0
  z: 0.0
angular:
  x: 0.0
  y: 0.0
  z: 0.024512517870382847
---
linear:
  x: 0.15
  y: 0.0
  z: 0.0
angular:
  x: 0.0
  y: 0.0
  z: 0.02163159485278949
---
linear:
  x: 0.15
  y: 0.0
  z: 0.0
angular:
  x: 0.0
  y: 0.0
  z: 0.02163159485278949
---
linear:
  x: 0.15
  y: 0.0
  z: 0.0
angular:
  x: 0.0
  y: 0.0
  z: 0.018824257046157474
---
linear:
  x: 0.15
  y: 0.0
  z: 0.0
angular:
  x: 0.0
  y: 0.0
  z: 0.018824257046157474
---
linear:
  x: 0.15
  y: 0.0
  z: 0.0
angular:
  x: 0.0
  y: 0.0
  z: 0.01176585517780724
---
linear:
  x: 0.15
  y: 0.0
  z: 0.0
angular:
  x: 0.0
  y: 0.0
  z: 0.01176585517780724
---
linear:
  x: 0.1391925551636439
  y: 0.0
  z: 0.0
angular:
  x: 0.0
  y: 0.0
  z: 0.005680732152824175
---
linear:
  x: 0.1391925551636439
  y: 0.0
  z: 0.0
angular:
  x: 0.0
  y: 0.0
  z: 0.005680732152824175
---
linear:
  x: 0.13599164330857963
  y: 0.0
  z: 0.0
angular:
  x: 0.0
  y: 0.0
  z: 0.0035436630208927154
---
linear:
  x: 0.13599164330857963
  y: 0.0
  z: 0.0
angular:
  x: 0.0
  y: 0.0
  z: 0.0035436630208927154
---
linear:
  x: 0.1314581929987996
  y: 0.0
  z: 0.0
angular:
  x: 0.0
  y: 0.0
  z: -0.0029234166445673286
---
linear:
  x: 0.1314581929987996
  y: 0.0
  z: 0.0
angular:
  x: 0.0
  y: 0.0
  z: -0.0029234166445673286
---
linear:
  x: 0.1285497071640832
  y: 0.0
  z: 0.0
angular:
  x: 0.0
  y: 0.0
  z: -0.006913524184345934
---
linear:
  x: 0.1285497071640832
  y: 0.0
  z: 0.0
angular:
  x: 0.0
  y: 0.0
  z: -0.006913524184345934
---
linear:
  x: 0.12474836961051816
  y: 0.0
  z: 0.0
angular:
  x: 0.0
  y: 0.0
  z: -0.008408166121708303
---
linear:
  x: 0.12474836961051816
  y: 0.0
  z: 0.0
angular:
  x: 0.0
  y: 0.0
  z: -0.008408166121708303
---
linear:
  x: 0.12180409616969146
  y: 0.0
  z: 0.0
angular:
  x: 0.0
  y: 0.0
  z: -0.012395203384737902
---
linear:
  x: 0.12180409616969146
  y: 0.0
  z: 0.0
angular:
  x: 0.0
  y: 0.0
  z: -0.012395203384737902
---
linear:
  x: 0.11810272663530791
  y: 0.0
  z: 0.0
angular:
  x: 0.0
  y: 0.0
  z: -0.01487028934738151
---
linear:
  x: 0.11810272663530791
  y: 0.0
  z: 0.0
angular:
  x: 0.0
  y: 0.0
  z: -0.01487028934738151
---
linear:
  x: 0.11560660830029934
  y: 0.0
  z: 0.0
angular:
  x: 0.0
  y: 0.0
  z: -0.01789725195275428
---
linear:
  x: 0.11560660830029934
  y: 0.0
  z: 0.0
angular:
  x: 0.0
  y: 0.0
  z: -0.01789725195275428
---
linear:
  x: 0.11288045095355864
  y: 0.0
  z: 0.0
angular:
  x: 0.0
  y: 0.0
  z: -0.01855178019980732
---
linear:
  x: 0.11288045095355864
  y: 0.0
  z: 0.0
angular:
  x: 0.0
  y: 0.0
  z: -0.01855178019980732
---
linear:
  x: 0.10933585664922006
  y: 0.0
  z: 0.0
angular:
  x: 0.0
  y: 0.0
  z: -0.02077122352410962
---
linear:
  x: 0.10933585664922006
  y: 0.0
  z: 0.0
angular:
  x: 0.0
  y: 0.0
  z: -0.02077122352410962
---
linear:
  x: 0.0
  y: 0.0
  z: 0.0
angular:
  x: 0.0
  y: 0.0
  z: 0.25
---
linear:
  x: 0.0
  y: 0.0
  z: 0.0
angular:
  x: 0.0
  y: 0.0
  z: 0.25
---
linear:
  x: 0.0
  y: 0.0
  z: 0.0
angular:
  x: 0.0
  y: 0.0
  z: 0.25
---
linear:
  x: 0.0
  y: 0.0
  z: 0.0
angular:
  x: 0.0
  y: 0.0
  z: 0.25
---
linear:
  x: 0.0
  y: 0.0
  z: 0.0
angular:
  x: 0.0
  y: 0.0
  z: 0.25
---
linear:
  x: 0.0
  y: 0.0
  z: 0.0
angular:
  x: 0.0
  y: 0.0
  z: 0.25
---
linear:
  x: 0.1
  y: 0.0
  z: 0.0
angular:
  x: 0.0
  y: 0.0
  z: 0.0350455370732997
---
linear:
  x: 0.1
  y: 0.0
  z: 0.0
angular:
  x: 0.0
  y: 0.0
  z: 0.0350455370732997
---
linear:
  x: 0.07154837839556355
  y: 0.0
  z: 0.0
angular:
  x: 0.0
  y: 0.0
  z: 0.16666666666666666
---
linear:
  x: 0.07154837839556355
  y: 0.0
  z: 0.0
angular:
  x: 0.0
  y: 0.0
  z: 0.16666666666666666
---
linear:
  x: 0.07159084972154453
  y: 0.0
  z: 0.0
angular:
  x: 0.0
  y: 0.0
  z: 0.16666666666666666
---
linear:
  x: 0.07159084972154453
  y: 0.0
  z: 0.0
angular:
  x: 0.0
  y: 0.0
  z: 0.16666666666666666
---
linear:
  x: 0.071601443775552
  y: 0.0
  z: 0.0
angular:
  x: 0.0
  y: 0.0
  z: 0.16666666666666666
---
linear:
  x: 0.071601443775552
  y: 0.0
  z: 0.0
angular:
  x: 0.0
  y: 0.0
  z: 0.16666666666666666
---
linear:
  x: 0.07496159617894828
  y: 0.0
  z: 0.0
angular:
  x: 0.0
  y: 0.0
  z: 0.16666666666666666
---
linear:
  x: 0.07496159617894828
  y: 0.0
  z: 0.0
angular:
  x: 0.0
  y: 0.0
  z: 0.16666666666666666
---
linear:
  x: 0.05
  y: 0.0
  z: 0.0
angular:
  x: 0.0
  y: 0.0
  z: 0.1914989180551783
---
linear:
  x: 0.05
  y: 0.0
  z: 0.0
angular:
  x: 0.0
  y: 0.0
  z: 0.1914989180551783
---
linear:
  x: 0.05
  y: 0.0
  z: 0.0
angular:
  x: 0.0
  y: 0.0
  z: 0.18702347978159398
---
linear:
  x: 0.05
  y: 0.0
  z: 0.0
angular:
  x: 0.0
  y: 0.0
  z: 0.18702347978159398
---
linear:
  x: 0.05
  y: 0.0
  z: 0.0
angular:
  x: 0.0
  y: 0.0
  z: 0.17920021766080296
---
linear:
  x: 0.05
  y: 0.0
  z: 0.0
angular:
  x: 0.0
  y: 0.0
  z: 0.17920021766080296
---
linear:
  x: 0.05
  y: 0.0
  z: 0.0
angular:
  x: 0.0
  y: 0.0
  z: 0.17432194147644905
---
linear:
  x: 0.05
  y: 0.0
  z: 0.0
angular:
  x: 0.0
  y: 0.0
  z: 0.17432194147644905
---
linear:
  x: 0.05125628362516006
  y: 0.0
  z: 0.0
angular:
  x: 0.0
  y: 0.0
  z: 0.16666666666666666
---
linear:
  x: 0.05125628362516006
  y: 0.0
  z: 0.0
angular:
  x: 0.0
  y: 0.0
  z: 0.16666666666666666
---
linear:
  x: 0.1
  y: 0.0
  z: 0.0
angular:
  x: 0.0
  y: 0.0
  z: 0.09650646282809588
---
linear:
  x: 0.1
  y: 0.0
  z: 0.0
angular:
  x: 0.0
  y: 0.0
  z: 0.09650646282809588
---
linear:
  x: 0.1
  y: 0.0
  z: 0.0
angular:
  x: 0.0
  y: 0.0
  z: 0.12946999360013609
---
linear:
  x: 0.1
  y: 0.0
  z: 0.0
angular:
  x: 0.0
  y: 0.0
  z: 0.12946999360013609
---
linear:
  x: 0.1
  y: 0.0
  z: 0.0
angular:
  x: 0.0
  y: 0.0
  z: 0.13417616748471584
---
linear:
  x: 0.1
  y: 0.0
  z: 0.0
angular:
  x: 0.0
  y: 0.0
  z: 0.13417616748471584
---
linear:
  x: 0.1
  y: 0.0
  z: 0.0
angular:
  x: 0.0
  y: 0.0
  z: 0.13707550852687603
---
linear:
  x: 0.1
  y: 0.0
  z: 0.0
angular:
  x: 0.0
  y: 0.0
  z: 0.13707550852687603
---
linear:
  x: 0.1
  y: 0.0
  z: 0.0
angular:
  x: 0.0
  y: 0.0
  z: 0.1398363612856888
---
linear:
  x: 0.1
  y: 0.0
  z: 0.0
angular:
  x: 0.0
  y: 0.0
  z: 0.1398363612856888
---
linear:
  x: 0.1
  y: 0.0
  z: 0.0
angular:
  x: 0.0
  y: 0.0
  z: 0.13835452198820816
---
linear:
  x: 0.1
  y: 0.0
  z: 0.0
angular:
  x: 0.0
  y: 0.0
  z: 0.13835452198820816
---
linear:
  x: 0.1
  y: 0.0
  z: 0.0
angular:
  x: 0.0
  y: 0.0
  z: 0.14268167037391
---
linear:
  x: 0.1
  y: 0.0
  z: 0.0
angular:
  x: 0.0
  y: 0.0
  z: 0.14268167037391
---
linear:
  x: 0.1
  y: 0.0
  z: 0.0
angular:
  x: 0.0
  y: 0.0
  z: 0.14099571533982957
---
linear:
  x: 0.1
  y: 0.0
  z: 0.0
angular:
  x: 0.0
  y: 0.0
  z: 0.14099571533982957
---
linear:
  x: 0.1
  y: 0.0
  z: 0.0
angular:
  x: 0.0
  y: 0.0
  z: 0.14351870528117008
---
linear:
  x: 0.1
  y: 0.0
  z: 0.0
angular:
  x: 0.0
  y: 0.0
  z: 0.14351870528117008
---
linear:
  x: 0.1
  y: 0.0
  z: 0.0
angular:
  x: 0.0
  y: 0.0
  z: 0.09790604560040936
---
linear:
  x: 0.1
  y: 0.0
  z: 0.0
angular:
  x: 0.0
  y: 0.0
  z: 0.09790604560040936
---
linear:
  x: 0.1
  y: 0.0
  z: 0.0
angular:
  x: 0.0
  y: 0.0
  z: 0.07739399084319218
---
linear:
  x: 0.1
  y: 0.0
  z: 0.0
angular:
  x: 0.0
  y: 0.0
  z: 0.07545383449978217
---
linear:
  x: 0.1
  y: 0.0
  z: 0.0
angular:
  x: 0.0
  y: 0.0
  z: 0.0907799218910099
---
linear:
  x: 0.1
  y: 0.0
  z: 0.0
angular:
  x: 0.0
  y: 0.0
  z: 0.0907799218910099
---
linear:
  x: 0.1
  y: 0.0
  z: 0.0
angular:
  x: 0.0
  y: 0.0
  z: 0.11167526299817282
---
linear:
  x: 0.1
  y: 0.0
  z: 0.0
angular:
  x: 0.0
  y: 0.0
  z: 0.11167526299817282
---
linear:
  x: 0.1
  y: 0.0
  z: 0.0
angular:
  x: 0.0
  y: 0.0
  z: 0.14185751685443942
---
linear:
  x: 0.1
  y: 0.0
  z: 0.0
angular:
  x: 0.0
  y: 0.0
  z: 0.14185751685443942
---
linear:
  x: 0.1
  y: 0.0
  z: 0.0
angular:
  x: 0.0
  y: 0.0
  z: 0.16479619145813795
---
linear:
  x: 0.1
  y: 0.0
  z: 0.0
angular:
  x: 0.0
  y: 0.0
  z: 0.16479619145813795
---
linear:
  x: 0.1
  y: 0.0
  z: 0.0
angular:
  x: 0.0
  y: 0.0
  z: 0.1585176582787117
---
linear:
  x: 0.1
  y: 0.0
  z: 0.0
angular:
  x: 0.0
  y: 0.0
  z: 0.1585176582787117
---
linear:
  x: 0.1
  y: 0.0
  z: 0.0
angular:
  x: 0.0
  y: 0.0
  z: 0.12776170276069312
---
linear:
  x: 0.1
  y: 0.0
  z: 0.0
angular:
  x: 0.0
  y: 0.0
  z: 0.12776170276069312
---
linear:
  x: 0.1
  y: 0.0
  z: 0.0
angular:
  x: 0.0
  y: 0.0
  z: 0.14559441795916833
---
linear:
  x: 0.1
  y: 0.0
  z: 0.0
angular:
  x: 0.0
  y: 0.0
  z: 0.14559441795916833
---
linear:
  x: 0.1
  y: 0.0
  z: 0.0
angular:
  x: 0.0
  y: 0.0
  z: 0.1579215917404163
---
linear:
  x: 0.1
  y: 0.0
  z: 0.0
angular:
  x: 0.0
  y: 0.0
  z: 0.1579215917404163
---
linear:
  x: 0.1
  y: 0.0
  z: 0.0
angular:
  x: 0.0
  y: 0.0
  z: 0.16661939581360904
---
linear:
  x: 0.1
  y: 0.0
  z: 0.0
angular:
  x: 0.0
  y: 0.0
  z: 0.16661939581360904
---
linear:
  x: 0.1
  y: 0.0
  z: 0.0
angular:
  x: 0.0
  y: 0.0
  z: 0.16001524908677592
---
linear:
  x: 0.1
  y: 0.0
  z: 0.0
angular:
  x: 0.0
  y: 0.0
  z: 0.16001524908677592
---
linear:
  x: 0.1
  y: 0.0
  z: 0.0
angular:
  x: 0.0
  y: 0.0
  z: 0.10892191107456434
---
linear:
  x: 0.1
  y: 0.0
  z: 0.0
angular:
  x: 0.0
  y: 0.0
  z: 0.10892191107456434
---
linear:
  x: 0.1
  y: 0.0
  z: 0.0
angular:
  x: 0.0
  y: 0.0
  z: 0.10706522540037092
---
linear:
  x: 0.1
  y: 0.0
  z: 0.0
angular:
  x: 0.0
  y: 0.0
  z: 0.10706522540037092
---
linear:
  x: 0.1
  y: 0.0
  z: 0.0
angular:
  x: 0.0
  y: 0.0
  z: 0.09809890290810128
---
linear:
  x: 0.1
  y: 0.0
  z: 0.0
angular:
  x: 0.0
  y: 0.0
  z: 0.09809890290810128
---
linear:
  x: 0.1
  y: 0.0
  z: 0.0
angular:
  x: 0.0
  y: 0.0
  z: 0.09488787084402456
---
linear:
  x: 0.1
  y: 0.0
  z: 0.0
angular:
  x: 0.0
  y: 0.0
  z: 0.09488787084402456
---
linear:
  x: 0.1
  y: 0.0
  z: 0.0
angular:
  x: 0.0
  y: 0.0
  z: 0.08471499590183226
---
linear:
  x: 0.1
  y: 0.0
  z: 0.0
angular:
  x: 0.0
  y: 0.0
  z: 0.08471499590183226
---
linear:
  x: 0.1
  y: 0.0
  z: 0.0
angular:
  x: 0.0
  y: 0.0
  z: 0.0403877377869007
---
linear:
  x: 0.1
  y: 0.0
  z: 0.0
angular:
  x: 0.0
  y: 0.0
  z: 0.0403877377869007
---
linear:
  x: 0.08788317392799506
  y: 0.0
  z: 0.0
angular:
  x: 0.0
  y: 0.0
  z: -0.16666666666666666
---
linear:
  x: 0.08788317392799506
  y: 0.0
  z: 0.0
angular:
  x: 0.0
  y: 0.0
  z: -0.16666666666666666
---
linear:
  x: 0.0
  y: 0.0
  z: 0.0
angular:
  x: 0.0
  y: 0.0
  z: 0.0
---
linear:
  x: 0.0
  y: 0.0
  z: 0.0
angular:
  x: 0.0
  y: 0.0
  z: 0.0
---
linear:
  x: 0.0
  y: 0.0
  z: 0.0
angular:
  x: 0.0
  y: 0.0
  z: -0.25
---
linear:
  x: 0.0
  y: 0.0
  z: 0.0
angular:
  x: 0.0
  y: 0.0
  z: -0.25
---
linear:
  x: 0.0
  y: 0.0
  z: 0.0
angular:
  x: 0.0
  y: 0.0
  z: -0.25
---
linear:
  x: 0.0
  y: 0.0
  z: 0.0
angular:
  x: 0.0
  y: 0.0
  z: -0.25
---
linear:
  x: 0.0
  y: 0.0
  z: 0.0
angular:
  x: 0.0
  y: 0.0
  z: -0.25
---
linear:
  x: 0.0
  y: 0.0
  z: 0.0
angular:
  x: 0.0
  y: 0.0
  z: -0.25
---
linear:
  x: 0.0
  y: 0.0
  z: 0.0
angular:
  x: 0.0
  y: 0.0
  z: -0.25
---
linear:
  x: 0.0
  y: 0.0
  z: 0.0
angular:
  x: 0.0
  y: 0.0
  z: -0.25
---
linear:
  x: 0.0
  y: 0.0
  z: 0.0
angular:
  x: 0.0
  y: 0.0
  z: -0.25
---
linear:
  x: 0.0
  y: 0.0
  z: 0.0
angular:
  x: 0.0
  y: 0.0
  z: -0.25
---
linear:
  x: 0.0
  y: 0.0
  z: 0.0
angular:
  x: 0.0
  y: 0.0
  z: -0.25
---
linear:
  x: 0.0
  y: 0.0
  z: 0.0
angular:
  x: 0.0
  y: 0.0
  z: -0.25
---
linear:
  x: 0.0
  y: 0.0
  z: 0.0
angular:
  x: 0.0
  y: 0.0
  z: -0.25
---
linear:
  x: 0.0
  y: 0.0
  z: 0.0
angular:
  x: 0.0
  y: 0.0
  z: -0.25
---
linear:
  x: 0.0
  y: 0.0
  z: 0.0
angular:
  x: 0.0
  y: 0.0
  z: -0.25
---
linear:
  x: 0.0
  y: 0.0
  z: 0.0
angular:
  x: 0.0
  y: 0.0
  z: -0.25
---
linear:
  x: 0.0
  y: 0.0
  z: 0.0
angular:
  x: 0.0
  y: 0.0
  z: -0.25
---
linear:
  x: 0.0
  y: 0.0
  z: 0.0
angular:
  x: 0.0
  y: 0.0
  z: -0.25
---
linear:
  x: 0.05
  y: 0.0
  z: 0.0
angular:
  x: 0.0
  y: 0.0
  z: -0.3679900219840541
---
linear:
  x: 0.05
  y: 0.0
  z: 0.0
angular:
  x: 0.0
  y: 0.0
  z: -0.3679900219840541
---
linear:
  x: 0.05
  y: 0.0
  z: 0.0
angular:
  x: 0.0
  y: 0.0
  z: -0.3662568755114962
---
linear:
  x: 0.05
  y: 0.0
  z: 0.0
angular:
  x: 0.0
  y: 0.0
  z: -0.3662568755114962
---
linear:
  x: 0.05
  y: 0.0
  z: 0.0
angular:
  x: 0.0
  y: 0.0
  z: -0.36430801628038323
---
linear:
  x: 0.05
  y: 0.0
  z: 0.0
angular:
  x: 0.0
  y: 0.0
  z: -0.36430801628038323
---
linear:
  x: 0.05
  y: 0.0
  z: 0.0
angular:
  x: 0.0
  y: 0.0
  z: -0.35569179791896205
---
linear:
  x: 0.05
  y: 0.0
  z: 0.0
angular:
  x: 0.0
  y: 0.0
  z: -0.35569179791896205
---
linear:
  x: 0.05
  y: 0.0
  z: 0.0
angular:
  x: 0.0
  y: 0.0
  z: -0.33760078720712094
---
linear:
  x: 0.05
  y: 0.0
  z: 0.0
angular:
  x: 0.0
  y: 0.0
  z: -0.33760078720712094
---
linear:
  x: 0.05
  y: 0.0
  z: 0.0
angular:
  x: 0.0
  y: 0.0
  z: -0.2996280861976211
---
linear:
  x: 0.05
  y: 0.0
  z: 0.0
angular:
  x: 0.0
  y: 0.0
  z: -0.2996280861976211
---
linear:
  x: 0.05
  y: 0.0
  z: 0.0
angular:
  x: 0.0
  y: 0.0
  z: -0.26746868703664467
---
linear:
  x: 0.05
  y: 0.0
  z: 0.0
angular:
  x: 0.0
  y: 0.0
  z: -0.26746868703664467
---
linear:
  x: 0.05
  y: 0.0
  z: 0.0
angular:
  x: 0.0
  y: 0.0
  z: -0.22085813413463878
---
linear:
  x: 0.05
  y: 0.0
  z: 0.0
angular:
  x: 0.0
  y: 0.0
  z: -0.22085813413463878
---
linear:
  x: 0.0
  y: 0.0
  z: 0.0
angular:
  x: 0.0
  y: 0.0
  z: 0.0
---
linear:
  x: 0.0
  y: 0.0
  z: 0.0
angular:
  x: 0.0
  y: 0.0
  z: 0.0
---
linear:
  x: 0.0
  y: 0.0
  z: 0.0
angular:
  x: 0.0
  y: 0.0
  z: 0.0
---
linear:
  x: 0.0
  y: 0.0
  z: 0.0
angular:
  x: 0.0
  y: 0.0
  z: 0.0
---
linear:
  x: 0.09514521857024226
  y: 0.0
  z: 0.0
angular:
  x: 0.0
  y: 0.0
  z: -0.16666666666666666
---
linear:
  x: 0.09514521857024226
  y: 0.0
  z: 0.0
angular:
  x: 0.0
  y: 0.0
  z: -0.16666666666666666
---
linear:
  x: 0.0984171613814795
  y: 0.0
  z: 0.0
angular:
  x: 0.0
  y: 0.0
  z: -0.1666666666666666
---
linear:
  x: 0.0984171613814795
  y: 0.0
  z: 0.0
angular:
  x: 0.0
  y: 0.0
  z: -0.1666666666666666
---
linear:
  x: 0.0
  y: 0.0
  z: 0.0
angular:
  x: 0.0
  y: 0.0
  z: -0.25
---
linear:
  x: 0.0
  y: 0.0
  z: 0.0
angular:
  x: 0.0
  y: 0.0
  z: -0.25
---
linear:
  x: 0.0
  y: 0.0
  z: 0.0
angular:
  x: 0.0
  y: 0.0
  z: -0.25
---
linear:
  x: 0.0
  y: 0.0
  z: 0.0
angular:
  x: 0.0
  y: 0.0
  z: -0.25
---
linear:
  x: 0.0
  y: 0.0
  z: 0.0
angular:
  x: 0.0
  y: 0.0
  z: 0.0
---
linear:
  x: 0.0
  y: 0.0
  z: 0.0
angular:
  x: 0.0
  y: 0.0
  z: 0.0
---
linear:
  x: 0.0
  y: 0.0
  z: 0.0
angular:
  x: 0.0
  y: 0.0
  z: -0.25
---
linear:
  x: 0.0
  y: 0.0
  z: 0.0
angular:
  x: 0.0
  y: 0.0
  z: -0.25
---
linear:
  x: 0.0
  y: 0.0
  z: 0.0
angular:
  x: 0.0
  y: 0.0
  z: -0.25
---
linear:
  x: 0.0
  y: 0.0
  z: 0.0
angular:
  x: 0.0
  y: 0.0
  z: -0.25
---
linear:
  x: 0.0
  y: 0.0
  z: 0.0
angular:
  x: 0.0
  y: 0.0
  z: -0.25
---
linear:
  x: 0.0
  y: 0.0
  z: 0.0
angular:
  x: 0.0
  y: 0.0
  z: -0.25
---
linear:
  x: 0.0
  y: 0.0
  z: 0.0
angular:
  x: 0.0
  y: 0.0
  z: -0.25
---
linear:
  x: 0.0
  y: 0.0
  z: 0.0
angular:
  x: 0.0
  y: 0.0
  z: -0.25
---
linear:
  x: 0.0
  y: 0.0
  z: 0.0
angular:
  x: 0.0
  y: 0.0
  z: -0.25
---
linear:
  x: 0.0
  y: 0.0
  z: 0.0
angular:
  x: 0.0
  y: 0.0
  z: -0.25
---
linear:
  x: 0.0
  y: 0.0
  z: 0.0
angular:
  x: 0.0
  y: 0.0
  z: -0.25
---
linear:
  x: 0.0
  y: 0.0
  z: 0.0
angular:
  x: 0.0
  y: 0.0
  z: -0.25
---
linear:
  x: 0.0
  y: 0.0
  z: 0.0
angular:
  x: 0.0
  y: 0.0
  z: -0.25
---
linear:
  x: 0.0
  y: 0.0
  z: 0.0
angular:
  x: 0.0
  y: 0.0
  z: -0.25
---
linear:
  x: 0.0
  y: 0.0
  z: 0.0
angular:
  x: 0.0
  y: 0.0
  z: -0.25
---
linear:
  x: 0.0
  y: 0.0
  z: 0.0
angular:
  x: 0.0
  y: 0.0
  z: -0.25
---
linear:
  x: 0.0
  y: 0.0
  z: 0.0
angular:
  x: 0.0
  y: 0.0
  z: -0.25
---
linear:
  x: 0.0
  y: 0.0
  z: 0.0
angular:
  x: 0.0
  y: 0.0
  z: -0.25
---
linear:
  x: 0.0
  y: 0.0
  z: 0.0
angular:
  x: 0.0
  y: 0.0
  z: -0.25
---
linear:
  x: 0.0
  y: 0.0
  z: 0.0
angular:
  x: 0.0
  y: 0.0
  z: -0.25
---
linear:
  x: 0.0
  y: 0.0
  z: 0.0
angular:
  x: 0.0
  y: 0.0
  z: -0.25
---
linear:
  x: 0.0
  y: 0.0
  z: 0.0
angular:
  x: 0.0
  y: 0.0
  z: -0.25
---
linear:
  x: 0.0
  y: 0.0
  z: 0.0
angular:
  x: 0.0
  y: 0.0
  z: -0.25
---
linear:
  x: 0.0
  y: 0.0
  z: 0.0
angular:
  x: 0.0
  y: 0.0
  z: -0.25
---
linear:
  x: 0.0
  y: 0.0
  z: 0.0
angular:
  x: 0.0
  y: 0.0
  z: -0.25
---
linear:
  x: 0.0
  y: 0.0
  z: 0.0
angular:
  x: 0.0
  y: 0.0
  z: -0.25
---
linear:
  x: 0.0
  y: 0.0
  z: 0.0
angular:
  x: 0.0
  y: 0.0
  z: -0.25
---
linear:
  x: 0.0
  y: 0.0
  z: 0.0
angular:
  x: 0.0
  y: 0.0
  z: -0.25
---
linear:
  x: 0.0
  y: 0.0
  z: 0.0
angular:
  x: 0.0
  y: 0.0
  z: -0.25
---
linear:
  x: 0.0
  y: 0.0
  z: 0.0
angular:
  x: 0.0
  y: 0.0
  z: -0.25
---
linear:
  x: 0.0
  y: 0.0
  z: 0.0
angular:
  x: 0.0
  y: 0.0
  z: -0.25
---
linear:
  x: 0.0
  y: 0.0
  z: 0.0
angular:
  x: 0.0
  y: 0.0
  z: -0.25
---
linear:
  x: 0.0
  y: 0.0
  z: 0.0
angular:
  x: 0.0
  y: 0.0
  z: -0.25
---
linear:
  x: 0.0
  y: 0.0
  z: 0.0
angular:
  x: 0.0
  y: 0.0
  z: -0.25
---
linear:
  x: 0.0
  y: 0.0
  z: 0.0
angular:
  x: 0.0
  y: 0.0
  z: -0.25
---
linear:
  x: 0.0
  y: 0.0
  z: 0.0
angular:
  x: 0.0
  y: 0.0
  z: -0.25
---
linear:
  x: 0.0
  y: 0.0
  z: 0.0
angular:
  x: 0.0
  y: 0.0
  z: -0.25
---
linear:
  x: 0.0
  y: 0.0
  z: 0.0
angular:
  x: 0.0
  y: 0.0
  z: -0.25
---
linear:
  x: 0.0
  y: 0.0
  z: 0.0
angular:
  x: 0.0
  y: 0.0
  z: -0.25
---
linear:
  x: 0.0
  y: 0.0
  z: 0.0
angular:
  x: 0.0
  y: 0.0
  z: -0.25
---
linear:
  x: 0.0
  y: 0.0
  z: 0.0
angular:
  x: 0.0
  y: 0.0
  z: -0.25
---
linear:
  x: 0.0
  y: 0.0
  z: 0.0
angular:
  x: 0.0
  y: 0.0
  z: -0.25
---
linear:
  x: 0.0
  y: 0.0
  z: 0.0
angular:
  x: 0.0
  y: 0.0
  z: -0.25
---
linear:
  x: 0.0
  y: 0.0
  z: 0.0
angular:
  x: 0.0
  y: 0.0
  z: -0.25
---
linear:
  x: 0.0
  y: 0.0
  z: 0.0
angular:
  x: 0.0
  y: 0.0
  z: -0.25
---
linear:
  x: 0.0
  y: 0.0
  z: 0.0
angular:
  x: 0.0
  y: 0.0
  z: -0.25
---
linear:
  x: 0.0
  y: 0.0
  z: 0.0
angular:
  x: 0.0
  y: 0.0
  z: -0.25
---
linear:
  x: 0.0
  y: 0.0
  z: 0.0
angular:
  x: 0.0
  y: 0.0
  z: -0.25
---
linear:
  x: 0.0
  y: 0.0
  z: 0.0
angular:
  x: 0.0
  y: 0.0
  z: -0.25
---
linear:
  x: 0.0
  y: 0.0
  z: 0.0
angular:
  x: 0.0
  y: 0.0
  z: -0.25
---
linear:
  x: 0.0
  y: 0.0
  z: 0.0
angular:
  x: 0.0
  y: 0.0
  z: -0.25
---
linear:
  x: 0.0
  y: 0.0
  z: 0.0
angular:
  x: 0.0
  y: 0.0
  z: -0.25
---
linear:
  x: 0.0
  y: 0.0
  z: 0.0
angular:
  x: 0.0
  y: 0.0
  z: -0.25
---
linear:
  x: 0.0
  y: 0.0
  z: 0.0
angular:
  x: 0.0
  y: 0.0
  z: -0.25
---
linear:
  x: 0.0
  y: 0.0
  z: 0.0
angular:
  x: 0.0
  y: 0.0
  z: -0.25
---
linear:
  x: 0.0
  y: 0.0
  z: 0.0
angular:
  x: 0.0
  y: 0.0
  z: -0.25
---
linear:
  x: 0.0
  y: 0.0
  z: 0.0
angular:
  x: 0.0
  y: 0.0
  z: -0.25
---
linear:
  x: 0.0
  y: 0.0
  z: 0.0
angular:
  x: 0.0
  y: 0.0
  z: -0.25
---
linear:
  x: 0.0
  y: 0.0
  z: 0.0
angular:
  x: 0.0
  y: 0.0
  z: -0.25
---
linear:
  x: 0.0
  y: 0.0
  z: 0.0
angular:
  x: 0.0
  y: 0.0
  z: -0.25
---
linear:
  x: 0.0
  y: 0.0
  z: 0.0
angular:
  x: 0.0
  y: 0.0
  z: -0.25
---
linear:
  x: 0.0
  y: 0.0
  z: 0.0
angular:
  x: 0.0
  y: 0.0
  z: -0.25
---
linear:
  x: 0.0
  y: 0.0
  z: 0.0
angular:
  x: 0.0
  y: 0.0
  z: -0.25
---
linear:
  x: 0.0
  y: 0.0
  z: 0.0
angular:
  x: 0.0
  y: 0.0
  z: -0.25
---
linear:
  x: 0.0
  y: 0.0
  z: 0.0
angular:
  x: 0.0
  y: 0.0
  z: -0.25
---
linear:
  x: 0.0
  y: 0.0
  z: 0.0
angular:
  x: 0.0
  y: 0.0
  z: -0.25
---
linear:
  x: 0.0
  y: 0.0
  z: 0.0
angular:
  x: 0.0
  y: 0.0
  z: -0.25
---
linear:
  x: 0.0
  y: 0.0
  z: 0.0
angular:
  x: 0.0
  y: 0.0
  z: -0.25
---
linear:
  x: 0.0
  y: 0.0
  z: 0.0
angular:
  x: 0.0
  y: 0.0
  z: -0.25
---
linear:
  x: 0.0
  y: 0.0
  z: 0.0
angular:
  x: 0.0
  y: 0.0
  z: -0.25
---
linear:
  x: 0.0
  y: 0.0
  z: 0.0
angular:
  x: 0.0
  y: 0.0
  z: -0.25
---
linear:
  x: 0.0
  y: 0.0
  z: 0.0
angular:
  x: 0.0
  y: 0.0
  z: -0.25
---
linear:
  x: 0.0
  y: 0.0
  z: 0.0
angular:
  x: 0.0
  y: 0.0
  z: -0.25
---
linear:
  x: 0.0
  y: 0.0
  z: 0.0
angular:
  x: 0.0
  y: 0.0
  z: -0.25
---
linear:
  x: 0.0
  y: 0.0
  z: 0.0
angular:
  x: 0.0
  y: 0.0
  z: -0.25
---
linear:
  x: 0.0
  y: 0.0
  z: 0.0
angular:
  x: 0.0
  y: 0.0
  z: -0.25
---
linear:
  x: 0.0
  y: 0.0
  z: 0.0
angular:
  x: 0.0
  y: 0.0
  z: -0.25
---
linear:
  x: 0.0
  y: 0.0
  z: 0.0
angular:
  x: 0.0
  y: 0.0
  z: -0.25
---
linear:
  x: 0.0
  y: 0.0
  z: 0.0
angular:
  x: 0.0
  y: 0.0
  z: -0.25
---
linear:
  x: 0.0
  y: 0.0
  z: 0.0
angular:
  x: 0.0
  y: 0.0
  z: -0.25
---
linear:
  x: 0.0
  y: 0.0
  z: 0.0
angular:
  x: 0.0
  y: 0.0
  z: -0.25
---
linear:
  x: 0.0
  y: 0.0
  z: 0.0
angular:
  x: 0.0
  y: 0.0
  z: -0.25
---
linear:
  x: 0.0
  y: 0.0
  z: 0.0
angular:
  x: 0.0
  y: 0.0
  z: -0.25
---
linear:
  x: 0.0
  y: 0.0
  z: 0.0
angular:
  x: 0.0
  y: 0.0
  z: -0.25
---
linear:
  x: 0.0
  y: 0.0
  z: 0.0
angular:
  x: 0.0
  y: 0.0
  z: -0.25
---
linear:
  x: 0.0
  y: 0.0
  z: 0.0
angular:
  x: 0.0
  y: 0.0
  z: -0.25
---
linear:
  x: 0.0
  y: 0.0
  z: 0.0
angular:
  x: 0.0
  y: 0.0
  z: -0.25
---
linear:
  x: 0.0
  y: 0.0
  z: 0.0
angular:
  x: 0.0
  y: 0.0
  z: -0.25
---
linear:
  x: 0.0
  y: 0.0
  z: 0.0
angular:
  x: 0.0
  y: 0.0
  z: -0.25
---
linear:
  x: 0.0
  y: 0.0
  z: 0.0
angular:
  x: 0.0
  y: 0.0
  z: -0.25
---
linear:
  x: 0.0
  y: 0.0
  z: 0.0
angular:
  x: 0.0
  y: 0.0
  z: -0.25
---
linear:
  x: 0.0
  y: 0.0
  z: 0.0
angular:
  x: 0.0
  y: 0.0
  z: -0.25
---
linear:
  x: 0.0
  y: 0.0
  z: 0.0
angular:
  x: 0.0
  y: 0.0
  z: -0.25
---
linear:
  x: 0.0
  y: 0.0
  z: 0.0
angular:
  x: 0.0
  y: 0.0
  z: -0.25
---
linear:
  x: 0.0
  y: 0.0
  z: 0.0
angular:
  x: 0.0
  y: 0.0
  z: -0.25
---
linear:
  x: 0.0
  y: 0.0
  z: 0.0
angular:
  x: 0.0
  y: 0.0
  z: -0.25
---
linear:
  x: 0.0
  y: 0.0
  z: 0.0
angular:
  x: 0.0
  y: 0.0
  z: -0.25
---
linear:
  x: 0.0
  y: 0.0
  z: 0.0
angular:
  x: 0.0
  y: 0.0
  z: -0.25
---
linear:
  x: 0.0
  y: 0.0
  z: 0.0
angular:
  x: 0.0
  y: 0.0
  z: -0.25
---
linear:
  x: 0.0
  y: 0.0
  z: 0.0
angular:
  x: 0.0
  y: 0.0
  z: -0.25
---
linear:
  x: 0.0
  y: 0.0
  z: 0.0
angular:
  x: 0.0
  y: 0.0
  z: -0.25
---
linear:
  x: 0.0
  y: 0.0
  z: 0.0
angular:
  x: 0.0
  y: 0.0
  z: -0.25
---
linear:
  x: 0.0
  y: 0.0
  z: 0.0
angular:
  x: 0.0
  y: 0.0
  z: -0.25
---
linear:
  x: 0.0
  y: 0.0
  z: 0.0
angular:
  x: 0.0
  y: 0.0
  z: -0.25
---
linear:
  x: 0.0
  y: 0.0
  z: 0.0
angular:
  x: 0.0
  y: 0.0
  z: -0.25
---
linear:
  x: 0.0
  y: 0.0
  z: 0.0
angular:
  x: 0.0
  y: 0.0
  z: -0.25
---
linear:
  x: 0.0
  y: 0.0
  z: 0.0
angular:
  x: 0.0
  y: 0.0
  z: -0.25
---
linear:
  x: 0.0
  y: 0.0
  z: 0.0
angular:
  x: 0.0
  y: 0.0
  z: -0.25
---
linear:
  x: 0.0
  y: 0.0
  z: 0.0
angular:
  x: 0.0
  y: 0.0
  z: -0.25
---
linear:
  x: 0.0
  y: 0.0
  z: 0.0
angular:
  x: 0.0
  y: 0.0
  z: -0.25
---
linear:
  x: 0.0
  y: 0.0
  z: 0.0
angular:
  x: 0.0
  y: 0.0
  z: -0.25
---
linear:
  x: 0.0
  y: 0.0
  z: 0.0
angular:
  x: 0.0
  y: 0.0
  z: -0.25
---
linear:
  x: 0.0
  y: 0.0
  z: 0.0
angular:
  x: 0.0
  y: 0.0
  z: -0.25
---
linear:
  x: 0.0
  y: 0.0
  z: 0.0
angular:
  x: 0.0
  y: 0.0
  z: -0.25
---
linear:
  x: 0.0
  y: 0.0
  z: 0.0
angular:
  x: 0.0
  y: 0.0
  z: -0.25
---
linear:
  x: 0.0
  y: 0.0
  z: 0.0
angular:
  x: 0.0
  y: 0.0
  z: -0.25
---
linear:
  x: 0.0
  y: 0.0
  z: 0.0
angular:
  x: 0.0
  y: 0.0
  z: -0.25
---
linear:
  x: 0.0
  y: 0.0
  z: 0.0
angular:
  x: 0.0
  y: 0.0
  z: -0.25
---
linear:
  x: 0.0
  y: 0.0
  z: 0.0
angular:
  x: 0.0
  y: 0.0
  z: -0.25
---
linear:
  x: 0.0
  y: 0.0
  z: 0.0
angular:
  x: 0.0
  y: 0.0
  z: -0.25
---
linear:
  x: 0.0
  y: 0.0
  z: 0.0
angular:
  x: 0.0
  y: 0.0
  z: -0.25
---
linear:
  x: 0.0
  y: 0.0
  z: 0.0
angular:
  x: 0.0
  y: 0.0
  z: -0.25
---
linear:
  x: 0.0
  y: 0.0
  z: 0.0
angular:
  x: 0.0
  y: 0.0
  z: -0.25
---
linear:
  x: 0.0
  y: 0.0
  z: 0.0
angular:
  x: 0.0
  y: 0.0
  z: -0.25
---
linear:
  x: 0.0
  y: 0.0
  z: 0.0
angular:
  x: 0.0
  y: 0.0
  z: -0.25
---
linear:
  x: 0.0
  y: 0.0
  z: 0.0
angular:
  x: 0.0
  y: 0.0
  z: -0.25
---
linear:
  x: 0.0
  y: 0.0
  z: 0.0
angular:
  x: 0.0
  y: 0.0
  z: -0.25
---
linear:
  x: 0.0
  y: 0.0
  z: 0.0
angular:
  x: 0.0
  y: 0.0
  z: -0.25
---
linear:
  x: 0.0
  y: 0.0
  z: 0.0
angular:
  x: 0.0
  y: 0.0
  z: -0.25
---
linear:
  x: 0.0
  y: 0.0
  z: 0.0
angular:
  x: 0.0
  y: 0.0
  z: -0.25
---
linear:
  x: 0.0
  y: 0.0
  z: 0.0
angular:
  x: 0.0
  y: 0.0
  z: -0.25
---
linear:
  x: 0.0
  y: 0.0
  z: 0.0
angular:
  x: 0.0
  y: 0.0
  z: -0.25
---
linear:
  x: 0.0
  y: 0.0
  z: 0.0
angular:
  x: 0.0
  y: 0.0
  z: -0.25
---
linear:
  x: 0.0
  y: 0.0
  z: 0.0
angular:
  x: 0.0
  y: 0.0
  z: -0.25
---
linear:
  x: 0.0
  y: 0.0
  z: 0.0
angular:
  x: 0.0
  y: 0.0
  z: -0.25
---
linear:
  x: 0.0
  y: 0.0
  z: 0.0
angular:
  x: 0.0
  y: 0.0
  z: -0.25
---
linear:
  x: 0.0
  y: 0.0
  z: 0.0
angular:
  x: 0.0
  y: 0.0
  z: -0.25
---
linear:
  x: 0.0
  y: 0.0
  z: 0.0
angular:
  x: 0.0
  y: 0.0
  z: -0.25
---
linear:
  x: 0.0
  y: 0.0
  z: 0.0
angular:
  x: 0.0
  y: 0.0
  z: -0.25
---
linear:
  x: 0.0
  y: 0.0
  z: 0.0
angular:
  x: 0.0
  y: 0.0
  z: -0.25
---
linear:
  x: 0.0
  y: 0.0
  z: 0.0
angular:
  x: 0.0
  y: 0.0
  z: -0.25
---
linear:
  x: 0.0
  y: 0.0
  z: 0.0
angular:
  x: 0.0
  y: 0.0
  z: 0.25
---
linear:
  x: 0.0
  y: 0.0
  z: 0.0
angular:
  x: 0.0
  y: 0.0
  z: 0.25
---
linear:
  x: 0.0
  y: 0.0
  z: 0.0
angular:
  x: 0.0
  y: 0.0
  z: 0.25
---
linear:
  x: 0.0
  y: 0.0
  z: 0.0
angular:
  x: 0.0
  y: 0.0
  z: 0.25
---
linear:
  x: 0.0
  y: 0.0
  z: 0.0
angular:
  x: 0.0
  y: 0.0
  z: -0.25
---
linear:
  x: 0.0
  y: 0.0
  z: 0.0
angular:
  x: 0.0
  y: 0.0
  z: -0.25
---
linear:
  x: 0.0
  y: 0.0
  z: 0.0
angular:
  x: 0.0
  y: 0.0
  z: -0.25
---
linear:
  x: 0.0
  y: 0.0
  z: 0.0
angular:
  x: 0.0
  y: 0.0
  z: -0.25
---
linear:
  x: 0.0
  y: 0.0
  z: 0.0
angular:
  x: 0.0
  y: 0.0
  z: -0.25
---
linear:
  x: 0.0
  y: 0.0
  z: 0.0
angular:
  x: 0.0
  y: 0.0
  z: -0.25
---
linear:
  x: 0.0
  y: 0.0
  z: 0.0
angular:
  x: 0.0
  y: 0.0
  z: -0.25
---
linear:
  x: 0.0
  y: 0.0
  z: 0.0
angular:
  x: 0.0
  y: 0.0
  z: -0.25
---
linear:
  x: 0.0
  y: 0.0
  z: 0.0
angular:
  x: 0.0
  y: 0.0
  z: -0.25
---
linear:
  x: 0.0
  y: 0.0
  z: 0.0
angular:
  x: 0.0
  y: 0.0
  z: -0.25
---
linear:
  x: 0.0
  y: 0.0
  z: 0.0
angular:
  x: 0.0
  y: 0.0
  z: -0.25
---
linear:
  x: 0.0
  y: 0.0
  z: 0.0
angular:
  x: 0.0
  y: 0.0
  z: -0.25
---
linear:
  x: 0.0
  y: 0.0
  z: 0.0
angular:
  x: 0.0
  y: 0.0
  z: -0.25
---
linear:
  x: 0.0
  y: 0.0
  z: 0.0
angular:
  x: 0.0
  y: 0.0
  z: -0.25
---
linear:
  x: 0.0
  y: 0.0
  z: 0.0
angular:
  x: 0.0
  y: 0.0
  z: -0.25
---
linear:
  x: 0.0
  y: 0.0
  z: 0.0
angular:
  x: 0.0
  y: 0.0
  z: -0.25
---
linear:
  x: 0.0
  y: 0.0
  z: 0.0
angular:
  x: 0.0
  y: 0.0
  z: -0.25
---
linear:
  x: 0.0
  y: 0.0
  z: 0.0
angular:
  x: 0.0
  y: 0.0
  z: -0.25
---
linear:
  x: 0.0
  y: 0.0
  z: 0.0
angular:
  x: 0.0
  y: 0.0
  z: -0.25
---
linear:
  x: 0.0
  y: 0.0
  z: 0.0
angular:
  x: 0.0
  y: 0.0
  z: -0.25
---
linear:
  x: 0.0
  y: 0.0
  z: 0.0
angular:
  x: 0.0
  y: 0.0
  z: -0.25
---
linear:
  x: 0.0
  y: 0.0
  z: 0.0
angular:
  x: 0.0
  y: 0.0
  z: -0.25
---
linear:
  x: 0.0
  y: 0.0
  z: 0.0
angular:
  x: 0.0
  y: 0.0
  z: -0.25
---
linear:
  x: 0.0
  y: 0.0
  z: 0.0
angular:
  x: 0.0
  y: 0.0
  z: -0.25
---
linear:
  x: 0.0
  y: 0.0
  z: 0.0
angular:
  x: 0.0
  y: 0.0
  z: -0.25
---
linear:
  x: 0.0
  y: 0.0
  z: 0.0
angular:
  x: 0.0
  y: 0.0
  z: -0.25
---
linear:
  x: 0.0
  y: 0.0
  z: 0.0
angular:
  x: 0.0
  y: 0.0
  z: -0.25
---
linear:
  x: 0.0
  y: 0.0
  z: 0.0
angular:
  x: 0.0
  y: 0.0
  z: -0.25
---
linear:
  x: 0.0
  y: 0.0
  z: 0.0
angular:
  x: 0.0
  y: 0.0
  z: -0.25
---
linear:
  x: 0.0
  y: 0.0
  z: 0.0
angular:
  x: 0.0
  y: 0.0
  z: -0.25
---
linear:
  x: 0.0
  y: 0.0
  z: 0.0
angular:
  x: 0.0
  y: 0.0
  z: -0.25
---
linear:
  x: 0.0
  y: 0.0
  z: 0.0
angular:
  x: 0.0
  y: 0.0
  z: -0.25
---
linear:
  x: 0.0
  y: 0.0
  z: 0.0
angular:
  x: 0.0
  y: 0.0
  z: -0.25
---
linear:
  x: 0.0
  y: 0.0
  z: 0.0
angular:
  x: 0.0
  y: 0.0
  z: 0.0
---
linear:
  x: 0.1
  y: 0.0
  z: 0.0
angular:
  x: 0.0
  y: 0.0
  z: 0.09265357714709072
---
linear:
  x: 0.1
  y: 0.0
  z: 0.0
angular:
  x: 0.0
  y: 0.0
  z: 0.1255534395061026
---
linear:
  x: 0.1
  y: 0.0
  z: 0.0
angular:
  x: 0.0
  y: 0.0
  z: 0.1255534395061026
---
linear:
  x: 0.1
  y: 0.0
  z: 0.0
angular:
  x: 0.0
  y: 0.0
  z: 0.16206500344995886
---
linear:
  x: 0.1
  y: 0.0
  z: 0.0
angular:
  x: 0.0
  y: 0.0
  z: 0.16206500344995886
---
linear:
  x: 0.08759889757148033
  y: 0.0
  z: 0.0
angular:
  x: 0.0
  y: 0.0
  z: 0.16666666666666666
---
linear:
  x: 0.08759889757148033
  y: 0.0
  z: 0.0
angular:
  x: 0.0
  y: 0.0
  z: 0.16666666666666666
---
linear:
  x: 0.07563475768321501
  y: 0.0
  z: 0.0
angular:
  x: 0.0
  y: 0.0
  z: 0.16666666666666666
---
linear:
  x: 0.07563475768321501
  y: 0.0
  z: 0.0
angular:
  x: 0.0
  y: 0.0
  z: 0.16666666666666666
---
linear:
  x: 0.07119350477396325
  y: 0.0
  z: 0.0
angular:
  x: 0.0
  y: 0.0
  z: 0.16666666666666663
---
linear:
  x: 0.07119350477396325
  y: 0.0
  z: 0.0
angular:
  x: 0.0
  y: 0.0
  z: 0.16666666666666663
---
linear:
  x: 0.05029866190639141
  y: 0.0
  z: 0.0
angular:
  x: 0.0
  y: 0.0
  z: 0.16666666666666669
---
linear:
  x: 0.05029866190639141
  y: 0.0
  z: 0.0
angular:
  x: 0.0
  y: 0.0
  z: 0.16666666666666669
---
linear:
  x: 0.05
  y: 0.0
  z: 0.0
angular:
  x: 0.0
  y: 0.0
  z: 0.18537991662580747
---
linear:
  x: 0.05
  y: 0.0
  z: 0.0
angular:
  x: 0.0
  y: 0.0
  z: 0.18537991662580747
---
linear:
  x: 0.05
  y: 0.0
  z: 0.0
angular:
  x: 0.0
  y: 0.0
  z: 0.21508371664266487
---
linear:
  x: 0.05
  y: 0.0
  z: 0.0
angular:
  x: 0.0
  y: 0.0
  z: 0.21508371664266487
---
linear:
  x: 0.05
  y: 0.0
  z: 0.0
angular:
  x: 0.0
  y: 0.0
  z: 0.23646726321661604
---
linear:
  x: 0.05
  y: 0.0
  z: 0.0
angular:
  x: 0.0
  y: 0.0
  z: 0.23646726321661604
---
linear:
  x: 0.05
  y: 0.0
  z: 0.0
angular:
  x: 0.0
  y: 0.0
  z: 0.25120246124922163
---
linear:
  x: 0.05
  y: 0.0
  z: 0.0
angular:
  x: 0.0
  y: 0.0
  z: 0.25120246124922163
---
linear:
  x: 0.05
  y: 0.0
  z: 0.0
angular:
  x: 0.0
  y: 0.0
  z: 0.27967971486434146
---
linear:
  x: 0.05
  y: 0.0
  z: 0.0
angular:
  x: 0.0
  y: 0.0
  z: 0.27967971486434146
---
linear:
  x: 0.05
  y: 0.0
  z: 0.0
angular:
  x: 0.0
  y: 0.0
  z: 0.3129694214564029
---
linear:
  x: 0.05
  y: 0.0
  z: 0.0
angular:
  x: 0.0
  y: 0.0
  z: 0.3129694214564029
---
linear:
  x: 0.05
  y: 0.0
  z: 0.0
angular:
  x: 0.0
  y: 0.0
  z: 0.33415576641887734
---
linear:
  x: 0.05
  y: 0.0
  z: 0.0
angular:
  x: 0.0
  y: 0.0
  z: 0.33415576641887734
---
linear:
  x: 0.05
  y: 0.0
  z: 0.0
angular:
  x: 0.0
  y: 0.0
  z: 0.3483245990920246
---
linear:
  x: 0.05
  y: 0.0
  z: 0.0
angular:
  x: 0.0
  y: 0.0
  z: 0.3483245990920246
---
linear:
  x: 0.05
  y: 0.0
  z: 0.0
angular:
  x: 0.0
  y: 0.0
  z: 0.3706584382501975
---
linear:
  x: 0.05
  y: 0.0
  z: 0.0
angular:
  x: 0.0
  y: 0.0
  z: 0.3706584382501975
---
linear:
  x: 0.05
  y: 0.0
  z: 0.0
angular:
  x: 0.0
  y: 0.0
  z: 0.37040678142098843
---
linear:
  x: 0.05
  y: 0.0
  z: 0.0
angular:
  x: 0.0
  y: 0.0
  z: 0.37040678142098843
---
linear:
  x: 0.05
  y: 0.0
  z: 0.0
angular:
  x: 0.0
  y: 0.0
  z: 0.39556272153212635
---
linear:
  x: 0.05
  y: 0.0
  z: 0.0
angular:
  x: 0.0
  y: 0.0
  z: 0.39556272153212635
---
linear:
  x: 0.05
  y: 0.0
  z: 0.0
angular:
  x: 0.0
  y: 0.0
  z: 0.44431317448274266
---
linear:
  x: 0.05
  y: 0.0
  z: 0.0
angular:
  x: 0.0
  y: 0.0
  z: 0.44431317448274266
---
linear:
  x: 0.05
  y: 0.0
  z: 0.0
angular:
  x: 0.0
  y: 0.0
  z: 0.48528696795869597
---
linear:
  x: 0.05
  y: 0.0
  z: 0.0
angular:
  x: 0.0
  y: 0.0
  z: 0.48528696795869597
---
linear:
  x: 0.0
  y: 0.0
  z: 0.0
angular:
  x: 0.0
  y: 0.0
  z: -0.25
---
linear:
  x: 0.0
  y: 0.0
  z: 0.0
angular:
  x: 0.0
  y: 0.0
  z: -0.25
---
linear:
  x: 0.0
  y: 0.0
  z: 0.0
angular:
  x: 0.0
  y: 0.0
  z: -0.25
---
linear:
  x: 0.0
  y: 0.0
  z: 0.0
angular:
  x: 0.0
  y: 0.0
  z: -0.25
---
linear:
  x: 0.0
  y: 0.0
  z: 0.0
angular:
  x: 0.0
  y: 0.0
  z: -0.25
---
linear:
  x: 0.0
  y: 0.0
  z: 0.0
angular:
  x: 0.0
  y: 0.0
  z: -0.25
---
linear:
  x: 0.05
  y: 0.0
  z: 0.0
angular:
  x: 0.0
  y: 0.0
  z: 0.22487196031556034
---
linear:
  x: 0.05
  y: 0.0
  z: 0.0
angular:
  x: 0.0
  y: 0.0
  z: 0.22487196031556034
---
linear:
  x: 0.05
  y: 0.0
  z: 0.0
angular:
  x: 0.0
  y: 0.0
  z: 0.2114850999932832
---
linear:
  x: 0.05
  y: 0.0
  z: 0.0
angular:
  x: 0.0
  y: 0.0
  z: 0.2114850999932832
---
linear:
  x: 0.05
  y: 0.0
  z: 0.0
angular:
  x: 0.0
  y: 0.0
  z: 0.21870999815163206
---
linear:
  x: 0.05
  y: 0.0
  z: 0.0
angular:
  x: 0.0
  y: 0.0
  z: 0.21870999815163206
---
linear:
  x: 0.05
  y: 0.0
  z: 0.0
angular:
  x: 0.0
  y: 0.0
  z: 0.17749739565684008
---
linear:
  x: 0.05
  y: 0.0
  z: 0.0
angular:
  x: 0.0
  y: 0.0
  z: 0.17749739565684008
---
linear:
  x: 0.0988272953652559
  y: 0.0
  z: 0.0
angular:
  x: 0.0
  y: 0.0
  z: 0.16666666666666666
---
linear:
  x: 0.0988272953652559
  y: 0.0
  z: 0.0
angular:
  x: 0.0
  y: 0.0
  z: 0.16666666666666666
---
linear:
  x: 0.09036766502369613
  y: 0.0
  z: 0.0
angular:
  x: 0.0
  y: 0.0
  z: 0.16666666666666663
---
linear:
  x: 0.09036766502369613
  y: 0.0
  z: 0.0
angular:
  x: 0.0
  y: 0.0
  z: 0.16666666666666663
---
linear:
  x: 0.0903811184818308
  y: 0.0
  z: 0.0
angular:
  x: 0.0
  y: 0.0
  z: 0.16666666666666666
---
linear:
  x: 0.0903811184818308
  y: 0.0
  z: 0.0
angular:
  x: 0.0
  y: 0.0
  z: 0.16666666666666666
---
linear:
  x: 0.09497999305524699
  y: 0.0
  z: 0.0
angular:
  x: 0.0
  y: 0.0
  z: 0.16666666666666666
---
linear:
  x: 0.09497999305524699
  y: 0.0
  z: 0.0
angular:
  x: 0.0
  y: 0.0
  z: 0.16666666666666666
---
linear:
  x: 0.1
  y: 0.0
  z: 0.0
angular:
  x: 0.0
  y: 0.0
  z: 0.08217865233891383
---
linear:
  x: 0.1
  y: 0.0
  z: 0.0
angular:
  x: 0.0
  y: 0.0
  z: 0.08217865233891383
---
linear:
  x: 0.1
  y: 0.0
  z: 0.0
angular:
  x: 0.0
  y: 0.0
  z: 0.024791726157785403
---
linear:
  x: 0.1
  y: 0.0
  z: 0.0
angular:
  x: 0.0
  y: 0.0
  z: 0.024791726157785403
---
linear:
  x: 0.0
  y: 0.0
  z: 0.0
angular:
  x: 0.0
  y: 0.0
  z: -0.25
---
linear:
  x: 0.0
  y: 0.0
  z: 0.0
angular:
  x: 0.0
  y: 0.0
  z: -0.25
---
linear:
  x: 0.0
  y: 0.0
  z: 0.0
angular:
  x: 0.0
  y: 0.0
  z: -0.25
---
linear:
  x: 0.0
  y: 0.0
  z: 0.0
angular:
  x: 0.0
  y: 0.0
  z: -0.25
---
linear:
  x: 0.0
  y: 0.0
  z: 0.0
angular:
  x: 0.0
  y: 0.0
  z: -0.25
---
linear:
  x: 0.0
  y: 0.0
  z: 0.0
angular:
  x: 0.0
  y: 0.0
  z: -0.25
---
linear:
  x: 0.0
  y: 0.0
  z: 0.0
angular:
  x: 0.0
  y: 0.0
  z: -0.25
---
linear:
  x: 0.0
  y: 0.0
  z: 0.0
angular:
  x: 0.0
  y: 0.0
  z: -0.25
---
linear:
  x: 0.0
  y: 0.0
  z: 0.0
angular:
  x: 0.0
  y: 0.0
  z: -0.25
---
linear:
  x: 0.0
  y: 0.0
  z: 0.0
angular:
  x: 0.0
  y: 0.0
  z: -0.25
---
linear:
  x: 0.0
  y: 0.0
  z: 0.0
angular:
  x: 0.0
  y: 0.0
  z: -0.25
---
linear:
  x: 0.0
  y: 0.0
  z: 0.0
angular:
  x: 0.0
  y: 0.0
  z: -0.25
---
linear:
  x: 0.0
  y: 0.0
  z: 0.0
angular:
  x: 0.0
  y: 0.0
  z: -0.25
---
linear:
  x: 0.0
  y: 0.0
  z: 0.0
angular:
  x: 0.0
  y: 0.0
  z: -0.25
---
linear:
  x: 0.0
  y: 0.0
  z: 0.0
angular:
  x: 0.0
  y: 0.0
  z: -0.25
---
linear:
  x: 0.0
  y: 0.0
  z: 0.0
angular:
  x: 0.0
  y: 0.0
  z: -0.25
---
linear:
  x: 0.0
  y: 0.0
  z: 0.0
angular:
  x: 0.0
  y: 0.0
  z: -0.25
---
linear:
  x: 0.0
  y: 0.0
  z: 0.0
angular:
  x: 0.0
  y: 0.0
  z: -0.25
---
linear:
  x: 0.0
  y: 0.0
  z: 0.0
angular:
  x: 0.0
  y: 0.0
  z: -0.25
---
linear:
  x: 0.0
  y: 0.0
  z: 0.0
angular:
  x: 0.0
  y: 0.0
  z: -0.25
---
linear:
  x: 0.0
  y: 0.0
  z: 0.0
angular:
  x: 0.0
  y: 0.0
  z: -0.25
---
linear:
  x: 0.0
  y: 0.0
  z: 0.0
angular:
  x: 0.0
  y: 0.0
  z: -0.25
---
linear:
  x: 0.0
  y: 0.0
  z: 0.0
angular:
  x: 0.0
  y: 0.0
  z: -0.25
---
linear:
  x: 0.0
  y: 0.0
  z: 0.0
angular:
  x: 0.0
  y: 0.0
  z: -0.25
---
linear:
  x: 0.0
  y: 0.0
  z: 0.0
angular:
  x: 0.0
  y: 0.0
  z: -0.25
---
linear:
  x: 0.0
  y: 0.0
  z: 0.0
angular:
  x: 0.0
  y: 0.0
  z: -0.25
---
linear:
  x: 0.0
  y: 0.0
  z: 0.0
angular:
  x: 0.0
  y: 0.0
  z: -0.25
---
linear:
  x: 0.0
  y: 0.0
  z: 0.0
angular:
  x: 0.0
  y: 0.0
  z: -0.25
---
linear:
  x: 0.0
  y: 0.0
  z: 0.0
angular:
  x: 0.0
  y: 0.0
  z: -0.25
---
linear:
  x: 0.0
  y: 0.0
  z: 0.0
angular:
  x: 0.0
  y: 0.0
  z: -0.25
---
linear:
  x: 0.0
  y: 0.0
  z: 0.0
angular:
  x: 0.0
  y: 0.0
  z: -0.25
---
linear:
  x: 0.0
  y: 0.0
  z: 0.0
angular:
  x: 0.0
  y: 0.0
  z: -0.25
---
linear:
  x: 0.0
  y: 0.0
  z: 0.0
angular:
  x: 0.0
  y: 0.0
  z: -0.25
---
linear:
  x: 0.0
  y: 0.0
  z: 0.0
angular:
  x: 0.0
  y: 0.0
  z: -0.25
---
linear:
  x: 0.0
  y: 0.0
  z: 0.0
angular:
  x: 0.0
  y: 0.0
  z: -0.25
---
linear:
  x: 0.0
  y: 0.0
  z: 0.0
angular:
  x: 0.0
  y: 0.0
  z: -0.25
---
linear:
  x: 0.0
  y: 0.0
  z: 0.0
angular:
  x: 0.0
  y: 0.0
  z: -0.25
---
linear:
  x: 0.0
  y: 0.0
  z: 0.0
angular:
  x: 0.0
  y: 0.0
  z: -0.25
---
linear:
  x: 0.0
  y: 0.0
  z: 0.0
angular:
  x: 0.0
  y: 0.0
  z: -0.25
---
linear:
  x: 0.0
  y: 0.0
  z: 0.0
angular:
  x: 0.0
  y: 0.0
  z: -0.25
---
linear:
  x: 0.0
  y: 0.0
  z: 0.0
angular:
  x: 0.0
  y: 0.0
  z: -0.25
---
linear:
  x: 0.0
  y: 0.0
  z: 0.0
angular:
  x: 0.0
  y: 0.0
  z: -0.25
---
linear:
  x: 0.0
  y: 0.0
  z: 0.0
angular:
  x: 0.0
  y: 0.0
  z: -0.25
---
linear:
  x: 0.0
  y: 0.0
  z: 0.0
angular:
  x: 0.0
  y: 0.0
  z: -0.25
---
linear:
  x: 0.0
  y: 0.0
  z: 0.0
angular:
  x: 0.0
  y: 0.0
  z: -0.25
---
linear:
  x: 0.0
  y: 0.0
  z: 0.0
angular:
  x: 0.0
  y: 0.0
  z: -0.25
---
linear:
  x: 0.0
  y: 0.0
  z: 0.0
angular:
  x: 0.0
  y: 0.0
  z: -0.25
---
linear:
  x: 0.0
  y: 0.0
  z: 0.0
angular:
  x: 0.0
  y: 0.0
  z: -0.25
---
linear:
  x: 0.0
  y: 0.0
  z: 0.0
angular:
  x: 0.0
  y: 0.0
  z: -0.25
---
linear:
  x: 0.0
  y: 0.0
  z: 0.0
angular:
  x: 0.0
  y: 0.0
  z: -0.25
---
linear:
  x: 0.0
  y: 0.0
  z: 0.0
angular:
  x: 0.0
  y: 0.0
  z: -0.25
---
linear:
  x: 0.0
  y: 0.0
  z: 0.0
angular:
  x: 0.0
  y: 0.0
  z: -0.25
---
linear:
  x: 0.0
  y: 0.0
  z: 0.0
angular:
  x: 0.0
  y: 0.0
  z: -0.25
---
linear:
  x: 0.0
  y: 0.0
  z: 0.0
angular:
  x: 0.0
  y: 0.0
  z: -0.25
---
linear:
  x: 0.0
  y: 0.0
  z: 0.0
angular:
  x: 0.0
  y: 0.0
  z: -0.25
---
linear:
  x: 0.0
  y: 0.0
  z: 0.0
angular:
  x: 0.0
  y: 0.0
  z: -0.25
---
linear:
  x: 0.0
  y: 0.0
  z: 0.0
angular:
  x: 0.0
  y: 0.0
  z: -0.25
---
linear:
  x: 0.0
  y: 0.0
  z: 0.0
angular:
  x: 0.0
  y: 0.0
  z: -0.25
---
linear:
  x: 0.0
  y: 0.0
  z: 0.0
angular:
  x: 0.0
  y: 0.0
  z: -0.25
---
linear:
  x: 0.0
  y: 0.0
  z: 0.0
angular:
  x: 0.0
  y: 0.0
  z: -0.25
---
linear:
  x: 0.0
  y: 0.0
  z: 0.0
angular:
  x: 0.0
  y: 0.0
  z: -0.25
---
linear:
  x: 0.0
  y: 0.0
  z: 0.0
angular:
  x: 0.0
  y: 0.0
  z: -0.25
---
linear:
  x: 0.0
  y: 0.0
  z: 0.0
angular:
  x: 0.0
  y: 0.0
  z: -0.25
---
linear:
  x: 0.0
  y: 0.0
  z: 0.0
angular:
  x: 0.0
  y: 0.0
  z: -0.25
---
linear:
  x: 0.0
  y: 0.0
  z: 0.0
angular:
  x: 0.0
  y: 0.0
  z: -0.25
---
linear:
  x: 0.0
  y: 0.0
  z: 0.0
angular:
  x: 0.0
  y: 0.0
  z: -0.25
---
linear:
  x: 0.0
  y: 0.0
  z: 0.0
angular:
  x: 0.0
  y: 0.0
  z: -0.25
---
linear:
  x: 0.0
  y: 0.0
  z: 0.0
angular:
  x: 0.0
  y: 0.0
  z: -0.25
---
linear:
  x: 0.0
  y: 0.0
  z: 0.0
angular:
  x: 0.0
  y: 0.0
  z: -0.25
---
linear:
  x: 0.0
  y: 0.0
  z: 0.0
angular:
  x: 0.0
  y: 0.0
  z: -0.25
---
linear:
  x: 0.0
  y: 0.0
  z: 0.0
angular:
  x: 0.0
  y: 0.0
  z: -0.25
---
linear:
  x: 0.0
  y: 0.0
  z: 0.0
angular:
  x: 0.0
  y: 0.0
  z: -0.25
---
linear:
  x: 0.0
  y: 0.0
  z: 0.0
angular:
  x: 0.0
  y: 0.0
  z: -0.25
---
linear:
  x: 0.0
  y: 0.0
  z: 0.0
angular:
  x: 0.0
  y: 0.0
  z: -0.25
---
linear:
  x: 0.0
  y: 0.0
  z: 0.0
angular:
  x: 0.0
  y: 0.0
  z: -0.25
---
linear:
  x: 0.0
  y: 0.0
  z: 0.0
angular:
  x: 0.0
  y: 0.0
  z: -0.25
---
linear:
  x: 0.05
  y: 0.0
  z: 0.0
angular:
  x: 0.0
  y: 0.0
  z: 0.22697811655005107
---
linear:
  x: 0.0
  y: 0.0
  z: 0.0
angular:
  x: 0.0
  y: 0.0
  z: 0.0
---
linear:
  x: 0.0
  y: 0.0
  z: 0.0
angular:
  x: 0.0
  y: 0.0
  z: 0.25
---
linear:
  x: 0.0
  y: 0.0
  z: 0.0
angular:
  x: 0.0
  y: 0.0
  z: 0.25
---
linear:
  x: 0.0
  y: 0.0
  z: 0.0
angular:
  x: 0.0
  y: 0.0
  z: 0.25
---
linear:
  x: 0.0
  y: 0.0
  z: 0.0
angular:
  x: 0.0
  y: 0.0
  z: 0.25
---
linear:
  x: 0.0
  y: 0.0
  z: 0.0
angular:
  x: 0.0
  y: 0.0
  z: 0.25
---
linear:
  x: 0.0
  y: 0.0
  z: 0.0
angular:
  x: 0.0
  y: 0.0
  z: 0.25
---
linear:
  x: 0.0
  y: 0.0
  z: 0.0
angular:
  x: 0.0
  y: 0.0
  z: 0.25
---
linear:
  x: 0.0
  y: 0.0
  z: 0.0
angular:
  x: 0.0
  y: 0.0
  z: 0.25
---
linear:
  x: 0.0
  y: 0.0
  z: 0.0
angular:
  x: 0.0
  y: 0.0
  z: 0.25
---
linear:
  x: 0.0
  y: 0.0
  z: 0.0
angular:
  x: 0.0
  y: 0.0
  z: 0.25
---
linear:
  x: 0.0
  y: 0.0
  z: 0.0
angular:
  x: 0.0
  y: 0.0
  z: 0.25
---
linear:
  x: 0.0
  y: 0.0
  z: 0.0
angular:
  x: 0.0
  y: 0.0
  z: 0.25
---
linear:
  x: 0.0
  y: 0.0
  z: 0.0
angular:
  x: 0.0
  y: 0.0
  z: 0.25
---
linear:
  x: 0.0
  y: 0.0
  z: 0.0
angular:
  x: 0.0
  y: 0.0
  z: 0.25
---
linear:
  x: 0.0
  y: 0.0
  z: 0.0
angular:
  x: 0.0
  y: 0.0
  z: 0.25
---
linear:
  x: 0.0
  y: 0.0
  z: 0.0
angular:
  x: 0.0
  y: 0.0
  z: 0.25
---
linear:
  x: 0.0
  y: 0.0
  z: 0.0
angular:
  x: 0.0
  y: 0.0
  z: 0.25
---
linear:
  x: 0.0
  y: 0.0
  z: 0.0
angular:
  x: 0.0
  y: 0.0
  z: 0.25
---
linear:
  x: 0.0
  y: 0.0
  z: 0.0
angular:
  x: 0.0
  y: 0.0
  z: 0.25
---
linear:
  x: 0.0
  y: 0.0
  z: 0.0
angular:
  x: 0.0
  y: 0.0
  z: 0.25
---
linear:
  x: 0.0
  y: 0.0
  z: 0.0
angular:
  x: 0.0
  y: 0.0
  z: 0.25
---
linear:
  x: 0.0
  y: 0.0
  z: 0.0
angular:
  x: 0.0
  y: 0.0
  z: 0.25
---
linear:
  x: 0.0
  y: 0.0
  z: 0.0
angular:
  x: 0.0
  y: 0.0
  z: 0.25
---
linear:
  x: 0.0
  y: 0.0
  z: 0.0
angular:
  x: 0.0
  y: 0.0
  z: 0.25
---
linear:
  x: 0.0
  y: 0.0
  z: 0.0
angular:
  x: 0.0
  y: 0.0
  z: 0.25
---
linear:
  x: 0.0
  y: 0.0
  z: 0.0
angular:
  x: 0.0
  y: 0.0
  z: 0.25
---
linear:
  x: 0.0
  y: 0.0
  z: 0.0
angular:
  x: 0.0
  y: 0.0
  z: 0.25
---
linear:
  x: 0.0
  y: 0.0
  z: 0.0
angular:
  x: 0.0
  y: 0.0
  z: 0.25
---
linear:
  x: 0.0
  y: 0.0
  z: 0.0
angular:
  x: 0.0
  y: 0.0
  z: 0.25
---
linear:
  x: 0.0
  y: 0.0
  z: 0.0
angular:
  x: 0.0
  y: 0.0
  z: 0.25
---
linear:
  x: 0.0
  y: 0.0
  z: 0.0
angular:
  x: 0.0
  y: 0.0
  z: 0.25
---
linear:
  x: 0.0
  y: 0.0
  z: 0.0
angular:
  x: 0.0
  y: 0.0
  z: 0.25
---
linear:
  x: 0.0
  y: 0.0
  z: 0.0
angular:
  x: 0.0
  y: 0.0
  z: 0.25
---
linear:
  x: 0.0
  y: 0.0
  z: 0.0
angular:
  x: 0.0
  y: 0.0
  z: 0.25
---
linear:
  x: 0.0
  y: 0.0
  z: 0.0
angular:
  x: 0.0
  y: 0.0
  z: 0.25
---
linear:
  x: 0.0
  y: 0.0
  z: 0.0
angular:
  x: 0.0
  y: 0.0
  z: 0.25
---
linear:
  x: 0.0
  y: 0.0
  z: 0.0
angular:
  x: 0.0
  y: 0.0
  z: 0.25
---
linear:
  x: 0.0
  y: 0.0
  z: 0.0
angular:
  x: 0.0
  y: 0.0
  z: 0.25
---
linear:
  x: 0.0
  y: 0.0
  z: 0.0
angular:
  x: 0.0
  y: 0.0
  z: 0.25
---
linear:
  x: 0.0
  y: 0.0
  z: 0.0
angular:
  x: 0.0
  y: 0.0
  z: 0.25
---
linear:
  x: 0.0
  y: 0.0
  z: 0.0
angular:
  x: 0.0
  y: 0.0
  z: 0.25
---
linear:
  x: 0.0
  y: 0.0
  z: 0.0
angular:
  x: 0.0
  y: 0.0
  z: 0.25
---
linear:
  x: 0.0
  y: 0.0
  z: 0.0
angular:
  x: 0.0
  y: 0.0
  z: 0.25
---
linear:
  x: 0.0
  y: 0.0
  z: 0.0
angular:
  x: 0.0
  y: 0.0
  z: 0.25
---
linear:
  x: 0.0
  y: 0.0
  z: 0.0
angular:
  x: 0.0
  y: 0.0
  z: 0.25
---
linear:
  x: 0.0
  y: 0.0
  z: 0.0
angular:
  x: 0.0
  y: 0.0
  z: 0.25
---
linear:
  x: 0.0
  y: 0.0
  z: 0.0
angular:
  x: 0.0
  y: 0.0
  z: 0.25
---
linear:
  x: 0.0
  y: 0.0
  z: 0.0
angular:
  x: 0.0
  y: 0.0
  z: 0.25
---
linear:
  x: 0.0
  y: 0.0
  z: 0.0
angular:
  x: 0.0
  y: 0.0
  z: 0.25
---
linear:
  x: 0.0
  y: 0.0
  z: 0.0
angular:
  x: 0.0
  y: 0.0
  z: 0.25
---
linear:
  x: 0.0
  y: 0.0
  z: 0.0
angular:
  x: 0.0
  y: 0.0
  z: 0.25
---
linear:
  x: 0.0
  y: 0.0
  z: 0.0
angular:
  x: 0.0
  y: 0.0
  z: 0.25
---
linear:
  x: 0.0
  y: 0.0
  z: 0.0
angular:
  x: 0.0
  y: 0.0
  z: 0.25
---
linear:
  x: 0.0
  y: 0.0
  z: 0.0
angular:
  x: 0.0
  y: 0.0
  z: 0.25
---
linear:
  x: 0.0
  y: 0.0
  z: 0.0
angular:
  x: 0.0
  y: 0.0
  z: 0.25
---
linear:
  x: 0.0
  y: 0.0
  z: 0.0
angular:
  x: 0.0
  y: 0.0
  z: 0.25
---
linear:
  x: 0.0
  y: 0.0
  z: 0.0
angular:
  x: 0.0
  y: 0.0
  z: 0.25
---
linear:
  x: 0.0
  y: 0.0
  z: 0.0
angular:
  x: 0.0
  y: 0.0
  z: 0.25
---
linear:
  x: 0.0
  y: 0.0
  z: 0.0
angular:
  x: 0.0
  y: 0.0
  z: 0.25
---
linear:
  x: 0.0
  y: 0.0
  z: 0.0
angular:
  x: 0.0
  y: 0.0
  z: 0.25
---
linear:
  x: 0.0
  y: 0.0
  z: 0.0
angular:
  x: 0.0
  y: 0.0
  z: 0.25
---
linear:
  x: 0.0
  y: 0.0
  z: 0.0
angular:
  x: 0.0
  y: 0.0
  z: 0.25
---
linear:
  x: 0.0
  y: 0.0
  z: 0.0
angular:
  x: 0.0
  y: 0.0
  z: 0.25
---
linear:
  x: 0.0
  y: 0.0
  z: 0.0
angular:
  x: 0.0
  y: 0.0
  z: 0.25
---
linear:
  x: 0.0
  y: 0.0
  z: 0.0
angular:
  x: 0.0
  y: 0.0
  z: 0.25
---
linear:
  x: 0.0
  y: 0.0
  z: 0.0
angular:
  x: 0.0
  y: 0.0
  z: 0.25
---
linear:
  x: 0.0
  y: 0.0
  z: 0.0
angular:
  x: 0.0
  y: 0.0
  z: 0.25
---
linear:
  x: 0.0
  y: 0.0
  z: 0.0
angular:
  x: 0.0
  y: 0.0
  z: 0.25
---
linear:
  x: 0.0
  y: 0.0
  z: 0.0
angular:
  x: 0.0
  y: 0.0
  z: 0.25
---
linear:
  x: 0.0
  y: 0.0
  z: 0.0
angular:
  x: 0.0
  y: 0.0
  z: 0.25
---
linear:
  x: 0.0
  y: 0.0
  z: 0.0
angular:
  x: 0.0
  y: 0.0
  z: 0.25
---
linear:
  x: 0.0
  y: 0.0
  z: 0.0
angular:
  x: 0.0
  y: 0.0
  z: 0.25
---
linear:
  x: 0.0
  y: 0.0
  z: 0.0
angular:
  x: 0.0
  y: 0.0
  z: 0.25
---
linear:
  x: 0.0
  y: 0.0
  z: 0.0
angular:
  x: 0.0
  y: 0.0
  z: 0.25
---
linear:
  x: 0.0
  y: 0.0
  z: 0.0
angular:
  x: 0.0
  y: 0.0
  z: 0.25
---
linear:
  x: 0.0
  y: 0.0
  z: 0.0
angular:
  x: 0.0
  y: 0.0
  z: 0.25
---
linear:
  x: 0.0
  y: 0.0
  z: 0.0
angular:
  x: 0.0
  y: 0.0
  z: 0.25
---
linear:
  x: 0.0
  y: 0.0
  z: 0.0
angular:
  x: 0.0
  y: 0.0
  z: 0.25
---
linear:
  x: 0.0
  y: 0.0
  z: 0.0
angular:
  x: 0.0
  y: 0.0
  z: 0.25
---
linear:
  x: 0.0
  y: 0.0
  z: 0.0
angular:
  x: 0.0
  y: 0.0
  z: 0.25
---
linear:
  x: 0.0
  y: 0.0
  z: 0.0
angular:
  x: 0.0
  y: 0.0
  z: 0.25
---
linear:
  x: 0.0
  y: 0.0
  z: 0.0
angular:
  x: 0.0
  y: 0.0
  z: 0.25
---
linear:
  x: 0.0
  y: 0.0
  z: 0.0
angular:
  x: 0.0
  y: 0.0
  z: 0.25
---
linear:
  x: 0.0
  y: 0.0
  z: 0.0
angular:
  x: 0.0
  y: 0.0
  z: 0.25
---
linear:
  x: 0.0
  y: 0.0
  z: 0.0
angular:
  x: 0.0
  y: 0.0
  z: 0.25
---
linear:
  x: 0.0
  y: 0.0
  z: 0.0
angular:
  x: 0.0
  y: 0.0
  z: 0.25
---
linear:
  x: 0.0
  y: 0.0
  z: 0.0
angular:
  x: 0.0
  y: 0.0
  z: 0.25
---
linear:
  x: 0.0
  y: 0.0
  z: 0.0
angular:
  x: 0.0
  y: 0.0
  z: 0.25
---
linear:
  x: 0.0
  y: 0.0
  z: 0.0
angular:
  x: 0.0
  y: 0.0
  z: 0.25
---
linear:
  x: 0.0
  y: 0.0
  z: 0.0
angular:
  x: 0.0
  y: 0.0
  z: 0.25
---
linear:
  x: 0.0
  y: 0.0
  z: 0.0
angular:
  x: 0.0
  y: 0.0
  z: 0.25
---
linear:
  x: 0.0
  y: 0.0
  z: 0.0
angular:
  x: 0.0
  y: 0.0
  z: 0.25
---
linear:
  x: 0.0
  y: 0.0
  z: 0.0
angular:
  x: 0.0
  y: 0.0
  z: 0.25
---
linear:
  x: 0.0
  y: 0.0
  z: 0.0
angular:
  x: 0.0
  y: 0.0
  z: 0.25
---
linear:
  x: 0.0
  y: 0.0
  z: 0.0
angular:
  x: 0.0
  y: 0.0
  z: 0.25
---
linear:
  x: 0.0
  y: 0.0
  z: 0.0
angular:
  x: 0.0
  y: 0.0
  z: 0.25
---
linear:
  x: 0.0
  y: 0.0
  z: 0.0
angular:
  x: 0.0
  y: 0.0
  z: 0.25
---
linear:
  x: 0.0
  y: 0.0
  z: 0.0
angular:
  x: 0.0
  y: 0.0
  z: 0.25
---
linear:
  x: 0.0
  y: 0.0
  z: 0.0
angular:
  x: 0.0
  y: 0.0
  z: 0.25
---
linear:
  x: 0.0
  y: 0.0
  z: 0.0
angular:
  x: 0.0
  y: 0.0
  z: 0.25
---
linear:
  x: 0.0
  y: 0.0
  z: 0.0
angular:
  x: 0.0
  y: 0.0
  z: 0.25
---
linear:
  x: 0.0
  y: 0.0
  z: 0.0
angular:
  x: 0.0
  y: 0.0
  z: 0.25
---
linear:
  x: 0.0
  y: 0.0
  z: 0.0
angular:
  x: 0.0
  y: 0.0
  z: 0.25
---
linear:
  x: 0.0
  y: 0.0
  z: 0.0
angular:
  x: 0.0
  y: 0.0
  z: 0.25
---
linear:
  x: 0.0
  y: 0.0
  z: 0.0
angular:
  x: 0.0
  y: 0.0
  z: 0.25
---
linear:
  x: 0.0
  y: 0.0
  z: 0.0
angular:
  x: 0.0
  y: 0.0
  z: 0.25
---
linear:
  x: 0.0
  y: 0.0
  z: 0.0
angular:
  x: 0.0
  y: 0.0
  z: 0.25
---
linear:
  x: 0.0
  y: 0.0
  z: 0.0
angular:
  x: 0.0
  y: 0.0
  z: 0.25
---
linear:
  x: 0.0
  y: 0.0
  z: 0.0
angular:
  x: 0.0
  y: 0.0
  z: 0.25
---
linear:
  x: 0.0
  y: 0.0
  z: 0.0
angular:
  x: 0.0
  y: 0.0
  z: 0.25
---
linear:
  x: 0.0
  y: 0.0
  z: 0.0
angular:
  x: 0.0
  y: 0.0
  z: 0.25
---
linear:
  x: 0.0
  y: 0.0
  z: 0.0
angular:
  x: 0.0
  y: 0.0
  z: 0.25
---
linear:
  x: 0.0
  y: 0.0
  z: 0.0
angular:
  x: 0.0
  y: 0.0
  z: 0.25
---
linear:
  x: 0.0
  y: 0.0
  z: 0.0
angular:
  x: 0.0
  y: 0.0
  z: 0.25
---
linear:
  x: 0.0
  y: 0.0
  z: 0.0
angular:
  x: 0.0
  y: 0.0
  z: 0.25
---
linear:
  x: 0.0
  y: 0.0
  z: 0.0
angular:
  x: 0.0
  y: 0.0
  z: 0.25
---
linear:
  x: 0.0
  y: 0.0
  z: 0.0
angular:
  x: 0.0
  y: 0.0
  z: 0.25
---
linear:
  x: 0.0
  y: 0.0
  z: 0.0
angular:
  x: 0.0
  y: 0.0
  z: 0.25
---
linear:
  x: 0.0
  y: 0.0
  z: 0.0
angular:
  x: 0.0
  y: 0.0
  z: 0.25
---
linear:
  x: 0.0
  y: 0.0
  z: 0.0
angular:
  x: 0.0
  y: 0.0
  z: 0.25
---
linear:
  x: 0.0
  y: 0.0
  z: 0.0
angular:
  x: 0.0
  y: 0.0
  z: 0.25
---
linear:
  x: 0.0
  y: 0.0
  z: 0.0
angular:
  x: 0.0
  y: 0.0
  z: 0.25
---
linear:
  x: 0.0
  y: 0.0
  z: 0.0
angular:
  x: 0.0
  y: 0.0
  z: 0.25
---
linear:
  x: 0.0
  y: 0.0
  z: 0.0
angular:
  x: 0.0
  y: 0.0
  z: 0.25
---
linear:
  x: 0.05
  y: 0.0
  z: 0.0
angular:
  x: 0.0
  y: 0.0
  z: 0.22763758753643973
---
linear:
  x: 0.05
  y: 0.0
  z: 0.0
angular:
  x: 0.0
  y: 0.0
  z: 0.22763758753643973
---
linear:
  x: 0.05
  y: 0.0
  z: 0.0
angular:
  x: 0.0
  y: 0.0
  z: 0.21998616143479655
---
linear:
  x: 0.05
  y: 0.0
  z: 0.0
angular:
  x: 0.0
  y: 0.0
  z: 0.21998616143479655
---
linear:
  x: 0.05
  y: 0.0
  z: 0.0
angular:
  x: 0.0
  y: 0.0
  z: 0.21171870458828101
---
linear:
  x: 0.05
  y: 0.0
  z: 0.0
angular:
  x: 0.0
  y: 0.0
  z: 0.21171870458828101
---
linear:
  x: 0.05
  y: 0.0
  z: 0.0
angular:
  x: 0.0
  y: 0.0
  z: 0.19992855375184312
---
linear:
  x: 0.05
  y: 0.0
  z: 0.0
angular:
  x: 0.0
  y: 0.0
  z: 0.19992855375184312
---
linear:
  x: 0.05
  y: 0.0
  z: 0.0
angular:
  x: 0.0
  y: 0.0
  z: 0.19073987304511927
---
linear:
  x: 0.05
  y: 0.0
  z: 0.0
angular:
  x: 0.0
  y: 0.0
  z: 0.19073987304511927
---
linear:
  x: 0.05
  y: 0.0
  z: 0.0
angular:
  x: 0.0
  y: 0.0
  z: 0.17835822231203796
---
linear:
  x: 0.05
  y: 0.0
  z: 0.0
angular:
  x: 0.0
  y: 0.0
  z: 0.17835822231203796
---
linear:
  x: 0.0509117935637512
  y: 0.0
  z: 0.0
angular:
  x: 0.0
  y: 0.0
  z: 0.16666666666666663
---
linear:
  x: 0.0509117935637512
  y: 0.0
  z: 0.0
angular:
  x: 0.0
  y: 0.0
  z: 0.16666666666666663
---
linear:
  x: 0.05905138332473078
  y: 0.0
  z: 0.0
angular:
  x: 0.0
  y: 0.0
  z: 0.16666666666666666
---
linear:
  x: 0.05905138332473078
  y: 0.0
  z: 0.0
angular:
  x: 0.0
  y: 0.0
  z: 0.16666666666666666
---
linear:
  x: 0.06267639883344492
  y: 0.0
  z: 0.0
angular:
  x: 0.0
  y: 0.0
  z: 0.16666666666666666
---
linear:
  x: 0.06267639883344492
  y: 0.0
  z: 0.0
angular:
  x: 0.0
  y: 0.0
  z: 0.16666666666666666
---
linear:
  x: 0.06974303277219378
  y: 0.0
  z: 0.0
angular:
  x: 0.0
  y: 0.0
  z: 0.16666666666666669
---
linear:
  x: 0.06974303277219378
  y: 0.0
  z: 0.0
angular:
  x: 0.0
  y: 0.0
  z: 0.16666666666666669
---
linear:
  x: 0.07225247897787304
  y: 0.0
  z: 0.0
angular:
  x: 0.0
  y: 0.0
  z: 0.16666666666666669
---
linear:
  x: 0.07225247897787304
  y: 0.0
  z: 0.0
angular:
  x: 0.0
  y: 0.0
  z: 0.16666666666666669
---
linear:
  x: 0.07269393914100025
  y: 0.0
  z: 0.0
angular:
  x: 0.0
  y: 0.0
  z: 0.16666666666666666
---
linear:
  x: 0.07269393914100025
  y: 0.0
  z: 0.0
angular:
  x: 0.0
  y: 0.0
  z: 0.16666666666666666
---
linear:
  x: 0.07434221018472467
  y: 0.0
  z: 0.0
angular:
  x: 0.0
  y: 0.0
  z: 0.16666666666666666
---
linear:
  x: 0.07434221018472467
  y: 0.0
  z: 0.0
angular:
  x: 0.0
  y: 0.0
  z: 0.16666666666666666
---
linear:
  x: 0.07919144222383719
  y: 0.0
  z: 0.0
angular:
  x: 0.0
  y: 0.0
  z: 0.16666666666666666
---
linear:
  x: 0.07919144222383719
  y: 0.0
  z: 0.0
angular:
  x: 0.0
  y: 0.0
  z: 0.16666666666666666
---
linear:
  x: 0.08025191520422148
  y: 0.0
  z: 0.0
angular:
  x: 0.0
  y: 0.0
  z: 0.16666666666666663
---
linear:
  x: 0.08025191520422148
  y: 0.0
  z: 0.0
angular:
  x: 0.0
  y: 0.0
  z: 0.16666666666666663
---
linear:
  x: 0.07472867375851336
  y: 0.0
  z: 0.0
angular:
  x: 0.0
  y: 0.0
  z: 0.16666666666666666
---
linear:
  x: 0.07472867375851336
  y: 0.0
  z: 0.0
angular:
  x: 0.0
  y: 0.0
  z: 0.16666666666666666
---
linear:
  x: 0.07290364978943652
  y: 0.0
  z: 0.0
angular:
  x: 0.0
  y: 0.0
  z: 0.16666666666666663
---
linear:
  x: 0.07290364978943652
  y: 0.0
  z: 0.0
angular:
  x: 0.0
  y: 0.0
  z: 0.16666666666666663
---
linear:
  x: 0.07494323639608345
  y: 0.0
  z: 0.0
angular:
  x: 0.0
  y: 0.0
  z: 0.16666666666666666
---
linear:
  x: 0.07494323639608345
  y: 0.0
  z: 0.0
angular:
  x: 0.0
  y: 0.0
  z: 0.16666666666666666
---
linear:
  x: 0.07709059936506052
  y: 0.0
  z: 0.0
angular:
  x: 0.0
  y: 0.0
  z: 0.16666666666666663
---
linear:
  x: 0.07709059936506052
  y: 0.0
  z: 0.0
angular:
  x: 0.0
  y: 0.0
  z: 0.16666666666666663
---
linear:
  x: 0.07973210388169097
  y: 0.0
  z: 0.0
angular:
  x: 0.0
  y: 0.0
  z: 0.16666666666666663
---
linear:
  x: 0.07973210388169097
  y: 0.0
  z: 0.0
angular:
  x: 0.0
  y: 0.0
  z: 0.16666666666666663
---
linear:
  x: 0.08004559910303229
  y: 0.0
  z: 0.0
angular:
  x: 0.0
  y: 0.0
  z: 0.16666666666666663
---
linear:
  x: 0.08004559910303229
  y: 0.0
  z: 0.0
angular:
  x: 0.0
  y: 0.0
  z: 0.16666666666666663
---
linear:
  x: 0.08425688819354762
  y: 0.0
  z: 0.0
angular:
  x: 0.0
  y: 0.0
  z: 0.16666666666666666
---
linear:
  x: 0.08425688819354762
  y: 0.0
  z: 0.0
angular:
  x: 0.0
  y: 0.0
  z: 0.16666666666666666
---
linear:
  x: 0.0854649069353821
  y: 0.0
  z: 0.0
angular:
  x: 0.0
  y: 0.0
  z: 0.16666666666666666
---
linear:
  x: 0.0854649069353821
  y: 0.0
  z: 0.0
angular:
  x: 0.0
  y: 0.0
  z: 0.16666666666666666
---
linear:
  x: 0.11715283194131007
  y: 0.0
  z: 0.0
angular:
  x: 0.0
  y: 0.0
  z: 0.16666666666666666
---
linear:
  x: 0.11715283194131007
  y: 0.0
  z: 0.0
angular:
  x: 0.0
  y: 0.0
  z: 0.16666666666666666
---
linear:
  x: 0.1292273565560841
  y: 0.0
  z: 0.0
angular:
  x: 0.0
  y: 0.0
  z: 0.16666666666666666
---
linear:
  x: 0.1292273565560841
  y: 0.0
  z: 0.0
angular:
  x: 0.0
  y: 0.0
  z: 0.16666666666666666
---
linear:
  x: 0.13824665381263898
  y: 0.0
  z: 0.0
angular:
  x: 0.0
  y: 0.0
  z: 0.16666666666666666
---
linear:
  x: 0.13824665381263898
  y: 0.0
  z: 0.0
angular:
  x: 0.0
  y: 0.0
  z: 0.16666666666666666
---
linear:
  x: 0.14216205845474014
  y: 0.0
  z: 0.0
angular:
  x: 0.0
  y: 0.0
  z: 0.16666666666666663
---
linear:
  x: 0.14216205845474014
  y: 0.0
  z: 0.0
angular:
  x: 0.0
  y: 0.0
  z: 0.16666666666666663
---
linear:
  x: 0.15
  y: 0.0
  z: 0.0
angular:
  x: 0.0
  y: 0.0
  z: 0.1631801798633805
---
linear:
  x: 0.15
  y: 0.0
  z: 0.0
angular:
  x: 0.0
  y: 0.0
  z: 0.1631801798633805
---
linear:
  x: 0.15
  y: 0.0
  z: 0.0
angular:
  x: 0.0
  y: 0.0
  z: 0.14103202222881484
---
linear:
  x: 0.15
  y: 0.0
  z: 0.0
angular:
  x: 0.0
  y: 0.0
  z: 0.14103202222881484
---
linear:
  x: 0.15
  y: 0.0
  z: 0.0
angular:
  x: 0.0
  y: 0.0
  z: 0.12349021980473524
---
linear:
  x: 0.15
  y: 0.0
  z: 0.0
angular:
  x: 0.0
  y: 0.0
  z: 0.12349021980473524
---
linear:
  x: 0.15
  y: 0.0
  z: 0.0
angular:
  x: 0.0
  y: 0.0
  z: 0.10456946510171587
---
linear:
  x: 0.15
  y: 0.0
  z: 0.0
angular:
  x: 0.0
  y: 0.0
  z: 0.10456946510171587
---
linear:
  x: 0.15
  y: 0.0
  z: 0.0
angular:
  x: 0.0
  y: 0.0
  z: 0.07353868547451593
---
linear:
  x: 0.15
  y: 0.0
  z: 0.0
angular:
  x: 0.0
  y: 0.0
  z: 0.07353868547451593
---
linear:
  x: 0.15
  y: 0.0
  z: 0.0
angular:
  x: 0.0
  y: 0.0
  z: 0.08799779465744871
---
linear:
  x: 0.15
  y: 0.0
  z: 0.0
angular:
  x: 0.0
  y: 0.0
  z: 0.08799779465744871
---
linear:
  x: 0.15
  y: 0.0
  z: 0.0
angular:
  x: 0.0
  y: 0.0
  z: 0.13931656559309086
---
linear:
  x: 0.15
  y: 0.0
  z: 0.0
angular:
  x: 0.0
  y: 0.0
  z: 0.13931656559309086
---
linear:
  x: 0.0
  y: 0.0
  z: 0.0
angular:
  x: 0.0
  y: 0.0
  z: 0.0
---
linear:
  x: 0.0
  y: 0.0
  z: 0.0
angular:
  x: 0.0
  y: 0.0
  z: 0.0
---
linear:
  x: 0.07744956500526326
  y: 0.0
  z: 0.0
angular:
  x: 0.0
  y: 0.0
  z: 0.16666666666666666
---
linear:
  x: 0.07744956500526326
  y: 0.0
  z: 0.0
angular:
  x: 0.0
  y: 0.0
  z: 0.16666666666666666
---
linear:
  x: 0.05851347855741082
  y: 0.0
  z: 0.0
angular:
  x: 0.0
  y: 0.0
  z: 0.16666666666666666
---
linear:
  x: 0.05851347855741082
  y: 0.0
  z: 0.0
angular:
  x: 0.0
  y: 0.0
  z: 0.16666666666666666
---
linear:
  x: 0.0
  y: 0.0
  z: 0.0
angular:
  x: 0.0
  y: 0.0
  z: 0.0
---
linear:
  x: 0.0
  y: 0.0
  z: 0.0
angular:
  x: 0.0
  y: 0.0
  z: 0.0
---
linear:
  x: 0.06063115541905556
  y: 0.0
  z: 0.0
angular:
  x: 0.0
  y: 0.0
  z: 0.16666666666666666
---
linear:
  x: 0.06063115541905556
  y: 0.0
  z: 0.0
angular:
  x: 0.0
  y: 0.0
  z: 0.16666666666666666
---
linear:
  x: 0.060690953821662064
  y: 0.0
  z: 0.0
angular:
  x: 0.0
  y: 0.0
  z: 0.16666666666666669
---
linear:
  x: 0.060690953821662064
  y: 0.0
  z: 0.0
angular:
  x: 0.0
  y: 0.0
  z: 0.16666666666666669
---
linear:
  x: 0.06055317485736275
  y: 0.0
  z: 0.0
angular:
  x: 0.0
  y: 0.0
  z: 0.16666666666666666
---
linear:
  x: 0.06055317485736275
  y: 0.0
  z: 0.0
angular:
  x: 0.0
  y: 0.0
  z: 0.16666666666666666
---
linear:
  x: 0.06060320291548543
  y: 0.0
  z: 0.0
angular:
  x: 0.0
  y: 0.0
  z: 0.16666666666666663
---
linear:
  x: 0.06060320291548543
  y: 0.0
  z: 0.0
angular:
  x: 0.0
  y: 0.0
  z: 0.16666666666666663
---
linear:
  x: 0.06752110302617187
  y: 0.0
  z: 0.0
angular:
  x: 0.0
  y: 0.0
  z: 0.16666666666666666
---
linear:
  x: 0.06752110302617187
  y: 0.0
  z: 0.0
angular:
  x: 0.0
  y: 0.0
  z: 0.16666666666666666
---
linear:
  x: 0.06895809492935243
  y: 0.0
  z: 0.0
angular:
  x: 0.0
  y: 0.0
  z: 0.16666666666666663
---
linear:
  x: 0.06895809492935243
  y: 0.0
  z: 0.0
angular:
  x: 0.0
  y: 0.0
  z: 0.16666666666666663
---
linear:
  x: 0.0
  y: 0.0
  z: 0.0
angular:
  x: 0.0
  y: 0.0
  z: 0.0
---
linear:
  x: 0.0
  y: 0.0
  z: 0.0
angular:
  x: 0.0
  y: 0.0
  z: 0.0
---
linear:
  x: 0.0
  y: 0.0
  z: 0.0
angular:
  x: 0.0
  y: 0.0
  z: 0.0
---
linear:
  x: 0.0
  y: 0.0
  z: 0.0
angular:
  x: 0.0
  y: 0.0
  z: 0.0
---
linear:
  x: 0.0
  y: 0.0
  z: 0.0
angular:
  x: 0.0
  y: 0.0
  z: 0.0
---
