header:
  stamp:
    sec: 1778498779
    nanosec: 582000000
  frame_id: odom
child_frame_id: base_footprint
pose:
  pose:
    position:
      x: 0.38345676175931864
      y: 0.10090268478817724
      z: 0.0
    orientation:
      x: 0.0
      y: 0.0
      z: -0.09350441029209484
      w: 0.9956188654580264
  covariance: '<array type: double[36]>'
twist:
  twist:
    linear:
      x: -1.4052699514305035e-89
      y: 0.0
      z: 0.0
    angular:
      x: 0.0
      y: 0.0
      z: -8.160865572926419e-19
  covariance: '<array type: double[36]>'
---
header:
  stamp:
    sec: 1778498779
    nanosec: 662000000
  frame_id: odom
child_frame_id: base_footprint
pose:
  pose:
    position:
      x: 0.38345676175931864
      y: 0.10090268478817724
      z: 0.0
    orientation:
      x: 0.0
      y: 0.0
      z: -0.09350441678194132
      w: 0.9956188648485268
  covariance: '<array type: double[36]>'
twist:
  twist:
    linear:
      x: -9.32134212310747e-90
      y: 0.0
      z: 0.0
    angular:
      x: 0.0
      y: 0.0
      z: -4.7559464694308564e-14
  covariance: '<array type: double[36]>'
---
header:
  stamp:
    sec: 1778498779
    nanosec: 784000000
  frame_id: odom
child_frame_id: base_footprint
pose:
  pose:
    position:
      x: 0.38345676175931864
      y: 0.10090268478817724
      z: 0.0
    orientation:
      x: 0.0
      y: 0.0
      z: -0.09349086840090573
      w: 0.9956201371635893
  covariance: '<array type: double[36]>'
twist:
  twist:
    linear:
      x: -1.2953631822677217e-89
      y: 0.0
      z: 0.0
    angular:
      x: 0.0
      y: 0.0
      z: 7.086350007884346e-19
  covariance: '<array type: double[36]>'
---
header:
  stamp:
    sec: 1778498779
    nanosec: 862000000
  frame_id: odom
child_frame_id: base_footprint
pose:
  pose:
    position:
      x: 0.38345676175931864
      y: 0.10090268478817724
      z: 0.0
    orientation:
      x: 0.0
      y: 0.0
      z: -0.0934908381415595
      w: 0.9956201400050065
  covariance: '<array type: double[36]>'
twist:
  twist:
    linear:
      x: -1.4255673675785477e-89
      y: 0.0
      z: 0.0
    angular:
      x: 0.0
      y: 0.0
      z: 2.966980896946562e-19
  covariance: '<array type: double[36]>'
---
header:
  stamp:
    sec: 1778498779
    nanosec: 983000000
  frame_id: odom
child_frame_id: base_footprint
pose:
  pose:
    position:
      x: 0.38345676175931864
      y: 0.10090268478817724
      z: 0.0
    orientation:
      x: 0.0
      y: 0.0
      z: -0.0934998597628349
      w: 0.9956192928144423
  covariance: '<array type: double[36]>'
twist:
  twist:
    linear:
      x: -2.165249482767359e-89
      y: 0.0
      z: 0.0
    angular:
      x: 0.0
      y: 0.0
      z: -9.166207237085519e-19
  covariance: '<array type: double[36]>'
---
header:
  stamp:
    sec: 1778498780
    nanosec: 63000000
  frame_id: odom
child_frame_id: base_footprint
pose:
  pose:
    position:
      x: 0.38345676175931864
      y: 0.10090268478817724
      z: 0.0
    orientation:
      x: 0.0
      y: 0.0
      z: -0.09350143790816758
      w: 0.9956191446075678
  covariance: '<array type: double[36]>'
twist:
  twist:
    linear:
      x: -1.4294581796261034e-89
      y: 0.0
      z: 0.0
    angular:
      x: 0.0
      y: 0.0
      z: -9.232596475632047e-19
  covariance: '<array type: double[36]>'
---
header:
  stamp:
    sec: 1778498780
    nanosec: 187000000
  frame_id: odom
child_frame_id: base_footprint
pose:
  pose:
    position:
      x: 0.38345676175931864
      y: 0.10090268478817724
      z: 0.0
    orientation:
      x: 0.0
      y: 0.0
      z: -0.09347280484921194
      w: 0.9956218332045662
  covariance: '<array type: double[36]>'
twist:
  twist:
    linear:
      x: -4.0499064117217525e-90
      y: 0.0
      z: 0.0
    angular:
      x: 0.0
      y: 0.0
      z: 6.148579185010605e-14
  covariance: '<array type: double[36]>'
---
header:
  stamp:
    sec: 1778498780
    nanosec: 271000000
  frame_id: odom
child_frame_id: base_footprint
pose:
  pose:
    position:
      x: 0.38345676175931864
      y: 0.10090268478817724
      z: 0.0
    orientation:
      x: 0.0
      y: 0.0
      z: -0.0934679404175731
      w: 0.9956222898841192
  covariance: '<array type: double[36]>'
twist:
  twist:
    linear:
      x: -2.4044088170085445e-90
      y: 0.0
      z: 0.0
    angular:
      x: 0.0
      y: 0.0
      z: 4.730920151927236e-14
  covariance: '<array type: double[36]>'
---
header:
  stamp:
    sec: 1778498780
    nanosec: 384000000
  frame_id: odom
child_frame_id: base_footprint
pose:
  pose:
    position:
      x: 0.38345676175931864
      y: 0.10090268478817724
      z: 0.0
    orientation:
      x: 0.0
      y: 0.0
      z: -0.09347888040427159
      w: 0.9956212627894022
  covariance: '<array type: double[36]>'
twist:
  twist:
    linear:
      x: -6.487298776085124e-90
      y: 0.0
      z: 0.0
    angular:
      x: 0.0
      y: 0.0
      z: -3.536956708514668e-14
  covariance: '<array type: double[36]>'
---
header:
  stamp:
    sec: 1778498780
    nanosec: 462000000
  frame_id: odom
child_frame_id: base_footprint
pose:
  pose:
    position:
      x: 0.38345676175931864
      y: 0.10090268478817724
      z: 0.0
    orientation:
      x: 0.0
      y: 0.0
      z: -0.09347741793803478
      w: 0.9956214000992737
  covariance: '<array type: double[36]>'
twist:
  twist:
    linear:
      x: -4.138122468236661e-90
      y: 0.0
      z: 0.0
    angular:
      x: 0.0
      y: 0.0
      z: -3.58859236688562e-14
  covariance: '<array type: double[36]>'
---
header:
  stamp:
    sec: 1778498780
    nanosec: 582000000
  frame_id: odom
child_frame_id: base_footprint
pose:
  pose:
    position:
      x: 0.38345676175931864
      y: 0.10090268478817724
      z: 0.0
    orientation:
      x: 0.0
      y: 0.0
      z: -0.0934582166506669
      w: 0.9956232026929048
  covariance: '<array type: double[36]>'
twist:
  twist:
    linear:
      x: -9.397988383506155e-90
      y: 0.0
      z: 0.0
    angular:
      x: 0.0
      y: 0.0
      z: 7.55991393013579e-19
  covariance: '<array type: double[36]>'
---
header:
  stamp:
    sec: 1778498780
    nanosec: 663000000
  frame_id: odom
child_frame_id: base_footprint
pose:
  pose:
    position:
      x: 0.38345676175931864
      y: 0.10090268478817724
      z: 0.0
    orientation:
      x: 0.0
      y: 0.0
      z: -0.09346323113450937
      w: 0.9956227319752685
  covariance: '<array type: double[36]>'
twist:
  twist:
    linear:
      x: -7.089475488038747e-90
      y: 0.0
      z: 0.0
    angular:
      x: 0.0
      y: 0.0
      z: 9.578450160110299e-19
  covariance: '<array type: double[36]>'
---
header:
  stamp:
    sec: 1778498780
    nanosec: 782000000
  frame_id: odom
child_frame_id: base_footprint
pose:
  pose:
    position:
      x: 0.38345676175931864
      y: 0.10090268478817724
      z: 0.0
    orientation:
      x: 0.0
      y: 0.0
      z: -0.0934533050140762
      w: 0.9956236637314051
  covariance: '<array type: double[36]>'
twist:
  twist:
    linear:
      x: -9.382975894762873e-90
      y: 0.0
      z: 0.0
    angular:
      x: 0.0
      y: 0.0
      z: 3.639674618908805e-19
  covariance: '<array type: double[36]>'
---
header:
  stamp:
    sec: 1778498780
    nanosec: 829000000
  frame_id: odom
child_frame_id: base_footprint
pose:
  pose:
    position:
      x: 0.38345676175931864
      y: 0.10090268478817724
      z: 0.0
    orientation:
      x: 0.0
      y: 0.0
      z: -0.09345837468903992
      w: 0.9956231878579782
  covariance: '<array type: double[36]>'
twist:
  twist:
    linear:
      x: -2.699482355252986e-90
      y: 0.0
      z: 0.0
    angular:
      x: 0.0
      y: 0.0
      z: -1.2121852954279203e-14
  covariance: '<array type: double[36]>'
---
header:
  stamp:
    sec: 1778498780
    nanosec: 982000000
  frame_id: odom
child_frame_id: base_footprint
pose:
  pose:
    position:
      x: 0.38345676175931864
      y: 0.10090268478817724
      z: 0.0
    orientation:
      x: 0.0
      y: 0.0
      z: -0.09345439122620242
      w: 0.9956235617744992
  covariance: '<array type: double[36]>'
twist:
  twist:
    linear:
      x: -4.87657904919244e-91
      y: 0.0
      z: 0.0
    angular:
      x: 0.0
      y: 0.0
      z: -1.636359066116577e-20
  covariance: '<array type: double[36]>'
---
header:
  stamp:
    sec: 1778498781
    nanosec: 76000000
  frame_id: odom
child_frame_id: base_footprint
pose:
  pose:
    position:
      x: 0.38345676175931864
      y: 0.10090268478817724
      z: 0.0
    orientation:
      x: 0.0
      y: 0.0
      z: -0.09344914023770813
      w: 0.9956240546455439
  covariance: '<array type: double[36]>'
twist:
  twist:
    linear:
      x: -4.6683278203292316e-91
      y: 0.0
      z: 0.0
    angular:
      x: 0.0
      y: 0.0
      z: 3.652650002289361e-20
  covariance: '<array type: double[36]>'
---
header:
  stamp:
    sec: 1778498781
    nanosec: 184000000
  frame_id: odom
child_frame_id: base_footprint
pose:
  pose:
    position:
      x: 0.38345676175931864
      y: 0.10090268478817724
      z: 0.0
    orientation:
      x: 0.0
      y: 0.0
      z: -0.09344642734129892
      w: 0.9956243092739084
  covariance: '<array type: double[36]>'
twist:
  twist:
    linear:
      x: -2.737073956463769e-90
      y: 0.0
      z: 0.0
    angular:
      x: 0.0
      y: 0.0
      z: 1.3932339109093533e-15
  covariance: '<array type: double[36]>'
---
header:
  stamp:
    sec: 1778498781
    nanosec: 262000000
  frame_id: odom
child_frame_id: base_footprint
pose:
  pose:
    position:
      x: 0.38345676175931864
      y: 0.10090268478817724
      z: 0.0
    orientation:
      x: 0.0
      y: 0.0
      z: -0.09344295425265672
      w: 0.9956246352418847
  covariance: '<array type: double[36]>'
twist:
  twist:
    linear:
      x: -1.502673342573197e-90
      y: 0.0
      z: 0.0
    angular:
      x: 0.0
      y: 0.0
      z: 5.5873105257220716e-15
  covariance: '<array type: double[36]>'
---
header:
  stamp:
    sec: 1778498781
    nanosec: 382000000
  frame_id: odom
child_frame_id: base_footprint
pose:
  pose:
    position:
      x: 0.38345676175931864
      y: 0.10090268478817724
      z: 0.0
    orientation:
      x: 0.0
      y: 0.0
      z: -0.09344099506286235
      w: 0.9956248191169513
  covariance: '<array type: double[36]>'
twist:
  twist:
    linear:
      x: -4.498206079251991e-90
      y: 0.0
      z: 0.0
    angular:
      x: 0.0
      y: 0.0
      z: -3.77687736956859e-20
  covariance: '<array type: double[36]>'
---
header:
  stamp:
    sec: 1778498781
    nanosec: 468000000
  frame_id: odom
child_frame_id: base_footprint
pose:
  pose:
    position:
      x: 0.38345676175931864
      y: 0.10090268478817724
      z: 0.0
    orientation:
      x: 0.0
      y: 0.0
      z: -0.09343836101017493
      w: 0.9956250663235293
  covariance: '<array type: double[36]>'
twist:
  twist:
    linear:
      x: -1.7081909659306349e-90
      y: 0.0
      z: 0.0
    angular:
      x: 0.0
      y: 0.0
      z: -1.3323948131188612e-15
  covariance: '<array type: double[36]>'
---
header:
  stamp:
    sec: 1778498781
    nanosec: 583000000
  frame_id: odom
child_frame_id: base_footprint
pose:
  pose:
    position:
      x: 0.38345676175931864
      y: 0.10090268478817724
      z: 0.0
    orientation:
      x: 0.0
      y: 0.0
      z: -0.09343429123008624
      w: 0.9956254482597015
  covariance: '<array type: double[36]>'
twist:
  twist:
    linear:
      x: -5.837040663949867e-90
      y: 0.0
      z: 0.0
    angular:
      x: 0.0
      y: 0.0
      z: 5.544993598671385e-20
  covariance: '<array type: double[36]>'
---
header:
  stamp:
    sec: 1778498781
    nanosec: 662000000
  frame_id: odom
child_frame_id: base_footprint
pose:
  pose:
    position:
      x: 0.38345676175931864
      y: 0.10090268478817724
      z: 0.0
    orientation:
      x: 0.0
      y: 0.0
      z: -0.09343245339245335
      w: 0.9956256207295325
  covariance: '<array type: double[36]>'
twist:
  twist:
    linear:
      x: -4.478033458105154e-90
      y: 0.0
      z: 0.0
    angular:
      x: 0.0
      y: 0.0
      z: -4.3865590324328e-20
  covariance: '<array type: double[36]>'
---
header:
  stamp:
    sec: 1778498781
    nanosec: 782000000
  frame_id: odom
child_frame_id: base_footprint
pose:
  pose:
    position:
      x: 0.38345676175931864
      y: 0.10090268478817724
      z: 0.0
    orientation:
      x: 0.0
      y: 0.0
      z: -0.09342728124432215
      w: 0.9956261060856603
  covariance: '<array type: double[36]>'
twist:
  twist:
    linear:
      x: -6.764122732669849e-90
      y: 0.0
      z: 0.0
    angular:
      x: 0.0
      y: 0.0
      z: -5.392803123385111e-20
  covariance: '<array type: double[36]>'
---
header:
  stamp:
    sec: 1778498781
    nanosec: 881000000
  frame_id: odom
child_frame_id: base_footprint
pose:
  pose:
    position:
      x: 0.38345676175931864
      y: 0.10090268478817724
      z: 0.0
    orientation:
      x: 0.0
      y: 0.0
      z: -0.09342340079638621
      w: 0.9956264702104086
  covariance: '<array type: double[36]>'
twist:
  twist:
    linear:
      x: -2.79809552434401e-91
      y: 0.0
      z: 0.0
    angular:
      x: 0.0
      y: 0.0
      z: 1.7121710756620603e-20
  covariance: '<array type: double[36]>'
---
header:
  stamp:
    sec: 1778498781
    nanosec: 982000000
  frame_id: odom
child_frame_id: base_footprint
pose:
  pose:
    position:
      x: 0.38345676175931864
      y: 0.10090268478817724
      z: 0.0
    orientation:
      x: 0.0
      y: 0.0
      z: -0.09342203182345817
      w: 0.9956265986653715
  covariance: '<array type: double[36]>'
twist:
  twist:
    linear:
      x: -8.839532813356814e-91
      y: 0.0
      z: 0.0
    angular:
      x: 0.0
      y: 0.0
      z: -1.2873455511344524e-14
  covariance: '<array type: double[36]>'
---
header:
  stamp:
    sec: 1778498782
    nanosec: 73000000
  frame_id: odom
child_frame_id: base_footprint
pose:
  pose:
    position:
      x: 0.38345676175931864
      y: 0.10090268478817724
      z: 0.0
    orientation:
      x: 0.0
      y: 0.0
      z: -0.09341966707107414
      w: 0.9956268205529267
  covariance: '<array type: double[36]>'
twist:
  twist:
    linear:
      x: -8.998987433548196e-91
      y: 0.0
      z: 0.0
    angular:
      x: 0.0
      y: 0.0
      z: -1.2250253677451351e-14
  covariance: '<array type: double[36]>'
---
header:
  stamp:
    sec: 1778498782
    nanosec: 183000000
  frame_id: odom
child_frame_id: base_footprint
pose:
  pose:
    position:
      x: 0.38345676175931864
      y: 0.10090268478817724
      z: 0.0
    orientation:
      x: 0.0
      y: 0.0
      z: -0.09341495632828853
      w: 0.9956272625506917
  covariance: '<array type: double[36]>'
twist:
  twist:
    linear:
      x: -1.086200303234736e-90
      y: 0.0
      z: 0.0
    angular:
      x: 0.0
      y: 0.0
      z: 2.5648199589976202e-15
  covariance: '<array type: double[36]>'
---
header:
  stamp:
    sec: 1778498782
    nanosec: 262000000
  frame_id: odom
child_frame_id: base_footprint
pose:
  pose:
    position:
      x: 0.38345676175931864
      y: 0.10090268478817724
      z: 0.0
    orientation:
      x: 0.0
      y: 0.0
      z: -0.09341384066308052
      w: 0.9956273672276051
  covariance: '<array type: double[36]>'
twist:
  twist:
    linear:
      x: -1.2646395533997883e-90
      y: 0.0
      z: 0.0
    angular:
      x: 0.0
      y: 0.0
      z: -7.221463500781993e-15
  covariance: '<array type: double[36]>'
---
header:
  stamp:
    sec: 1778498782
    nanosec: 383000000
  frame_id: odom
child_frame_id: base_footprint
pose:
  pose:
    position:
      x: 0.38345676175931864
      y: 0.10090268478817724
      z: 0.0
    orientation:
      x: 0.0
      y: 0.0
      z: -0.09340001354189179
      w: 0.9956286644479329
  covariance: '<array type: double[36]>'
twist:
  twist:
    linear:
      x: -3.007605517680736e-90
      y: 0.0
      z: 0.0
    angular:
      x: 0.0
      y: 0.0
      z: 6.542599801993653e-19
  covariance: '<array type: double[36]>'
---
header:
  stamp:
    sec: 1778498782
    nanosec: 462000000
  frame_id: odom
child_frame_id: base_footprint
pose:
  pose:
    position:
      x: 0.38345676175931864
      y: 0.10090268478817724
      z: 0.0
    orientation:
      x: 0.0
      y: 0.0
      z: -0.09340529221445358
      w: 0.9956281692410739
  covariance: '<array type: double[36]>'
twist:
  twist:
    linear:
      x: -2.218360226395491e-90
      y: 0.0
      z: 0.0
    angular:
      x: 0.0
      y: 0.0
      z: 8.975430390323282e-19
  covariance: '<array type: double[36]>'
---
header:
  stamp:
    sec: 1778498782
    nanosec: 583000000
  frame_id: odom
child_frame_id: base_footprint
pose:
  pose:
    position:
      x: 0.38345676175931864
      y: 0.10090268478817724
      z: 0.0
    orientation:
      x: 0.0
      y: 0.0
      z: -0.09340165075843564
      w: 0.9956285108591453
  covariance: '<array type: double[36]>'
twist:
  twist:
    linear:
      x: -3.5606953579419462e-90
      y: 0.0
      z: 0.0
    angular:
      x: 0.0
      y: 0.0
      z: 1.566707675222931e-19
  covariance: '<array type: double[36]>'
---
header:
  stamp:
    sec: 1778498782
    nanosec: 671000000
  frame_id: odom
child_frame_id: base_footprint
pose:
  pose:
    position:
      x: 0.38345676175931864
      y: 0.10090268478817724
      z: 0.0
    orientation:
      x: 0.0
      y: 0.0
      z: -0.09339224463890432
      w: 0.9956293932188357
  covariance: '<array type: double[36]>'
twist:
  twist:
    linear:
      x: -3.367634168413079e-90
      y: 0.0
      z: 0.0
    angular:
      x: 0.0
      y: 0.0
      z: 3.268062471010649e-19
  covariance: '<array type: double[36]>'
---
header:
  stamp:
    sec: 1778498782
    nanosec: 782000000
  frame_id: odom
child_frame_id: base_footprint
pose:
  pose:
    position:
      x: 0.38345676175931864
      y: 0.10090268478817724
      z: 0.0
    orientation:
      x: 0.0
      y: 0.0
      z: -0.09339220656031745
      w: 0.9956293967906908
  covariance: '<array type: double[36]>'
twist:
  twist:
    linear:
      x: -1.584612771559533e-91
      y: 0.0
      z: 0.0
    angular:
      x: 0.0
      y: 0.0
      z: 2.510391192753267e-20
  covariance: '<array type: double[36]>'
---
header:
  stamp:
    sec: 1778498782
    nanosec: 885000000
  frame_id: odom
child_frame_id: base_footprint
pose:
  pose:
    position:
      x: 0.38345676175931864
      y: 0.10090268478817724
      z: 0.0
    orientation:
      x: 0.0
      y: 0.0
      z: -0.09340510960934466
      w: 0.9956281863722352
  covariance: '<array type: double[36]>'
twist:
  twist:
    linear:
      x: -1.4916837528551838e-91
      y: 0.0
      z: 0.0
    angular:
      x: 0.0
      y: 0.0
      z: -1.20150233387861e-19
  covariance: '<array type: double[36]>'
---
header:
  stamp:
    sec: 1778498782
    nanosec: 982000000
  frame_id: odom
child_frame_id: base_footprint
pose:
  pose:
    position:
      x: 0.38345676175931864
      y: 0.10090268478817724
      z: 0.0
    orientation:
      x: 0.0
      y: 0.0
      z: -0.09340255704752184
      w: 0.995628425838166
  covariance: '<array type: double[36]>'
twist:
  twist:
    linear:
      x: -1.3998071236816164e-91
      y: 0.0
      z: 0.0
    angular:
      x: 0.0
      y: 0.0
      z: -7.105264633007181e-20
  covariance: '<array type: double[36]>'
---
header:
  stamp:
    sec: 1778498783
    nanosec: 62000000
  frame_id: odom
child_frame_id: base_footprint
pose:
  pose:
    position:
      x: 0.38345676175931864
      y: 0.10090268478817724
      z: 0.0
    orientation:
      x: 0.0
      y: 0.0
      z: -0.09336365857899297
      w: 0.995632074240653
  covariance: '<array type: double[36]>'
twist:
  twist:
    linear:
      x: -4.798497846584818e-91
      y: 0.0
      z: 0.0
    angular:
      x: 0.0
      y: 0.0
      z: 6.145034465952872e-14
  covariance: '<array type: double[36]>'
---
header:
  stamp:
    sec: 1778498783
    nanosec: 184000000
  frame_id: odom
child_frame_id: base_footprint
pose:
  pose:
    position:
      x: 0.38345676175931864
      y: 0.10090268478817724
      z: 0.0
    orientation:
      x: 0.0
      y: 0.0
      z: -0.09337121022769222
      w: 0.995631366069097
  covariance: '<array type: double[36]>'
twist:
  twist:
    linear:
      x: -1.5062411329147472e-90
      y: 0.0
      z: 0.0
    angular:
      x: 0.0
      y: 0.0
      z: -1.0578005890056086e-18
  covariance: '<array type: double[36]>'
---
header:
  stamp:
    sec: 1778498783
    nanosec: 262000000
  frame_id: odom
child_frame_id: base_footprint
pose:
  pose:
    position:
      x: 0.38345676175931864
      y: 0.10090268478817724
      z: 0.0
    orientation:
      x: 0.0
      y: 0.0
      z: -0.09337063863204462
      w: 0.9956314196736884
  covariance: '<array type: double[36]>'
twist:
  twist:
    linear:
      x: -1.050305546511422e-90
      y: 0.0
      z: 0.0
    angular:
      x: 0.0
      y: 0.0
      z: 4.8261908657554135e-14
  covariance: '<array type: double[36]>'
---
header:
  stamp:
    sec: 1778498783
    nanosec: 382000000
  frame_id: odom
child_frame_id: base_footprint
pose:
  pose:
    position:
      x: 0.38345676175931864
      y: 0.10090268478817724
      z: 0.0
    orientation:
      x: 0.0
      y: 0.0
      z: -0.09339703405373714
      w: 0.9956289439494842
  covariance: '<array type: double[36]>'
twist:
  twist:
    linear:
      x: -1.8413824997618892e-90
      y: 0.0
      z: 0.0
    angular:
      x: 0.0
      y: 0.0
      z: -8.890384230045018e-19
  covariance: '<array type: double[36]>'
---
header:
  stamp:
    sec: 1778498783
    nanosec: 463000000
  frame_id: odom
child_frame_id: base_footprint
pose:
  pose:
    position:
      x: 0.38345676175931864
      y: 0.10090268478817724
      z: 0.0
    orientation:
      x: 0.0
      y: 0.0
      z: -0.09339289866869958
      w: 0.9956293318691741
  covariance: '<array type: double[36]>'
twist:
  twist:
    linear:
      x: -1.518891025577545e-90
      y: 0.0
      z: 0.0
    angular:
      x: 0.0
      y: 0.0
      z: -8.346666883773056e-19
  covariance: '<array type: double[36]>'
---
header:
  stamp:
    sec: 1778498783
    nanosec: 582000000
  frame_id: odom
child_frame_id: base_footprint
pose:
  pose:
    position:
      x: 0.38345676175931864
      y: 0.10090268478817724
      z: 0.0
    orientation:
      x: 0.0
      y: 0.0
      z: -0.0933643240973589
      w: 0.9956320118326064
  covariance: '<array type: double[36]>'
twist:
  twist:
    linear:
      x: -2.1663423828272014e-90
      y: 0.0
      z: 0.0
    angular:
      x: 0.0
      y: 0.0
      z: 4.9399293417699615e-19
  covariance: '<array type: double[36]>'
---
header:
  stamp:
    sec: 1778498783
    nanosec: 663000000
  frame_id: odom
child_frame_id: base_footprint
pose:
  pose:
    position:
      x: 0.38345676175931864
      y: 0.10090268478817724
      z: 0.0
    orientation:
      x: 0.0
      y: 0.0
      z: -0.09335810764214945
      w: 0.995632594754449
  covariance: '<array type: double[36]>'
twist:
  twist:
    linear:
      x: -1.4910507989692353e-90
      y: 0.0
      z: 0.0
    angular:
      x: 0.0
      y: 0.0
      z: 6.360398992583895e-19
  covariance: '<array type: double[36]>'
---
header:
  stamp:
    sec: 1778498783
    nanosec: 785000000
  frame_id: odom
child_frame_id: base_footprint
pose:
  pose:
    position:
      x: 0.38345676175931864
      y: 0.10090268478817724
      z: 0.0
    orientation:
      x: 0.0
      y: 0.0
      z: -0.09337891700921032
      w: 0.9956306432900641
  covariance: '<array type: double[36]>'
twist:
  twist:
    linear:
      x: -3.2642300569408623e-91
      y: 0.0
      z: 0.0
    angular:
      x: 0.0
      y: 0.0
      z: -6.28033188526712e-14
  covariance: '<array type: double[36]>'
---
header:
  stamp:
    sec: 1778498783
    nanosec: 872000000
  frame_id: odom
child_frame_id: base_footprint
pose:
  pose:
    position:
      x: 0.38345676175931864
      y: 0.10090268478817724
      z: 0.0
    orientation:
      x: 0.0
      y: 0.0
      z: -0.09337968793018045
      w: 0.9956305709860772
  covariance: '<array type: double[36]>'
twist:
  twist:
    linear:
      x: -2.4637850189172674e-91
      y: 0.0
      z: 0.0
    angular:
      x: 0.0
      y: 0.0
      z: -4.528149323128045e-14
  covariance: '<array type: double[36]>'
---
header:
  stamp:
    sec: 1778498783
    nanosec: 982000000
  frame_id: odom
child_frame_id: base_footprint
pose:
  pose:
    position:
      x: 0.38345676175931864
      y: 0.10090268478817724
      z: 0.0
    orientation:
      x: 0.0
      y: 0.0
      z: -0.09336669574839887
      w: 0.9956317894307242
  covariance: '<array type: double[36]>'
twist:
  twist:
    linear:
      x: -4.8637800100237885e-91
      y: 0.0
      z: 0.0
    angular:
      x: 0.0
      y: 0.0
      z: -6.148124947603598e-14
  covariance: '<array type: double[36]>'
---
header:
  stamp:
    sec: 1778498784
    nanosec: 62000000
  frame_id: odom
child_frame_id: base_footprint
pose:
  pose:
    position:
      x: 0.38345676175931864
      y: 0.10090268478817724
      z: 0.0
    orientation:
      x: 0.0
      y: 0.0
      z: -0.09336686630488715
      w: 0.9956317734365479
  covariance: '<array type: double[36]>'
twist:
  twist:
    linear:
      x: -4.6179472245669083e-91
      y: 0.0
      z: 0.0
    angular:
      x: 0.0
      y: 0.0
      z: -6.306098640221107e-14
  covariance: '<array type: double[36]>'
---
header:
  stamp:
    sec: 1778498784
    nanosec: 183000000
  frame_id: odom
child_frame_id: base_footprint
pose:
  pose:
    position:
      x: 0.38345676175931864
      y: 0.10090268478817724
      z: 0.0
    orientation:
      x: 0.0
      y: 0.0
      z: -0.09334515543507428
      w: 0.9956338091672067
  covariance: '<array type: double[36]>'
twist:
  twist:
    linear:
      x: -9.451557297265368e-91
      y: 0.0
      z: 0.0
    angular:
      x: 0.0
      y: 0.0
      z: 6.8836172917615415e-19
  covariance: '<array type: double[36]>'
---
header:
  stamp:
    sec: 1778498784
    nanosec: 262000000
  frame_id: odom
child_frame_id: base_footprint
pose:
  pose:
    position:
      x: 0.38345676175931864
      y: 0.10090268478817724
      z: 0.0
    orientation:
      x: 0.0
      y: 0.0
      z: -0.0933461056174686
      w: 0.9956337200828689
  covariance: '<array type: double[36]>'
twist:
  twist:
    linear:
      x: -7.274364687275444e-91
      y: 0.0
      z: 0.0
    angular:
      x: 0.0
      y: 0.0
      z: 4.963274587230294e-19
  covariance: '<array type: double[36]>'
---
header:
  stamp:
    sec: 1778498784
    nanosec: 383000000
  frame_id: odom
child_frame_id: base_footprint
pose:
  pose:
    position:
      x: 0.38345676175931864
      y: 0.10090268478817724
      z: 0.0
    orientation:
      x: 0.0
      y: 0.0
      z: -0.09333415095430232
      w: 0.9956348408255105
  covariance: '<array type: double[36]>'
twist:
  twist:
    linear:
      x: -9.940147432420884e-91
      y: 0.0
      z: 0.0
    angular:
      x: 0.0
      y: 0.0
      z: 4.1971436843035356e-19
  covariance: '<array type: double[36]>'
---
header:
  stamp:
    sec: 1778498784
    nanosec: 463000000
  frame_id: odom
child_frame_id: base_footprint
pose:
  pose:
    position:
      x: 0.38345676175931864
      y: 0.10090268478817724
      z: 0.0
    orientation:
      x: 0.0
      y: 0.0
      z: -0.09333179136200986
      w: 0.9956350620187893
  covariance: '<array type: double[36]>'
twist:
  twist:
    linear:
      x: -7.160486095314309e-91
      y: 0.0
      z: 0.0
    angular:
      x: 0.0
      y: 0.0
      z: 5.726912398331962e-19
  covariance: '<array type: double[36]>'
---
header:
  stamp:
    sec: 1778498784
    nanosec: 543000000
  frame_id: odom
child_frame_id: base_footprint
pose:
  pose:
    position:
      x: 0.38345676175931864
      y: 0.10090268478817724
      z: 0.0
    orientation:
      x: 0.0
      y: 0.0
      z: -0.09333141102990582
      w: 0.9956350976714143
  covariance: '<array type: double[36]>'
twist:
  twist:
    linear:
      x: -7.666249945982631e-91
      y: 0.0
      z: 0.0
    angular:
      x: 0.0
      y: 0.0
      z: 9.222983062726467e-19
  covariance: '<array type: double[36]>'
---
header:
  stamp:
    sec: 1778498784
    nanosec: 673000000
  frame_id: odom
child_frame_id: base_footprint
pose:
  pose:
    position:
      x: 0.38345676175931864
      y: 0.10090268478817724
      z: 0.0
    orientation:
      x: 0.0
      y: 0.0
      z: -0.0933295939446842
      w: 0.9956352680043633
  covariance: '<array type: double[36]>'
twist:
  twist:
    linear:
      x: -4.790671498398155e-92
      y: 0.0
      z: 0.0
    angular:
      x: 0.0
      y: 0.0
      z: 1.614023064967748e-19
  covariance: '<array type: double[36]>'
---
header:
  stamp:
    sec: 1778498784
    nanosec: 782000000
  frame_id: odom
child_frame_id: base_footprint
pose:
  pose:
    position:
      x: 0.38345676175931864
      y: 0.10090268478817724
      z: 0.0
    orientation:
      x: 0.0
      y: 0.0
      z: -0.09331347434825711
      w: 0.9956367789033594
  covariance: '<array type: double[36]>'
twist:
  twist:
    linear:
      x: -2.691317991094847e-91
      y: 0.0
      z: 0.0
    angular:
      x: 0.0
      y: 0.0
      z: 4.0035303925292145e-14
  covariance: '<array type: double[36]>'
---
header:
  stamp:
    sec: 1778498784
    nanosec: 864000000
  frame_id: odom
child_frame_id: base_footprint
pose:
  pose:
    position:
      x: 0.38345676175931864
      y: 0.10090268478817724
      z: 0.0
    orientation:
      x: 0.0
      y: 0.0
      z: -0.09331308018279166
      w: 0.9956368158454165
  covariance: '<array type: double[36]>'
twist:
  twist:
    linear:
      x: -1.6518257555691398e-91
      y: 0.0
      z: 0.0
    angular:
      x: 0.0
      y: 0.0
      z: 3.559581218615844e-14
  covariance: '<array type: double[36]>'
---
header:
  stamp:
    sec: 1778498784
    nanosec: 954000000
  frame_id: odom
child_frame_id: base_footprint
pose:
  pose:
    position:
      x: 0.38345676175931864
      y: 0.10090268478817724
      z: 0.0
    orientation:
      x: 0.0
      y: 0.0
      z: -0.09330914120499341
      w: 0.9956371850064594
  covariance: '<array type: double[36]>'
twist:
  twist:
    linear:
      x: -1.454606175008863e-91
      y: 0.0
      z: 0.0
    angular:
      x: 0.0
      y: 0.0
      z: 3.3916126431206743e-14
  covariance: '<array type: double[36]>'
---
header:
  stamp:
    sec: 1778498785
    nanosec: 63000000
  frame_id: odom
child_frame_id: base_footprint
pose:
  pose:
    position:
      x: 0.38345676175931864
      y: 0.10090268478817724
      z: 0.0
    orientation:
      x: 0.0
      y: 0.0
      z: -0.093312536186122
      w: 0.9956368668297261
  covariance: '<array type: double[36]>'
twist:
  twist:
    linear:
      x: -2.3546556945680783e-91
      y: 0.0
      z: 0.0
    angular:
      x: 0.0
      y: 0.0
      z: 6.480434121094746e-14
  covariance: '<array type: double[36]>'
---
header:
  stamp:
    sec: 1778498785
    nanosec: 182000000
  frame_id: odom
child_frame_id: base_footprint
pose:
  pose:
    position:
      x: 0.38345676175931864
      y: 0.10090268478817724
      z: 0.0
    orientation:
      x: 0.0
      y: 0.0
      z: -0.09332017936769457
      w: 0.9956361504700305
  covariance: '<array type: double[36]>'
twist:
  twist:
    linear:
      x: -5.216385080237015e-91
      y: 0.0
      z: 0.0
    angular:
      x: 0.0
      y: 0.0
      z: -5.207711141814696e-19
  covariance: '<array type: double[36]>'
---
header:
  stamp:
    sec: 1778498785
    nanosec: 263000000
  frame_id: odom
child_frame_id: base_footprint
pose:
  pose:
    position:
      x: 0.38345676175931864
      y: 0.10090268478817724
      z: 0.0
    orientation:
      x: 0.0
      y: 0.0
      z: -0.09330753258208971
      w: 0.9956373357620948
  covariance: '<array type: double[36]>'
twist:
  twist:
    linear:
      x: -3.591777208922194e-91
      y: 0.0
      z: 0.0
    angular:
      x: 0.0
      y: 0.0
      z: -1.7035625820010632e-19
  covariance: '<array type: double[36]>'
---
header:
  stamp:
    sec: 1778498785
    nanosec: 383000000
  frame_id: odom
child_frame_id: base_footprint
pose:
  pose:
    position:
      x: 0.38345676175931864
      y: 0.10090268478817724
      z: 0.0
    orientation:
      x: 0.0
      y: 0.0
      z: -0.09330361048593855
      w: 0.9956377033189775
  covariance: '<array type: double[36]>'
twist:
  twist:
    linear:
      x: -7.019260817981054e-91
      y: 0.0
      z: 0.0
    angular:
      x: 0.0
      y: 0.0
      z: 5.812672377514413e-19
  covariance: '<array type: double[36]>'
---
header:
  stamp:
    sec: 1778498785
    nanosec: 483000000
  frame_id: odom
child_frame_id: base_footprint
pose:
  pose:
    position:
      x: 0.38345676175931864
      y: 0.10090268478817724
      z: 0.0
    orientation:
      x: 0.0
      y: 0.0
      z: -0.0933020045748766
      w: 0.9956378538114699
  covariance: '<array type: double[36]>'
twist:
  twist:
    linear:
      x: -2.8674400632918648e-92
      y: 0.0
      z: 0.0
    angular:
      x: 0.0
      y: 0.0
      z: -7.362943850066997e-20
  covariance: '<array type: double[36]>'
---
header:
  stamp:
    sec: 1778498785
    nanosec: 584000000
  frame_id: odom
child_frame_id: base_footprint
pose:
  pose:
    position:
      x: 0.38345676175931864
      y: 0.10090268478817724
      z: 0.0
    orientation:
      x: 0.0
      y: 0.0
      z: -0.09327405919073628
      w: 0.9956404721997208
  covariance: '<array type: double[36]>'
twist:
  twist:
    linear:
      x: -1.1186960294646475e-91
      y: 0.0
      z: 0.0
    angular:
      x: 0.0
      y: 0.0
      z: 6.416931866956263e-14
  covariance: '<array type: double[36]>'
---
header:
  stamp:
    sec: 1778498785
    nanosec: 673000000
  frame_id: odom
child_frame_id: base_footprint
pose:
  pose:
    position:
      x: 0.38345676175931864
      y: 0.10090268478817724
      z: 0.0
    orientation:
      x: 0.0
      y: 0.0
      z: -0.09327011764686297
      w: 0.9956408414454182
  covariance: '<array type: double[36]>'
twist:
  twist:
    linear:
      x: -9.230226440502218e-92
      y: 0.0
      z: 0.0
    angular:
      x: 0.0
      y: 0.0
      z: 5.830408121357578e-14
  covariance: '<array type: double[36]>'
---
header:
  stamp:
    sec: 1778498785
    nanosec: 766000000
  frame_id: odom
child_frame_id: base_footprint
pose:
  pose:
    position:
      x: 0.38345676175931864
      y: 0.10090268478817724
      z: 0.0
    orientation:
      x: 0.0
      y: 0.0
      z: -0.09331135067410425
      w: 0.9956369779369257
  covariance: '<array type: double[36]>'
twist:
  twist:
    linear:
      x: -2.4109040026483e-92
      y: 0.0
      z: 0.0
    angular:
      x: 0.0
      y: 0.0
      z: -1.7051634001182115e-19
  covariance: '<array type: double[36]>'
---
header:
  stamp:
    sec: 1778498785
    nanosec: 880000000
  frame_id: odom
child_frame_id: base_footprint
pose:
  pose:
    position:
      x: 0.38345676175931864
      y: 0.10090268478817724
      z: 0.0
    orientation:
      x: 0.0
      y: 0.0
      z: -0.09327005786205886
      w: 0.9956408470459658
  covariance: '<array type: double[36]>'
twist:
  twist:
    linear:
      x: -9.880702007947289e-92
      y: 0.0
      z: 0.0
    angular:
      x: 0.0
      y: 0.0
      z: 5.501806681855493e-14
  covariance: '<array type: double[36]>'
---
header:
  stamp:
    sec: 1778498785
    nanosec: 982000000
  frame_id: odom
child_frame_id: base_footprint
pose:
  pose:
    position:
      x: 0.38345676175931864
      y: 0.10090268478817724
      z: 0.0
    orientation:
      x: 0.0
      y: 0.0
      z: -0.09327863083041968
      w: 0.9956400439066331
  covariance: '<array type: double[36]>'
twist:
  twist:
    linear:
      x: -2.9673738023679383e-91
      y: 0.0
      z: 0.0
    angular:
      x: 0.0
      y: 0.0
      z: 9.257055311531678e-19
  covariance: '<array type: double[36]>'
---
header:
  stamp:
    sec: 1778498786
    nanosec: 63000000
  frame_id: odom
child_frame_id: base_footprint
pose:
  pose:
    position:
      x: 0.38345676175931864
      y: 0.10090268478817724
      z: 0.0
    orientation:
      x: 0.0
      y: 0.0
      z: -0.09328593262240985
      w: 0.9956393597958888
  covariance: '<array type: double[36]>'
twist:
  twist:
    linear:
      x: -2.382751476278526e-91
      y: 0.0
      z: 0.0
    angular:
      x: 0.0
      y: 0.0
      z: 1.1108977707788412e-18
  covariance: '<array type: double[36]>'
---
header:
  stamp:
    sec: 1778498786
    nanosec: 182000000
  frame_id: odom
child_frame_id: base_footprint
pose:
  pose:
    position:
      x: 0.38345676175931864
      y: 0.10090268478817724
      z: 0.0
    orientation:
      x: 0.0
      y: 0.0
      z: -0.09326558942367168
      w: 0.9956412656320826
  covariance: '<array type: double[36]>'
twist:
  twist:
    linear:
      x: -3.13356964188136e-91
      y: 0.0
      z: 0.0
    angular:
      x: 0.0
      y: 0.0
      z: 9.022233522296835e-19
  covariance: '<array type: double[36]>'
---
header:
  stamp:
    sec: 1778498786
    nanosec: 263000000
  frame_id: odom
child_frame_id: base_footprint
pose:
  pose:
    position:
      x: 0.38345676175931864
      y: 0.10090268478817724
      z: 0.0
    orientation:
      x: 0.0
      y: 0.0
      z: -0.09326525502954015
      w: 0.9956412969560247
  covariance: '<array type: double[36]>'
twist:
  twist:
    linear:
      x: -3.0736743751436575e-91
      y: 0.0
      z: 0.0
    angular:
      x: 0.0
      y: 0.0
      z: 7.141737510044207e-19
  covariance: '<array type: double[36]>'
---
header:
  stamp:
    sec: 1778498786
    nanosec: 383000000
  frame_id: odom
child_frame_id: base_footprint
pose:
  pose:
    position:
      x: 0.38345676175931864
      y: 0.10090268478817724
      z: 0.0
    orientation:
      x: 0.0
      y: 0.0
      z: -0.0932659513737709
      w: 0.9956412317267427
  covariance: '<array type: double[36]>'
twist:
  twist:
    linear:
      x: -1.624142011576758e-92
      y: 0.0
      z: 0.0
    angular:
      x: 0.0
      y: 0.0
      z: 6.179127517529802e-20
  covariance: '<array type: double[36]>'
---
header:
  stamp:
    sec: 1778498786
    nanosec: 472000000
  frame_id: odom
child_frame_id: base_footprint
pose:
  pose:
    position:
      x: 0.38345676175931864
      y: 0.10090268478817724
      z: 0.0
    orientation:
      x: 0.0
      y: 0.0
      z: -0.09325458648810533
      w: 0.995642296258517
  covariance: '<array type: double[36]>'
twist:
  twist:
    linear:
      x: -1.5339159188283622e-92
      y: 0.0
      z: 0.0
    angular:
      x: 0.0
      y: 0.0
      z: 2.606834049337106e-19
  covariance: '<array type: double[36]>'
---
header:
  stamp:
    sec: 1778498786
    nanosec: 589000000
  frame_id: odom
child_frame_id: base_footprint
pose:
  pose:
    position:
      x: 0.38345676175931864
      y: 0.10090268478817724
      z: 0.0
    orientation:
      x: 0.0
      y: 0.0
      z: -0.0932756980518527
      w: 0.9956403186658019
  covariance: '<array type: double[36]>'
twist:
  twist:
    linear:
      x: -5.933840046629819e-92
      y: 0.0
      z: 0.0
    angular:
      x: 0.0
      y: 0.0
      z: -5.4059528164623654e-14
  covariance: '<array type: double[36]>'
---
header:
  stamp:
    sec: 1778498786
    nanosec: 668000000
  frame_id: odom
child_frame_id: base_footprint
pose:
  pose:
    position:
      x: 0.38345676175931864
      y: 0.10090268478817724
      z: 0.0
    orientation:
      x: 0.0
      y: 0.0
      z: -0.09325524035233379
      w: 0.9956422350155846
  covariance: '<array type: double[36]>'
twist:
  twist:
    linear:
      x: -7.066795920266854e-92
      y: 0.0
      z: 0.0
    angular:
      x: 0.0
      y: 0.0
      z: 9.014063192457712e-15
  covariance: '<array type: double[36]>'
---
header:
  stamp:
    sec: 1778498786
    nanosec: 783000000
  frame_id: odom
child_frame_id: base_footprint
pose:
  pose:
    position:
      x: 0.38345676175931864
      y: 0.10090268478817724
      z: 0.0
    orientation:
      x: 0.0
      y: 0.0
      z: -0.09325523449207078
      w: 0.9956422355644767
  covariance: '<array type: double[36]>'
twist:
  twist:
    linear:
      x: -1.4765845177485847e-91
      y: 0.0
      z: 0.0
    angular:
      x: 0.0
      y: 0.0
      z: 2.9475017548341685e-19
  covariance: '<array type: double[36]>'
---
header:
  stamp:
    sec: 1778498786
    nanosec: 876000000
  frame_id: odom
child_frame_id: base_footprint
pose:
  pose:
    position:
      x: 0.38345676175931864
      y: 0.10090268478817724
      z: 0.0
    orientation:
      x: 0.0
      y: 0.0
      z: -0.09326378898722795
      w: 0.995641434284324
  covariance: '<array type: double[36]>'
twist:
  twist:
    linear:
      x: -5.585104188447223e-92
      y: 0.0
      z: 0.0
    angular:
      x: 0.0
      y: 0.0
      z: -5.02702413315754e-14
  covariance: '<array type: double[36]>'
---
header:
  stamp:
    sec: 1778498786
    nanosec: 983000000
  frame_id: odom
child_frame_id: base_footprint
pose:
  pose:
    position:
      x: 0.38345676175931864
      y: 0.10090268478817724
      z: 0.0
    orientation:
      x: 0.0
      y: 0.0
      z: -0.09324259574663223
      w: 0.9956434192713927
  covariance: '<array type: double[36]>'
twist:
  twist:
    linear:
      x: -1.947727308069991e-91
      y: 0.0
      z: 0.0
    angular:
      x: 0.0
      y: 0.0
      z: 9.632719029476711e-19
  covariance: '<array type: double[36]>'
---
header:
  stamp:
    sec: 1778498787
    nanosec: 63000000
  frame_id: odom
child_frame_id: base_footprint
pose:
  pose:
    position:
      x: 0.38345676175931864
      y: 0.10090268478817724
      z: 0.0
    orientation:
      x: 0.0
      y: 0.0
      z: -0.09323942140678554
      w: 0.9956437165450942
  covariance: '<array type: double[36]>'
twist:
  twist:
    linear:
      x: -1.52862221407429e-91
      y: 0.0
      z: 0.0
    angular:
      x: 0.0
      y: 0.0
      z: 1.0258414587535973e-18
  covariance: '<array type: double[36]>'
---
header:
  stamp:
    sec: 1778498787
    nanosec: 183000000
  frame_id: odom
child_frame_id: base_footprint
pose:
  pose:
    position:
      x: 0.38345676175931864
      y: 0.10090268478817724
      z: 0.0
    orientation:
      x: 0.0
      y: 0.0
      z: -0.09325993409036885
      w: 0.9956417953729444
  covariance: '<array type: double[36]>'
twist:
  twist:
    linear:
      x: -2.248775426874455e-91
      y: 0.0
      z: 0.0
    angular:
      x: 0.0
      y: 0.0
      z: 1.0865902383701062e-18
  covariance: '<array type: double[36]>'
---
header:
  stamp:
    sec: 1778498787
    nanosec: 283000000
  frame_id: odom
child_frame_id: base_footprint
pose:
  pose:
    position:
      x: 0.38345676175931864
      y: 0.10090268478817724
      z: 0.0
    orientation:
      x: 0.0
      y: 0.0
      z: -0.09324100861024982
      w: 0.9956435679063785
  covariance: '<array type: double[36]>'
twist:
  twist:
    linear:
      x: -9.093058455891594e-93
      y: 0.0
      z: 0.0
    angular:
      x: 0.0
      y: 0.0
      z: -1.2300081101583954e-20
  covariance: '<array type: double[36]>'
---
header:
  stamp:
    sec: 1778498787
    nanosec: 382000000
  frame_id: odom
child_frame_id: base_footprint
pose:
  pose:
    position:
      x: 0.38345676175931864
      y: 0.10090268478817724
      z: 0.0
    orientation:
      x: 0.0
      y: 0.0
      z: -0.09323385587985689
      w: 0.995644237726395
  covariance: '<array type: double[36]>'
twist:
  twist:
    linear:
      x: -2.903089708869401e-92
      y: 0.0
      z: 0.0
    angular:
      x: 0.0
      y: 0.0
      z: -1.539319768279747e-14
  covariance: '<array type: double[36]>'
---
header:
  stamp:
    sec: 1778498787
    nanosec: 482000000
  frame_id: odom
child_frame_id: base_footprint
pose:
  pose:
    position:
      x: 0.38345676175931864
      y: 0.10090268478817724
      z: 0.0
    orientation:
      x: 0.0
      y: 0.0
      z: -0.09323234806694201
      w: 0.9956443789194637
  covariance: '<array type: double[36]>'
twist:
  twist:
    linear:
      x: -5.095313685455528e-92
      y: 0.0
      z: 0.0
    angular:
      x: 0.0
      y: 0.0
      z: -1.921503433800836e-14
  covariance: '<array type: double[36]>'
---
header:
  stamp:
    sec: 1778498787
    nanosec: 582000000
  frame_id: odom
child_frame_id: base_footprint
pose:
  pose:
    position:
      x: 0.38345676175931864
      y: 0.10090268478817724
      z: 0.0
    orientation:
      x: 0.0
      y: 0.0
      z: -0.0932314609716979
      w: 0.9956444619868494
  covariance: '<array type: double[36]>'
twist:
  twist:
    linear:
      x: -6.832434413304701e-92
      y: 0.0
      z: 0.0
    angular:
      x: 0.0
      y: 0.0
      z: -2.4333862556031513e-14
  covariance: '<array type: double[36]>'
---
header:
  stamp:
    sec: 1778498787
    nanosec: 663000000
  frame_id: odom
child_frame_id: base_footprint
pose:
  pose:
    position:
      x: 0.38345676175931864
      y: 0.10090268478817724
      z: 0.0
    orientation:
      x: 0.0
      y: 0.0
      z: -0.09322922133231394
      w: 0.9956446717025961
  covariance: '<array type: double[36]>'
twist:
  twist:
    linear:
      x: -4.544366091451929e-92
      y: 0.0
      z: 0.0
    angular:
      x: 0.0
      y: 0.0
      z: -2.7077907996402158e-14
  covariance: '<array type: double[36]>'
---
header:
  stamp:
    sec: 1778498787
    nanosec: 756000000
  frame_id: odom
child_frame_id: base_footprint
pose:
  pose:
    position:
      x: 0.38345676175931864
      y: 0.10090268478817724
      z: 0.0
    orientation:
      x: 0.0
      y: 0.0
      z: -0.09323157147049896
      w: 0.9956444516398116
  covariance: '<array type: double[36]>'
twist:
  twist:
    linear:
      x: -5.015637466902079e-92
      y: 0.0
      z: 0.0
    angular:
      x: 0.0
      y: 0.0
      z: -2.729986680119097e-14
  covariance: '<array type: double[36]>'
---
header:
  stamp:
    sec: 1778498787
    nanosec: 871000000
  frame_id: odom
child_frame_id: base_footprint
pose:
  pose:
    position:
      x: 0.38345676175931864
      y: 0.10090268478817724
      z: 0.0
    orientation:
      x: 0.0
      y: 0.0
      z: -0.09317590619556898
      w: 0.9956496625342844
  covariance: '<array type: double[36]>'
twist:
  twist:
    linear:
      x: -8.8180083405245e-92
      y: 0.0
      z: 0.0
    angular:
      x: 0.0
      y: 0.0
      z: 8.089857893776804e-14
  covariance: '<array type: double[36]>'
---
header:
  stamp:
    sec: 1778498787
    nanosec: 982000000
  frame_id: odom
child_frame_id: base_footprint
pose:
  pose:
    position:
      x: 0.38345676175931864
      y: 0.10090268478817724
      z: 0.0
    orientation:
      x: 0.0
      y: 0.0
      z: -0.09321583270063924
      w: 0.9956459252836454
  covariance: '<array type: double[36]>'
twist:
  twist:
    linear:
      x: -7.57302199919109e-92
      y: 0.0
      z: 0.0
    angular:
      x: 0.0
      y: 0.0
      z: 4.2820576192773775e-19
  covariance: '<array type: double[36]>'
---
header:
  stamp:
    sec: 1778498788
    nanosec: 63000000
  frame_id: odom
child_frame_id: base_footprint
pose:
  pose:
    position:
      x: 0.38345676175931864
      y: 0.10090268478817724
      z: 0.0
    orientation:
      x: 0.0
      y: 0.0
      z: -0.09321742114915338
      w: 0.9956457765662954
  covariance: '<array type: double[36]>'
twist:
  twist:
    linear:
      x: -9.839269112690584e-92
      y: 0.0
      z: 0.0
    angular:
      x: 0.0
      y: 0.0
      z: -1.0058354470817422e-18
  covariance: '<array type: double[36]>'
---
header:
  stamp:
    sec: 1778498788
    nanosec: 182000000
  frame_id: odom
child_frame_id: base_footprint
pose:
  pose:
    position:
      x: 0.38345676175931864
      y: 0.10090268478817724
      z: 0.0
    orientation:
      x: 0.0
      y: 0.0
      z: -0.09316248226786118
      w: 0.9956509186947453
  covariance: '<array type: double[36]>'
twist:
  twist:
    linear:
      x: -5.199467627221607e-93
      y: 0.0
      z: 0.0
    angular:
      x: 0.0
      y: 0.0
      z: 1.0745402306198657e-14
  covariance: '<array type: double[36]>'
---
header:
  stamp:
    sec: 1778498788
    nanosec: 273000000
  frame_id: odom
child_frame_id: base_footprint
pose:
  pose:
    position:
      x: 0.38345676175931864
      y: 0.10090268478817724
      z: 0.0
    orientation:
      x: 0.0
      y: 0.0
      z: -0.09319477419275202
      w: 0.9956478966297081
  covariance: '<array type: double[36]>'
twist:
  twist:
    linear:
      x: -4.914928268860648e-93
      y: 0.0
      z: 0.0
    angular:
      x: 0.0
      y: 0.0
      z: 2.9230511279874565e-19
  covariance: '<array type: double[36]>'
---
header:
  stamp:
    sec: 1778498788
    nanosec: 382000000
  frame_id: odom
child_frame_id: base_footprint
pose:
  pose:
    position:
      x: 0.38345676175931864
      y: 0.10090268478817724
      z: 0.0
    orientation:
      x: 0.0
      y: 0.0
      z: -0.09321947532188202
      w: 0.9956455842420601
  covariance: '<array type: double[36]>'
twist:
  twist:
    linear:
      x: -2.88356310250899e-92
      y: 0.0
      z: 0.0
    angular:
      x: 0.0
      y: 0.0
      z: -5.862344630059077e-14
  covariance: '<array type: double[36]>'
---
header:
  stamp:
    sec: 1778498788
    nanosec: 465000000
  frame_id: odom
child_frame_id: base_footprint
pose:
  pose:
    position:
      x: 0.38345676175931864
      y: 0.10090268478817724
      z: 0.0
    orientation:
      x: 0.0
      y: 0.0
      z: -0.09321785198542884
      w: 0.9956457362291181
  covariance: '<array type: double[36]>'
twist:
  twist:
    linear:
      x: -1.808990401445096e-92
      y: 0.0
      z: 0.0
    angular:
      x: 0.0
      y: 0.0
      z: -4.533045726119824e-14
  covariance: '<array type: double[36]>'
---
header:
  stamp:
    sec: 1778498788
    nanosec: 581000000
  frame_id: odom
child_frame_id: base_footprint
pose:
  pose:
    position:
      x: 0.38345676175931864
      y: 0.10090268478817724
      z: 0.0
    orientation:
      x: 0.0
      y: 0.0
      z: -0.09324417228100162
      w: 0.9956432716267564
  covariance: '<array type: double[36]>'
twist:
  twist:
    linear:
      x: -4.513777588997671e-92
      y: 0.0
      z: 0.0
    angular:
      x: 0.0
      y: 0.0
      z: -7.877161824731007e-14
  covariance: '<array type: double[36]>'
---
header:
  stamp:
    sec: 1778498788
    nanosec: 662000000
  frame_id: odom
child_frame_id: base_footprint
pose:
  pose:
    position:
      x: 0.38345676175931864
      y: 0.10090268478817724
      z: 0.0
    orientation:
      x: 0.0
      y: 0.0
      z: -0.09318808734417129
      w: 0.9956485225103963
  covariance: '<array type: double[36]>'
twist:
  twist:
    linear:
      x: -2.109766609284824e-92
      y: 0.0
      z: 0.0
    angular:
      x: 0.0
      y: 0.0
      z: 5.834994609552335e-14
  covariance: '<array type: double[36]>'
---
header:
  stamp:
    sec: 1778498788
    nanosec: 783000000
  frame_id: odom
child_frame_id: base_footprint
pose:
  pose:
    position:
      x: 0.38345676175931864
      y: 0.10090268478817724
      z: 0.0
    orientation:
      x: 0.0
      y: 0.0
      z: -0.09320064970796162
      w: 0.9956473466514205
  covariance: '<array type: double[36]>'
twist:
  twist:
    linear:
      x: -5.944438842434277e-92
      y: 0.0
      z: 0.0
    angular:
      x: 0.0
      y: 0.0
      z: -4.1407035241789843e-19
  covariance: '<array type: double[36]>'
---
header:
  stamp:
    sec: 1778498788
    nanosec: 862000000
  frame_id: odom
child_frame_id: base_footprint
pose:
  pose:
    position:
      x: 0.38345676175931864
      y: 0.10090268478817724
      z: 0.0
    orientation:
      x: 0.0
      y: 0.0
      z: -0.09319318122228354
      w: 0.995648045733868
  covariance: '<array type: double[36]>'
twist:
  twist:
    linear:
      x: -4.617928101078701e-92
      y: 0.0
      z: 0.0
    angular:
      x: 0.0
      y: 0.0
      z: -3.2343843561165974e-19
  covariance: '<array type: double[36]>'
---
header:
  stamp:
    sec: 1778498788
    nanosec: 983000000
  frame_id: odom
child_frame_id: base_footprint
pose:
  pose:
    position:
      x: 0.38345676175931864
      y: 0.10090268478817724
      z: 0.0
    orientation:
      x: 0.0
      y: 0.0
      z: -0.09315673251774739
      w: 0.9956514566788003
  covariance: '<array type: double[36]>'
twist:
  twist:
    linear:
      x: -7.203180322265509e-92
      y: 0.0
      z: 0.0
    angular:
      x: 0.0
      y: 0.0
      z: 1.0298331575677501e-18
  covariance: '<array type: double[36]>'
---
header:
  stamp:
    sec: 1778498789
    nanosec: 82000000
  frame_id: odom
child_frame_id: base_footprint
pose:
  pose:
    position:
      x: 0.38345676175931864
      y: 0.10090268478817724
      z: 0.0
    orientation:
      x: 0.0
      y: 0.0
      z: -0.09315888747605616
      w: 0.9956512550507951
  covariance: '<array type: double[36]>'
twist:
  twist:
    linear:
      x: -2.943568286682043e-93
      y: 0.0
      z: 0.0
    angular:
      x: 0.0
      y: 0.0
      z: 1.7297384838335197e-19
  covariance: '<array type: double[36]>'
---
header:
  stamp:
    sec: 1778498789
    nanosec: 183000000
  frame_id: odom
child_frame_id: base_footprint
pose:
  pose:
    position:
      x: 0.38345676175931864
      y: 0.10090268478817724
      z: 0.0
    orientation:
      x: 0.0
      y: 0.0
      z: -0.09318028994294815
      w: 0.9956492522802134
  covariance: '<array type: double[36]>'
twist:
  twist:
    linear:
      x: -1.0753303400408191e-92
      y: 0.0
      z: 0.0
    angular:
      x: 0.0
      y: 0.0
      z: -5.3493849020896644e-14
  covariance: '<array type: double[36]>'
---
header:
  stamp:
    sec: 1778498789
    nanosec: 274000000
  frame_id: odom
child_frame_id: base_footprint
pose:
  pose:
    position:
      x: 0.38345676175931864
      y: 0.10090268478817724
      z: 0.0
    orientation:
      x: 0.0
      y: 0.0
      z: -0.09318253882767268
      w: 0.9956490418102301
  covariance: '<array type: double[36]>'
twist:
  twist:
    linear:
      x: -1.1533820706282091e-92
      y: 0.0
      z: 0.0
    angular:
      x: 0.0
      y: 0.0
      z: -4.4621482209053834e-14
  covariance: '<array type: double[36]>'
---
header:
  stamp:
    sec: 1778498789
    nanosec: 383000000
  frame_id: odom
child_frame_id: base_footprint
pose:
  pose:
    position:
      x: 0.38345676175931864
      y: 0.10090268478817724
      z: 0.0
    orientation:
      x: 0.0
      y: 0.0
      z: -0.0931695549592783
      w: 0.9956502568817476
  covariance: '<array type: double[36]>'
twist:
  twist:
    linear:
      x: -1.6624219597318607e-92
      y: 0.0
      z: 0.0
    angular:
      x: 0.0
      y: 0.0
      z: -4.252276470619419e-14
  covariance: '<array type: double[36]>'
---
header:
  stamp:
    sec: 1778498789
    nanosec: 462000000
  frame_id: odom
child_frame_id: base_footprint
pose:
  pose:
    position:
      x: 0.38345676175931864
      y: 0.10090268478817724
      z: 0.0
    orientation:
      x: 0.0
      y: 0.0
      z: -0.09316494774460486
      w: 0.995650687998429
  covariance: '<array type: double[36]>'
twist:
  twist:
    linear:
      x: -7.79043133813347e-93
      y: 0.0
      z: 0.0
    angular:
      x: 0.0
      y: 0.0
      z: -1.7662195888748985e-14
  covariance: '<array type: double[36]>'
---
header:
  stamp:
    sec: 1778498789
    nanosec: 583000000
  frame_id: odom
child_frame_id: base_footprint
pose:
  pose:
    position:
      x: 0.38345676175931864
      y: 0.10090268478817724
      z: 0.0
    orientation:
      x: 0.0
      y: 0.0
      z: -0.09315880532933245
      w: 0.9956512627369141
  covariance: '<array type: double[36]>'
twist:
  twist:
    linear:
      x: -3.0443083469318983e-92
      y: 0.0
      z: 0.0
    angular:
      x: 0.0
      y: 0.0
      z: 2.256696563370067e-19
  covariance: '<array type: double[36]>'
---
header:
  stamp:
    sec: 1778498789
    nanosec: 663000000
  frame_id: odom
child_frame_id: base_footprint
pose:
  pose:
    position:
      x: 0.38345676175931864
      y: 0.10090268478817724
      z: 0.0
    orientation:
      x: 0.0
      y: 0.0
      z: -0.09314746821311762
      w: 0.9956523234369948
  covariance: '<array type: double[36]>'
twist:
  twist:
    linear:
      x: -2.3882862644803843e-92
      y: 0.0
      z: 0.0
    angular:
      x: 0.0
      y: 0.0
      z: -9.066552145150049e-19
  covariance: '<array type: double[36]>'
---
header:
  stamp:
    sec: 1778498789
    nanosec: 783000000
  frame_id: odom
child_frame_id: base_footprint
pose:
  pose:
    position:
      x: 0.38345676175931864
      y: 0.10090268478817724
      z: 0.0
    orientation:
      x: 0.0
      y: 0.0
      z: -0.09317197326002483
      w: 0.9956500305824498
  covariance: '<array type: double[36]>'
twist:
  twist:
    linear:
      x: -3.746278372566332e-92
      y: 0.0
      z: 0.0
    angular:
      x: 0.0
      y: 0.0
      z: -9.255707989284609e-19
  covariance: '<array type: double[36]>'
---
header:
  stamp:
    sec: 1778498789
    nanosec: 863000000
  frame_id: odom
child_frame_id: base_footprint
pose:
  pose:
    position:
      x: 0.38345676175931864
      y: 0.10090268478817724
      z: 0.0
    orientation:
      x: 0.0
      y: 0.0
      z: -0.09328182560405686
      w: 0.9956397445923774
  covariance: '<array type: double[36]>'
twist:
  twist:
    linear:
      x: -3.1034384773139e-92
      y: 0.0
      z: 0.0
    angular:
      x: 0.0
      y: 0.0
      z: 0.00852234685704539
  covariance: '<array type: double[36]>'
---
header:
  stamp:
    sec: 1778498789
    nanosec: 944000000
  frame_id: odom
child_frame_id: base_footprint
pose:
  pose:
    position:
      x: 0.38380256752996444
      y: 0.1008373604340767
      z: 0.0
    orientation:
      x: 0.0
      y: 0.0
      z: -0.09392309553182263
      w: 0.9955794554558266
  covariance: '<array type: double[36]>'
twist:
  twist:
    linear:
      x: 0.0035945592366574733
      y: 0.0
      z: 0.0
    angular:
      x: 0.0
      y: 0.0
      z: 0.006924504238308092
  covariance: '<array type: double[36]>'
---
header:
  stamp:
    sec: 1778498790
    nanosec: 81000000
  frame_id: odom
child_frame_id: base_footprint
pose:
  pose:
    position:
      x: 0.38359510690442633
      y: 0.10087733777345265
      z: 0.0
    orientation:
      x: 0.0
      y: 0.0
      z: -0.09827936200544511
      w: 0.9951588652088684
  covariance: '<array type: double[36]>'
twist:
  twist:
    linear:
      x: -0.003492538930740027
      y: 0.0
      z: 0.0
    angular:
      x: 0.0
      y: 0.0
      z: -0.031387336492939705
  covariance: '<array type: double[36]>'
---
header:
  stamp:
    sec: 1778498790
    nanosec: 187000000
  frame_id: odom
child_frame_id: base_footprint
pose:
  pose:
    position:
      x: 0.3834401635379061
      y: 0.10091155368276031
      z: 0.0
    orientation:
      x: 0.0
      y: 0.0
      z: -0.1449834820647096
      w: 0.9894340755848224
  covariance: '<array type: double[36]>'
twist:
  twist:
    linear:
      x: -0.00013941544994598685
      y: 0.0
      z: 0.0
    angular:
      x: 0.0
      y: 0.0
      z: -0.0016065683168152937
  covariance: '<array type: double[36]>'
---
header:
  stamp:
    sec: 1778498790
    nanosec: 263000000
  frame_id: odom
child_frame_id: base_footprint
pose:
  pose:
    position:
      x: 0.3834371404804134
      y: 0.10091272300349542
      z: 0.0
    orientation:
      x: 0.0
      y: 0.0
      z: -0.14981814636876625
      w: 0.9887135697554813
  covariance: '<array type: double[36]>'
twist:
  twist:
    linear:
      x: -6.207293114810362e-06
      y: 0.0
      z: 0.0
    angular:
      x: 0.0
      y: 0.0
      z: -9.093760360074847e-05
  covariance: '<array type: double[36]>'
---
header:
  stamp:
    sec: 1778498790
    nanosec: 382000000
  frame_id: odom
child_frame_id: base_footprint
pose:
  pose:
    position:
      x: 0.3834369398771796
      y: 0.10091279302208483
      z: 0.0
    orientation:
      x: 0.0
      y: 0.0
      z: -0.14669119623877372
      w: 0.9891823355408433
  covariance: '<array type: double[36]>'
twist:
  twist:
    linear:
      x: 5.679195864801319e-07
      y: 0.0
      z: 0.0
    angular:
      x: 0.0
      y: 0.0
      z: -0.0029471756595963257
  covariance: '<array type: double[36]>'
