header:
  stamp:
    sec: 1778506810
    nanosec: 100000000
  frame_id: map
pose:
  pose:
    position:
      x: -0.02314188038501135
      y: 0.01087604682519747
      z: 0.0
    orientation:
      x: 0.0
      y: 0.0
      z: 0.05484396830853004
      w: 0.9984949369627134
  covariance: '<array type: double[36]>'
---
header:
  stamp:
    sec: 1778506879
    nanosec: 543000000
  frame_id: map
pose:
  pose:
    position:
      x: 0.03948545855827868
      y: 0.013112829160035786
      z: 0.0
    orientation:
      x: 0.0
      y: 0.0
      z: 0.03391127907427739
      w: 0.9994248471753874
  covariance: '<array type: double[36]>'
---
header:
  stamp:
    sec: 1778506879
    nanosec: 942000000
  frame_id: map
pose:
  pose:
    position:
      x: 0.08793528304039695
      y: 0.014288083129316818
      z: 0.0
    orientation:
      x: 0.0
      y: 0.0
      z: 0.04191419700674937
      w: 0.9991212139121456
  covariance: '<array type: double[36]>'
---
header:
  stamp:
    sec: 1778506880
    nanosec: 343000000
  frame_id: map
pose:
  pose:
    position:
      x: 0.14030489127298273
      y: 0.02022593394408863
      z: 0.0
    orientation:
      x: 0.0
      y: 0.0
      z: 0.04083181057110852
      w: 0.9991660338729921
  covariance: '<array type: double[36]>'
---
header:
  stamp:
    sec: 1778506880
    nanosec: 822000000
  frame_id: map
pose:
  pose:
    position:
      x: 0.21123112666560198
      y: 0.024549409401417973
      z: 0.0
    orientation:
      x: 0.0
      y: 0.0
      z: 0.03326938241926193
      w: 0.9994464208717948
  covariance: '<array type: double[36]>'
---
header:
  stamp:
    sec: 1778506881
    nanosec: 305000000
  frame_id: map
pose:
  pose:
    position:
      x: 0.2628034440723669
      y: 0.02664587842869281
      z: 0.0
    orientation:
      x: 0.0
      y: 0.0
      z: 0.02681948038039396
      w: 0.9996402930415148
  covariance: '<array type: double[36]>'
---
header:
  stamp:
    sec: 1778506881
    nanosec: 965000000
  frame_id: map
pose:
  pose:
    position:
      x: 0.32593551878228016
      y: 0.03011058330855984
      z: 0.0
    orientation:
      x: 0.0
      y: 0.0
      z: 0.017926594314682107
      w: 0.9998393056968089
  covariance: '<array type: double[36]>'
---
header:
  stamp:
    sec: 1778506882
    nanosec: 589000000
  frame_id: map
pose:
  pose:
    position:
      x: 0.37412224933532173
      y: 0.033689530332693
      z: 0.0
    orientation:
      x: 0.0
      y: 0.0
      z: -0.005456629284074982
      w: 0.9999851124876091
  covariance: '<array type: double[36]>'
---
header:
  stamp:
    sec: 1778506883
    nanosec: 223000000
  frame_id: map
pose:
  pose:
    position:
      x: 0.4411250505621586
      y: 0.028649982543541817
      z: 0.0
    orientation:
      x: 0.0
      y: 0.0
      z: -0.022385977235249283
      w: 0.999749402612086
  covariance: '<array type: double[36]>'
---
header:
  stamp:
    sec: 1778506883
    nanosec: 866000000
  frame_id: map
pose:
  pose:
    position:
      x: 0.5050446231301206
      y: 0.026710314160510805
      z: 0.0
    orientation:
      x: 0.0
      y: 0.0
      z: -0.029864667133421487
      w: 0.9995539513488053
  covariance: '<array type: double[36]>'
---
header:
  stamp:
    sec: 1778506884
    nanosec: 507000000
  frame_id: map
pose:
  pose:
    position:
      x: 0.5683335666512587
      y: 0.02070731391694668
      z: 0.0
    orientation:
      x: 0.0
      y: 0.0
      z: -0.040354077961135174
      w: 0.9991854424439472
  covariance: '<array type: double[36]>'
---
header:
  stamp:
    sec: 1778506887
    nanosec: 224000000
  frame_id: map
pose:
  pose:
    position:
      x: 0.6090651375879025
      y: 0.013406382855550653
      z: 0.0
    orientation:
      x: 0.0
      y: 0.0
      z: -0.08373496612374794
      w: 0.9964880608658865
  covariance: '<array type: double[36]>'
---
header:
  stamp:
    sec: 1778506887
    nanosec: 864000000
  frame_id: map
pose:
  pose:
    position:
      x: 0.6144182134032424
      y: 0.014414097813252681
      z: 0.0
    orientation:
      x: 0.0
      y: 0.0
      z: -0.12506722854543215
      w: 0.9921482693347626
  covariance: '<array type: double[36]>'
---
header:
  stamp:
    sec: 1778506888
    nanosec: 340000000
  frame_id: map
pose:
  pose:
    position:
      x: 0.614765705454915
      y: 0.014620152508519281
      z: 0.0
    orientation:
      x: 0.0
      y: 0.0
      z: -0.17116183984945427
      w: 0.9852429266832368
  covariance: '<array type: double[36]>'
---
header:
  stamp:
    sec: 1778506888
    nanosec: 740000000
  frame_id: map
pose:
  pose:
    position:
      x: 0.6205563286406871
      y: 0.016760098076868537
      z: 0.0
    orientation:
      x: 0.0
      y: 0.0
      z: -0.21821547781590023
      w: 0.975900612378934
  covariance: '<array type: double[36]>'
---
header:
  stamp:
    sec: 1778506889
    nanosec: 65000000
  frame_id: map
pose:
  pose:
    position:
      x: 0.6090220837685335
      y: 0.023818313855183477
      z: 0.0
    orientation:
      x: 0.0
      y: 0.0
      z: -0.26402705316992814
      w: 0.9645152747335856
  covariance: '<array type: double[36]>'
---
header:
  stamp:
    sec: 1778506889
    nanosec: 383000000
  frame_id: map
pose:
  pose:
    position:
      x: 0.6111757278866683
      y: 0.022023173924311922
      z: 0.0
    orientation:
      x: 0.0
      y: 0.0
      z: -0.31240384560492734
      w: 0.9499493866787077
  covariance: '<array type: double[36]>'
---
header:
  stamp:
    sec: 1778506889
    nanosec: 784000000
  frame_id: map
pose:
  pose:
    position:
      x: 0.6111644244386105
      y: 0.02100529926167235
      z: 0.0
    orientation:
      x: 0.0
      y: 0.0
      z: -0.358381622985579
      w: 0.933575177640356
  covariance: '<array type: double[36]>'
---
header:
  stamp:
    sec: 1778506890
    nanosec: 102000000
  frame_id: map
pose:
  pose:
    position:
      x: 0.6117574657319289
      y: 0.0255193540843156
      z: 0.0
    orientation:
      x: 0.0
      y: 0.0
      z: -0.4001231385980739
      w: 0.9164613870526278
  covariance: '<array type: double[36]>'
---
header:
  stamp:
    sec: 1778506890
    nanosec: 431000000
  frame_id: map
pose:
  pose:
    position:
      x: 0.6149233710002168
      y: 0.017846381755684846
      z: 0.0
    orientation:
      x: 0.0
      y: 0.0
      z: -0.4425764148529743
      w: 0.8967307940602285
  covariance: '<array type: double[36]>'
---
header:
  stamp:
    sec: 1778506890
    nanosec: 664000000
  frame_id: map
pose:
  pose:
    position:
      x: 0.6235942470167458
      y: 0.008918227612776905
      z: 0.0
    orientation:
      x: 0.0
      y: 0.0
      z: -0.4809220079723681
      w: 0.8767633787104852
  covariance: '<array type: double[36]>'
---
header:
  stamp:
    sec: 1778506890
    nanosec: 983000000
  frame_id: map
pose:
  pose:
    position:
      x: 0.6194922287683018
      y: 0.0054044373408061504
      z: 0.0
    orientation:
      x: 0.0
      y: 0.0
      z: -0.5194834258834862
      w: 0.8544805265378237
  covariance: '<array type: double[36]>'
---
header:
  stamp:
    sec: 1778506891
    nanosec: 384000000
  frame_id: map
pose:
  pose:
    position:
      x: 0.6064281171726591
      y: 0.02173541099236556
      z: 0.0
    orientation:
      x: 0.0
      y: 0.0
      z: -0.557584669775806
      w: 0.8301200732610948
  covariance: '<array type: double[36]>'
---
header:
  stamp:
    sec: 1778506891
    nanosec: 705000000
  frame_id: map
pose:
  pose:
    position:
      x: 0.6085392944573251
      y: 0.013873363312624131
      z: 0.0
    orientation:
      x: 0.0
      y: 0.0
      z: -0.6029594661912077
      w: 0.7977718233495176
  covariance: '<array type: double[36]>'
---
header:
  stamp:
    sec: 1778506892
    nanosec: 100000000
  frame_id: map
pose:
  pose:
    position:
      x: 0.6108990542659709
      y: 0.005224567248396615
      z: 0.0
    orientation:
      x: 0.0
      y: 0.0
      z: -0.6391362650194576
      w: 0.7690935149492405
  covariance: '<array type: double[36]>'
---
header:
  stamp:
    sec: 1778506892
    nanosec: 420000000
  frame_id: map
pose:
  pose:
    position:
      x: 0.6126888475928461
      y: 0.0037822659115896054
      z: 0.0
    orientation:
      x: 0.0
      y: 0.0
      z: -0.669754070329736
      w: 0.7425829820812965
  covariance: '<array type: double[36]>'
---
header:
  stamp:
    sec: 1778506894
    nanosec: 39000000
  frame_id: map
pose:
  pose:
    position:
      x: 0.6182355624143508
      y: -0.04866497575768627
      z: 0.0
    orientation:
      x: 0.0
      y: 0.0
      z: -0.6784105311561762
      w: 0.7346830277176647
  covariance: '<array type: double[36]>'
---
header:
  stamp:
    sec: 1778506894
    nanosec: 664000000
  frame_id: map
pose:
  pose:
    position:
      x: 0.6299863669008686
      y: -0.10070186526781873
      z: 0.0
    orientation:
      x: 0.0
      y: 0.0
      z: -0.6669244987634415
      w: 0.7451253001671144
  covariance: '<array type: double[36]>'
---
header:
  stamp:
    sec: 1778506902
    nanosec: 663000000
  frame_id: map
pose:
  pose:
    position:
      x: 0.6176947609168678
      y: -0.076874974381651
      z: 0.0
    orientation:
      x: 0.0
      y: 0.0
      z: -0.6273954782853651
      w: 0.7787007858138311
  covariance: '<array type: double[36]>'
---
header:
  stamp:
    sec: 1778506902
    nanosec: 981000000
  frame_id: map
pose:
  pose:
    position:
      x: 0.6212819306140552
      y: -0.0781992459764796
      z: 0.0
    orientation:
      x: 0.0
      y: 0.0
      z: -0.5868862172941779
      w: 0.8096694189298068
  covariance: '<array type: double[36]>'
---
header:
  stamp:
    sec: 1778506903
    nanosec: 301000000
  frame_id: map
pose:
  pose:
    position:
      x: 0.6243236409962127
      y: -0.0833758091193731
      z: 0.0
    orientation:
      x: 0.0
      y: 0.0
      z: -0.5491374504460395
      w: 0.8357320506703232
  covariance: '<array type: double[36]>'
---
header:
  stamp:
    sec: 1778506903
    nanosec: 781000000
  frame_id: map
pose:
  pose:
    position:
      x: 0.6253644898049376
      y: -0.0765063624473689
      z: 0.0
    orientation:
      x: 0.0
      y: 0.0
      z: -0.5055384366447673
      w: 0.8628040849896137
  covariance: '<array type: double[36]>'
---
header:
  stamp:
    sec: 1778506905
    nanosec: 380000000
  frame_id: map
pose:
  pose:
    position:
      x: 0.6175859320559692
      y: -0.050921196590952005
      z: 0.0
    orientation:
      x: 0.0
      y: 0.0
      z: -0.46907746279758317
      w: 0.8831570267485743
  covariance: '<array type: double[36]>'
---
header:
  stamp:
    sec: 1778506905
    nanosec: 780000000
  frame_id: map
pose:
  pose:
    position:
      x: 0.6191334505362658
      y: -0.04760971184441712
      z: 0.0
    orientation:
      x: 0.0
      y: 0.0
      z: -0.42796093914617045
      w: 0.9037972308903849
  covariance: '<array type: double[36]>'
---
header:
  stamp:
    sec: 1778506906
    nanosec: 264000000
  frame_id: map
pose:
  pose:
    position:
      x: 0.6163194573054305
      y: -0.04225465445731326
      z: 0.0
    orientation:
      x: 0.0
      y: 0.0
      z: -0.3752860440041258
      w: 0.9269090490310974
  covariance: '<array type: double[36]>'
---
header:
  stamp:
    sec: 1778506906
    nanosec: 585000000
  frame_id: map
pose:
  pose:
    position:
      x: 0.6237919541242013
      y: -0.04232312929389165
      z: 0.0
    orientation:
      x: 0.0
      y: 0.0
      z: -0.3328961486634247
      w: 0.9429634956906121
  covariance: '<array type: double[36]>'
---
header:
  stamp:
    sec: 1778506906
    nanosec: 824000000
  frame_id: map
pose:
  pose:
    position:
      x: 0.6211002908883545
      y: -0.037212237347680664
      z: 0.0
    orientation:
      x: 0.0
      y: 0.0
      z: -0.2923480620769966
      w: 0.9563119839256562
  covariance: '<array type: double[36]>'
---
header:
  stamp:
    sec: 1778506907
    nanosec: 152000000
  frame_id: map
pose:
  pose:
    position:
      x: 0.6236201407286674
      y: -0.03434317161089429
      z: 0.0
    orientation:
      x: 0.0
      y: 0.0
      z: -0.24925265619257433
      w: 0.9684384923065307
  covariance: '<array type: double[36]>'
---
header:
  stamp:
    sec: 1778506907
    nanosec: 546000000
  frame_id: map
pose:
  pose:
    position:
      x: 0.6393001790077598
      y: -0.0406663455861912
      z: 0.0
    orientation:
      x: 0.0
      y: 0.0
      z: -0.20204238052570384
      w: 0.9793767796264656
  covariance: '<array type: double[36]>'
---
header:
  stamp:
    sec: 1778506907
    nanosec: 873000000
  frame_id: map
pose:
  pose:
    position:
      x: 0.6464467707531862
      y: -0.039396749076441015
      z: 0.0
    orientation:
      x: 0.0
      y: 0.0
      z: -0.16186438017195612
      w: 0.986813012901405
  covariance: '<array type: double[36]>'
---
header:
  stamp:
    sec: 1778506908
    nanosec: 181000000
  frame_id: map
pose:
  pose:
    position:
      x: 0.6526675073161976
      y: -0.03922253783306988
      z: 0.0
    orientation:
      x: 0.0
      y: 0.0
      z: -0.11850908647381772
      w: 0.9929529678807255
  covariance: '<array type: double[36]>'
---
header:
  stamp:
    sec: 1778506908
    nanosec: 501000000
  frame_id: map
pose:
  pose:
    position:
      x: 0.7162605774045112
      y: -0.05166688168554597
      z: 0.0
    orientation:
      x: 0.0
      y: 0.0
      z: -0.09213630522155394
      w: 0.9957464040909817
  covariance: '<array type: double[36]>'
---
header:
  stamp:
    sec: 1778506908
    nanosec: 904000000
  frame_id: map
pose:
  pose:
    position:
      x: 0.7784034279669436
      y: -0.06190763578785523
      z: 0.0
    orientation:
      x: 0.0
      y: 0.0
      z: -0.07629803940684465
      w: 0.9970850561424895
  covariance: '<array type: double[36]>'
---
header:
  stamp:
    sec: 1778506909
    nanosec: 540000000
  frame_id: map
pose:
  pose:
    position:
      x: 0.832918584058708
      y: -0.06466543690004044
      z: 0.0
    orientation:
      x: 0.0
      y: 0.0
      z: -0.04258864884554994
      w: 0.9990926918907527
  covariance: '<array type: double[36]>'
---
header:
  stamp:
    sec: 1778506910
    nanosec: 182000000
  frame_id: map
pose:
  pose:
    position:
      x: 0.8878208844462077
      y: -0.06369975054676981
      z: 0.0
    orientation:
      x: 0.0
      y: 0.0
      z: -0.008217110363174846
      w: 0.9999662389787364
  covariance: '<array type: double[36]>'
---
header:
  stamp:
    sec: 1778506910
    nanosec: 824000000
  frame_id: map
pose:
  pose:
    position:
      x: 0.9485405705666665
      y: -0.0575007670319793
      z: 0.0
    orientation:
      x: 0.0
      y: 0.0
      z: 0.039939671231436755
      w: 0.9992020930031745
  covariance: '<array type: double[36]>'
---
header:
  stamp:
    sec: 1778506911
    nanosec: 380000000
  frame_id: map
pose:
  pose:
    position:
      x: 1.0060508781232012
      y: -0.048232245214149
      z: 0.0
    orientation:
      x: 0.0
      y: 0.0
      z: 0.0810809405898338
      w: 0.9967075203253298
  covariance: '<array type: double[36]>'
---
header:
  stamp:
    sec: 1778506911
    nanosec: 940000000
  frame_id: map
pose:
  pose:
    position:
      x: 1.0596700412738858
      y: -0.03646375174013381
      z: 0.0
    orientation:
      x: 0.0
      y: 0.0
      z: 0.1239889534731413
      w: 0.9922835982805698
  covariance: '<array type: double[36]>'
---
header:
  stamp:
    sec: 1778506912
    nanosec: 501000000
  frame_id: map
pose:
  pose:
    position:
      x: 1.1087569525716645
      y: -0.01785277587545984
      z: 0.0
    orientation:
      x: 0.0
      y: 0.0
      z: 0.16573698460620323
      w: 0.9861699913978539
  covariance: '<array type: double[36]>'
---
header:
  stamp:
    sec: 1778506913
    nanosec: 63000000
  frame_id: map
pose:
  pose:
    position:
      x: 1.158435371460112
      y: 0.005314731650570147
      z: 0.0
    orientation:
      x: 0.0
      y: 0.0
      z: 0.19802719161055007
      w: 0.9801965269183719
  covariance: '<array type: double[36]>'
---
header:
  stamp:
    sec: 1778506913
    nanosec: 545000000
  frame_id: map
pose:
  pose:
    position:
      x: 1.2073361144780392
      y: 0.029851112156720205
      z: 0.0
    orientation:
      x: 0.0
      y: 0.0
      z: 0.20935530882771655
      w: 0.977839636477092
  covariance: '<array type: double[36]>'
---
header:
  stamp:
    sec: 1778506915
    nanosec: 945000000
  frame_id: map
pose:
  pose:
    position:
      x: 1.1886204506102496
      y: 0.038948944287077555
      z: 0.0
    orientation:
      x: 0.0
      y: 0.0
      z: 0.1699661475776827
      w: 0.9854499016579186
  covariance: '<array type: double[36]>'
---
header:
  stamp:
    sec: 1778506916
    nanosec: 425000000
  frame_id: map
pose:
  pose:
    position:
      x: 1.1716911280949849
      y: 0.029410774649958484
      z: 0.0
    orientation:
      x: 0.0
      y: 0.0
      z: 0.1316839846921517
      w: 0.991291747254862
  covariance: '<array type: double[36]>'
---
header:
  stamp:
    sec: 1778506916
    nanosec: 902000000
  frame_id: map
pose:
  pose:
    position:
      x: 1.2012817277388133
      y: 0.05097818846034283
      z: 0.0
    orientation:
      x: 0.0
      y: 0.0
      z: 0.08098924209284546
      w: 0.9967149756400906
  covariance: '<array type: double[36]>'
---
header:
  stamp:
    sec: 1778506920
    nanosec: 190000000
  frame_id: map
pose:
  pose:
    position:
      x: 1.2139655504496953
      y: 0.05284379195996264
      z: 0.0
    orientation:
      x: 0.0
      y: 0.0
      z: 0.04150403721193659
      w: 0.9991383362153162
  covariance: '<array type: double[36]>'
---
header:
  stamp:
    sec: 1778506920
    nanosec: 505000000
  frame_id: map
pose:
  pose:
    position:
      x: 1.201566224588562
      y: 0.050769493445740374
      z: 0.0
    orientation:
      x: 0.0
      y: 0.0
      z: -8.250412154018867e-05
      w: 0.9999999965965349
  covariance: '<array type: double[36]>'
---
header:
  stamp:
    sec: 1778506920
    nanosec: 901000000
  frame_id: map
pose:
  pose:
    position:
      x: 1.206030414580958
      y: 0.05005416979627711
      z: 0.0
    orientation:
      x: 0.0
      y: 0.0
      z: -0.04201606852820744
      w: 0.9991169350908996
  covariance: '<array type: double[36]>'
---
header:
  stamp:
    sec: 1778506921
    nanosec: 384000000
  frame_id: map
pose:
  pose:
    position:
      x: 1.1994104141342892
      y: 0.046065073874809084
      z: 0.0
    orientation:
      x: 0.0
      y: 0.0
      z: -0.09994309235491104
      w: 0.9949931548963228
  covariance: '<array type: double[36]>'
---
header:
  stamp:
    sec: 1778506921
    nanosec: 700000000
  frame_id: map
pose:
  pose:
    position:
      x: 1.1964945010976265
      y: 0.05172403322994177
      z: 0.0
    orientation:
      x: 0.0
      y: 0.0
      z: -0.13965289392443384
      w: 0.990200519702212
  covariance: '<array type: double[36]>'
---
header:
  stamp:
    sec: 1778506921
    nanosec: 947000000
  frame_id: map
pose:
  pose:
    position:
      x: 1.1841220890551265
      y: 0.04859878039870953
      z: 0.0
    orientation:
      x: 0.0
      y: 0.0
      z: -0.19569928175715962
      w: 0.9806639542267942
  covariance: '<array type: double[36]>'
---
header:
  stamp:
    sec: 1778506922
    nanosec: 181000000
  frame_id: map
pose:
  pose:
    position:
      x: 1.2032073635471565
      y: 0.03950811106137032
      z: 0.0
    orientation:
      x: 0.0
      y: 0.0
      z: -0.24586950993749423
      w: 0.9693029372095684
  covariance: '<array type: double[36]>'
---
header:
  stamp:
    sec: 1778506922
    nanosec: 420000000
  frame_id: map
pose:
  pose:
    position:
      x: 1.2045151272548331
      y: 0.035320580998774685
      z: 0.0
    orientation:
      x: 0.0
      y: 0.0
      z: -0.2840923160590952
      w: 0.9587969315533812
  covariance: '<array type: double[36]>'
---
header:
  stamp:
    sec: 1778506922
    nanosec: 663000000
  frame_id: map
pose:
  pose:
    position:
      x: 1.2069630222919239
      y: 0.032710561403718065
      z: 0.0
    orientation:
      x: 0.0
      y: 0.0
      z: -0.3326533654021077
      w: 0.9430491707682329
  covariance: '<array type: double[36]>'
---
header:
  stamp:
    sec: 1778506922
    nanosec: 994000000
  frame_id: map
pose:
  pose:
    position:
      x: 1.2184266146918947
      y: 0.021763027230011982
      z: 0.0
    orientation:
      x: 0.0
      y: 0.0
      z: -0.3714534513481406
      w: 0.9284515784259051
  covariance: '<array type: double[36]>'
---
header:
  stamp:
    sec: 1778506923
    nanosec: 941000000
  frame_id: map
pose:
  pose:
    position:
      x: 1.2663605705613945
      y: -0.021137106783997942
      z: 0.0
    orientation:
      x: 0.0
      y: 0.0
      z: -0.36819403930476474
      w: 0.9297489711854707
  covariance: '<array type: double[36]>'
---
header:
  stamp:
    sec: 1778506924
    nanosec: 665000000
  frame_id: map
pose:
  pose:
    position:
      x: 1.3214745630432176
      y: -0.05921422810609435
      z: 0.0
    orientation:
      x: 0.0
      y: 0.0
      z: -0.3317382082139562
      w: 0.9433714863249757
  covariance: '<array type: double[36]>'
---
header:
  stamp:
    sec: 1778506925
    nanosec: 303000000
  frame_id: map
pose:
  pose:
    position:
      x: 1.367775937620648
      y: -0.0960260454455739
      z: 0.0
    orientation:
      x: 0.0
      y: 0.0
      z: -0.32648487634213214
      w: 0.9452024256845
  covariance: '<array type: double[36]>'
---
header:
  stamp:
    sec: 1778506925
    nanosec: 783000000
  frame_id: map
pose:
  pose:
    position:
      x: 1.4111855950616325
      y: -0.1344251192363094
      z: 0.0
    orientation:
      x: 0.0
      y: 0.0
      z: -0.3200173180675851
      w: 0.94741169305473
  covariance: '<array type: double[36]>'
---
header:
  stamp:
    sec: 1778506926
    nanosec: 353000000
  frame_id: map
pose:
  pose:
    position:
      x: 1.4570013704112847
      y: -0.17548919501173868
      z: 0.0
    orientation:
      x: 0.0
      y: 0.0
      z: -0.3105031058981428
      w: 0.9505723650662303
  covariance: '<array type: double[36]>'
---
header:
  stamp:
    sec: 1778506926
    nanosec: 913000000
  frame_id: map
pose:
  pose:
    position:
      x: 1.5063070166436052
      y: -0.21068279066740894
      z: 0.0
    orientation:
      x: 0.0
      y: 0.0
      z: -0.30433859974166316
      w: 0.9525639173867987
  covariance: '<array type: double[36]>'
---
header:
  stamp:
    sec: 1778506927
    nanosec: 465000000
  frame_id: map
pose:
  pose:
    position:
      x: 1.5533636369994974
      y: -0.2428020429279219
      z: 0.0
    orientation:
      x: 0.0
      y: 0.0
      z: -0.29953334090068595
      w: 0.9540858335018257
  covariance: '<array type: double[36]>'
---
header:
  stamp:
    sec: 1778506928
    nanosec: 103000000
  frame_id: map
pose:
  pose:
    position:
      x: 1.600603880888386
      y: -0.2790243708391523
      z: 0.0
    orientation:
      x: 0.0
      y: 0.0
      z: -0.29832234356124826
      w: 0.9544651797379119
  covariance: '<array type: double[36]>'
---
header:
  stamp:
    sec: 1778506928
    nanosec: 771000000
  frame_id: map
pose:
  pose:
    position:
      x: 1.6475272551469118
      y: -0.3104401049998148
      z: 0.0
    orientation:
      x: 0.0
      y: 0.0
      z: -0.28545961429648936
      w: 0.9583907390024694
  covariance: '<array type: double[36]>'
---
header:
  stamp:
    sec: 1778506929
    nanosec: 303000000
  frame_id: map
pose:
  pose:
    position:
      x: 1.6591927345488655
      y: -0.32020999495018365
      z: 0.0
    orientation:
      x: 0.0
      y: 0.0
      z: -0.2458602477946049
      w: 0.9693052865606251
  covariance: '<array type: double[36]>'
---
header:
  stamp:
    sec: 1778506929
    nanosec: 952000000
  frame_id: map
pose:
  pose:
    position:
      x: 1.694147479020056
      y: -0.34080913565150495
      z: 0.0
    orientation:
      x: 0.0
      y: 0.0
      z: -0.20624646776791455
      w: 0.9785000738544983
  covariance: '<array type: double[36]>'
---
header:
  stamp:
    sec: 1778506930
    nanosec: 664000000
  frame_id: map
pose:
  pose:
    position:
      x: 1.6943223532822784
      y: -0.33978357029651524
      z: 0.0
    orientation:
      x: 0.0
      y: 0.0
      z: -0.160079018104799
      w: 0.9871042031936667
  covariance: '<array type: double[36]>'
---
header:
  stamp:
    sec: 1778506931
    nanosec: 381000000
  frame_id: map
pose:
  pose:
    position:
      x: 1.7042600546572235
      y: -0.3442539533310481
      z: 0.0
    orientation:
      x: 0.0
      y: 0.0
      z: -0.12144413350087488
      w: 0.9925982684037997
  covariance: '<array type: double[36]>'
---
header:
  stamp:
    sec: 1778506932
    nanosec: 350000000
  frame_id: map
pose:
  pose:
    position:
      x: 1.6842517346914911
      y: -0.3360906154743515
      z: 0.0
    orientation:
      x: 0.0
      y: 0.0
      z: -0.07258772869294054
      w: 0.9973620313823862
  covariance: '<array type: double[36]>'
---
header:
  stamp:
    sec: 1778506932
    nanosec: 663000000
  frame_id: map
pose:
  pose:
    position:
      x: 1.6943254403468782
      y: -0.3328297738242921
      z: 0.0
    orientation:
      x: 0.0
      y: 0.0
      z: -0.0133052929392555
      w: 0.9999114806720646
  covariance: '<array type: double[36]>'
---
header:
  stamp:
    sec: 1778506934
    nanosec: 100000000
  frame_id: map
pose:
  pose:
    position:
      x: 1.6356197217398418
      y: -0.33550945893853307
      z: 0.0
    orientation:
      x: 0.0
      y: 0.0
      z: 0.010179432825205784
      w: 0.9999481882314489
  covariance: '<array type: double[36]>'
---
header:
  stamp:
    sec: 1778506936
    nanosec: 106000000
  frame_id: map
pose:
  pose:
    position:
      x: 1.6751135547827452
      y: -0.3281392318278552
      z: 0.0
    orientation:
      x: 0.0
      y: 0.0
      z: -0.029094824018979278
      w: 0.9995766559975802
  covariance: '<array type: double[36]>'
---
header:
  stamp:
    sec: 1778506936
    nanosec: 500000000
  frame_id: map
pose:
  pose:
    position:
      x: 1.6898444637573309
      y: -0.32754455365665786
      z: 0.0
    orientation:
      x: 0.0
      y: 0.0
      z: -0.07085061294592897
      w: 0.9974869375812327
  covariance: '<array type: double[36]>'
---
header:
  stamp:
    sec: 1778506936
    nanosec: 907000000
  frame_id: map
pose:
  pose:
    position:
      x: 1.682330257764275
      y: -0.33046003722052014
      z: 0.0
    orientation:
      x: 0.0
      y: 0.0
      z: -0.12530621935561206
      w: 0.9921181136290191
  covariance: '<array type: double[36]>'
---
header:
  stamp:
    sec: 1778506937
    nanosec: 223000000
  frame_id: map
pose:
  pose:
    position:
      x: 1.702405855975179
      y: -0.33200248410906014
      z: 0.0
    orientation:
      x: 0.0
      y: 0.0
      z: -0.1739924296428712
      w: 0.9847469900573297
  covariance: '<array type: double[36]>'
---
header:
  stamp:
    sec: 1778506937
    nanosec: 624000000
  frame_id: map
pose:
  pose:
    position:
      x: 1.6984699273212704
      y: -0.32931381403884374
      z: 0.0
    orientation:
      x: 0.0
      y: 0.0
      z: -0.22007955707640223
      w: 0.9754819263097879
  covariance: '<array type: double[36]>'
---
header:
  stamp:
    sec: 1778506937
    nanosec: 943000000
  frame_id: map
pose:
  pose:
    position:
      x: 1.6939883721088256
      y: -0.3240981020000571
      z: 0.0
    orientation:
      x: 0.0
      y: 0.0
      z: -0.27184519539370233
      w: 0.9623409945239576
  covariance: '<array type: double[36]>'
---
header:
  stamp:
    sec: 1778506939
    nanosec: 314000000
  frame_id: map
pose:
  pose:
    position:
      x: 1.6923268539123926
      y: -0.3215485075213909
      z: 0.0
    orientation:
      x: 0.0
      y: 0.0
      z: -0.31194877879522637
      w: 0.9500989208541218
  covariance: '<array type: double[36]>'
---
header:
  stamp:
    sec: 1778506939
    nanosec: 622000000
  frame_id: map
pose:
  pose:
    position:
      x: 1.6996386354302135
      y: -0.3301625252237374
      z: 0.0
    orientation:
      x: 0.0
      y: 0.0
      z: -0.3575636556244739
      w: 0.9338887686317159
  covariance: '<array type: double[36]>'
---
header:
  stamp:
    sec: 1778506940
    nanosec: 24000000
  frame_id: map
pose:
  pose:
    position:
      x: 1.6900070127850688
      y: -0.33880175672423507
      z: 0.0
    orientation:
      x: 0.0
      y: 0.0
      z: -0.40669147020619273
      w: 0.9135655685617347
  covariance: '<array type: double[36]>'
---
header:
  stamp:
    sec: 1778506940
    nanosec: 344000000
  frame_id: map
pose:
  pose:
    position:
      x: 1.6832915294565876
      y: -0.3349665267095149
      z: 0.0
    orientation:
      x: 0.0
      y: 0.0
      z: -0.4471718381068867
      w: 0.8944480684780466
  covariance: '<array type: double[36]>'
---
header:
  stamp:
    sec: 1778506941
    nanosec: 543000000
  frame_id: map
pose:
  pose:
    position:
      x: 1.687416703901679
      y: -0.3334137697063689
      z: 0.0
    orientation:
      x: 0.0
      y: 0.0
      z: -0.47641444908340574
      w: 0.879220832728931
  covariance: '<array type: double[36]>'
---
header:
  stamp:
    sec: 1778506941
    nanosec: 944000000
  frame_id: map
pose:
  pose:
    position:
      x: 1.702740680627319
      y: -0.34115892943552256
      z: 0.0
    orientation:
      x: 0.0
      y: 0.0
      z: -0.5104586809093883
      w: 0.8599022822880792
  covariance: '<array type: double[36]>'
---
header:
  stamp:
    sec: 1778506942
    nanosec: 275000000
  frame_id: map
pose:
  pose:
    position:
      x: 1.712709999929333
      y: -0.35591400925587463
      z: 0.0
    orientation:
      x: 0.0
      y: 0.0
      z: -0.5531825838225599
      w: 0.8330600392261032
  covariance: '<array type: double[36]>'
---
header:
  stamp:
    sec: 1778506942
    nanosec: 502000000
  frame_id: map
pose:
  pose:
    position:
      x: 1.7178154024676395
      y: -0.3643757825098422
      z: 0.0
    orientation:
      x: 0.0
      y: 0.0
      z: -0.5924348137366735
      w: 0.8056183907240406
  covariance: '<array type: double[36]>'
---
header:
  stamp:
    sec: 1778506942
    nanosec: 741000000
  frame_id: map
pose:
  pose:
    position:
      x: 1.7140375036805802
      y: -0.3731708183541736
      z: 0.0
    orientation:
      x: 0.0
      y: 0.0
      z: -0.6296427346915868
      w: 0.7768848219975082
  covariance: '<array type: double[36]>'
---
header:
  stamp:
    sec: 1778506943
    nanosec: 69000000
  frame_id: map
pose:
  pose:
    position:
      x: 1.721384299278163
      y: -0.38382810189533223
      z: 0.0
    orientation:
      x: 0.0
      y: 0.0
      z: -0.6698868827513588
      w: 0.7424631737114423
  covariance: '<array type: double[36]>'
---
header:
  stamp:
    sec: 1778506943
    nanosec: 300000000
  frame_id: map
pose:
  pose:
    position:
      x: 1.7230976639158964
      y: -0.39166638327083353
      z: 0.0
    orientation:
      x: 0.0
      y: 0.0
      z: -0.701719407894068
      w: 0.712453417835018
  covariance: '<array type: double[36]>'
---
header:
  stamp:
    sec: 1778506943
    nanosec: 544000000
  frame_id: map
pose:
  pose:
    position:
      x: 1.7243125119344143
      y: -0.414625877335325
      z: 0.0
    orientation:
      x: 0.0
      y: 0.0
      z: -0.7327134803104898
      w: 0.6805372552412464
  covariance: '<array type: double[36]>'
---
header:
  stamp:
    sec: 1778506944
    nanosec: 198000000
  frame_id: map
pose:
  pose:
    position:
      x: 1.713067724746555
      y: -0.4773260688681716
      z: 0.0
    orientation:
      x: 0.0
      y: 0.0
      z: -0.7560432180190313
      w: 0.6545216974917084
  covariance: '<array type: double[36]>'
---
header:
  stamp:
    sec: 1778506944
    nanosec: 743000000
  frame_id: map
pose:
  pose:
    position:
      x: 1.697833412999346
      y: -0.5410513280496105
      z: 0.0
    orientation:
      x: 0.0
      y: 0.0
      z: -0.7593083006830894
      w: 0.6507310539030384
  covariance: '<array type: double[36]>'
---
header:
  stamp:
    sec: 1778506945
    nanosec: 950000000
  frame_id: map
pose:
  pose:
    position:
      x: 1.6873514704728179
      y: -0.6022628573353389
      z: 0.0
    orientation:
      x: 0.0
      y: 0.0
      z: -0.7543064302860693
      w: 0.6565225123551266
  covariance: '<array type: double[36]>'
---
header:
  stamp:
    sec: 1778506946
    nanosec: 502000000
  frame_id: map
pose:
  pose:
    position:
      x: 1.6766389152583643
      y: -0.6639804023903835
      z: 0.0
    orientation:
      x: 0.0
      y: 0.0
      z: -0.7469344513291168
      w: 0.6648976804123107
  covariance: '<array type: double[36]>'
---
header:
  stamp:
    sec: 1778506947
    nanosec: 141000000
  frame_id: map
pose:
  pose:
    position:
      x: 1.6727418976048798
      y: -0.7247108858100277
      z: 0.0
    orientation:
      x: 0.0
      y: 0.0
      z: -0.7327566327563133
      w: 0.6804907913790086
  covariance: '<array type: double[36]>'
---
header:
  stamp:
    sec: 1778506947
    nanosec: 788000000
  frame_id: map
pose:
  pose:
    position:
      x: 1.6649315401549305
      y: -0.7852928757753377
      z: 0.0
    orientation:
      x: 0.0
      y: 0.0
      z: -0.71420743020832
      w: 0.6999341016375954
  covariance: '<array type: double[36]>'
---
header:
  stamp:
    sec: 1778506948
    nanosec: 500000000
  frame_id: map
pose:
  pose:
    position:
      x: 1.6558943558859474
      y: -0.8145776094305621
      z: 0.0
    orientation:
      x: 0.0
      y: 0.0
      z: -0.6849997555880258
      w: 0.7285432964789017
  covariance: '<array type: double[36]>'
---
header:
  stamp:
    sec: 1778506949
    nanosec: 144000000
  frame_id: map
pose:
  pose:
    position:
      x: 1.658874970417264
      y: -0.8170421537467983
      z: 0.0
    orientation:
      x: 0.0
      y: 0.0
      z: -0.6535924729500054
      w: 0.7568466682909402
  covariance: '<array type: double[36]>'
---
header:
  stamp:
    sec: 1778506949
    nanosec: 867000000
  frame_id: map
pose:
  pose:
    position:
      x: 1.6600063471367734
      y: -0.7987365299208244
      z: 0.0
    orientation:
      x: 0.0
      y: 0.0
      z: -0.6138969501183648
      w: 0.78938617585778
  covariance: '<array type: double[36]>'
---
header:
  stamp:
    sec: 1778506950
    nanosec: 270000000
  frame_id: map
pose:
  pose:
    position:
      x: 1.6602475664935035
      y: -0.8033657626640223
      z: 0.0
    orientation:
      x: 0.0
      y: 0.0
      z: -0.5745872172263804
      w: 0.8184433577224781
  covariance: '<array type: double[36]>'
---
header:
  stamp:
    sec: 1778506950
    nanosec: 581000000
  frame_id: map
pose:
  pose:
    position:
      x: 1.6620205153129282
      y: -0.8029156279011639
      z: 0.0
    orientation:
      x: 0.0
      y: 0.0
      z: -0.5334565066091422
      w: 0.8458274975172954
  covariance: '<array type: double[36]>'
---
header:
  stamp:
    sec: 1778506950
    nanosec: 906000000
  frame_id: map
pose:
  pose:
    position:
      x: 1.666472090573184
      y: -0.809748746601417
      z: 0.0
    orientation:
      x: 0.0
      y: 0.0
      z: -0.48974521387397874
      w: 0.8718656005873444
  covariance: '<array type: double[36]>'
---
header:
  stamp:
    sec: 1778506951
    nanosec: 225000000
  frame_id: map
pose:
  pose:
    position:
      x: 1.6580068190155344
      y: -0.8000177885548708
      z: 0.0
    orientation:
      x: 0.0
      y: 0.0
      z: -0.45084736995871916
      w: 0.8926010581448499
  covariance: '<array type: double[36]>'
---
header:
  stamp:
    sec: 1778506951
    nanosec: 550000000
  frame_id: map
pose:
  pose:
    position:
      x: 1.664783904589089
      y: -0.8031753605993672
      z: 0.0
    orientation:
      x: 0.0
      y: 0.0
      z: -0.4111613334925846
      w: 0.9115625912906912
  covariance: '<array type: double[36]>'
---
header:
  stamp:
    sec: 1778506951
    nanosec: 956000000
  frame_id: map
pose:
  pose:
    position:
      x: 1.668780864551589
      y: -0.7991196079218996
      z: 0.0
    orientation:
      x: 0.0
      y: 0.0
      z: -0.36699359272036763
      w: 0.9302234693352974
  covariance: '<array type: double[36]>'
---
header:
  stamp:
    sec: 1778506952
    nanosec: 517000000
  frame_id: map
pose:
  pose:
    position:
      x: 1.676354819868807
      y: -0.8077309546849446
      z: 0.0
    orientation:
      x: 0.0
      y: 0.0
      z: -0.3256088663625261
      w: 0.9455045563856954
  covariance: '<array type: double[36]>'
---
header:
  stamp:
    sec: 1778506952
    nanosec: 844000000
  frame_id: map
pose:
  pose:
    position:
      x: 1.6692534961818946
      y: -0.8014277243036328
      z: 0.0
    orientation:
      x: 0.0
      y: 0.0
      z: -0.2773043436835211
      w: 0.9607821298162511
  covariance: '<array type: double[36]>'
---
header:
  stamp:
    sec: 1778506953
    nanosec: 302000000
  frame_id: map
pose:
  pose:
    position:
      x: 1.6614037574391884
      y: -0.7948367894251082
      z: 0.0
    orientation:
      x: 0.0
      y: 0.0
      z: -0.23766164609248144
      w: 0.9713480025081701
  covariance: '<array type: double[36]>'
---
header:
  stamp:
    sec: 1778506954
    nanosec: 22000000
  frame_id: map
pose:
  pose:
    position:
      x: 1.6606331232233478
      y: -0.787382155550186
      z: 0.0
    orientation:
      x: 0.0
      y: 0.0
      z: -0.19535414579943058
      w: 0.9807327657007157
  covariance: '<array type: double[36]>'
---
header:
  stamp:
    sec: 1778506954
    nanosec: 505000000
  frame_id: map
pose:
  pose:
    position:
      x: 1.6624318173921622
      y: -0.785218430099213
      z: 0.0
    orientation:
      x: 0.0
      y: 0.0
      z: -0.15248290678591128
      w: 0.9883061080141714
  covariance: '<array type: double[36]>'
---
header:
  stamp:
    sec: 1778506954
    nanosec: 820000000
  frame_id: map
pose:
  pose:
    position:
      x: 1.6607639820165967
      y: -0.784586014188376
      z: 0.0
    orientation:
      x: 0.0
      y: 0.0
      z: -0.11132901202120903
      w: 0.9937836037500224
  covariance: '<array type: double[36]>'
---
header:
  stamp:
    sec: 1778506955
    nanosec: 221000000
  frame_id: map
pose:
  pose:
    position:
      x: 1.6701573098332627
      y: -0.7849078596204528
      z: 0.0
    orientation:
      x: 0.0
      y: 0.0
      z: -0.07327281791111653
      w: 0.9973119342288873
  covariance: '<array type: double[36]>'
---
header:
  stamp:
    sec: 1778506955
    nanosec: 620000000
  frame_id: map
pose:
  pose:
    position:
      x: 1.6783100340031663
      y: -0.781020219288785
      z: 0.0
    orientation:
      x: 0.0
      y: 0.0
      z: -0.02798817948260029
      w: 0.9996082541722281
  covariance: '<array type: double[36]>'
---
header:
  stamp:
    sec: 1778506957
    nanosec: 866000000
  frame_id: map
pose:
  pose:
    position:
      x: 1.7461112798781115
      y: -0.7829334594315464
      z: 0.0
    orientation:
      x: 0.0
      y: 0.0
      z: -0.025264686415272256
      w: 0.9996807968648482
  covariance: '<array type: double[36]>'
---
header:
  stamp:
    sec: 1778506959
    nanosec: 387000000
  frame_id: map
pose:
  pose:
    position:
      x: 1.8297277783010344
      y: -0.7916745691456557
      z: 0.0
    orientation:
      x: 0.0
      y: 0.0
      z: -0.044165410644775714
      w: 0.9990242321898796
  covariance: '<array type: double[36]>'
---
header:
  stamp:
    sec: 1778506959
    nanosec: 942000000
  frame_id: map
pose:
  pose:
    position:
      x: 1.8928839346963833
      y: -0.7972877460077763
      z: 0.0
    orientation:
      x: 0.0
      y: 0.0
      z: -0.0673678943854055
      w: 0.9977282028719429
  covariance: '<array type: double[36]>'
---
header:
  stamp:
    sec: 1778506960
    nanosec: 447000000
  frame_id: map
pose:
  pose:
    position:
      x: 1.9645095366527092
      y: -0.8080064818386026
      z: 0.0
    orientation:
      x: 0.0
      y: 0.0
      z: -0.06993884437350947
      w: 0.9975512809112612
  covariance: '<array type: double[36]>'
---
header:
  stamp:
    sec: 1778506966
    nanosec: 426000000
  frame_id: map
pose:
  pose:
    position:
      x: 2.0291502733172933
      y: -0.8128187508294138
      z: 0.0
    orientation:
      x: 0.0
      y: 0.0
      z: -0.0601393370891995
      w: 0.9981899920027608
  covariance: '<array type: double[36]>'
---
header:
  stamp:
    sec: 1778506966
    nanosec: 869000000
  frame_id: map
pose:
  pose:
    position:
      x: 2.0902166953918933
      y: -0.8133454893166682
      z: 0.0
    orientation:
      x: 0.0
      y: 0.0
      z: -0.04720161478952672
      w: 0.9988853825946504
  covariance: '<array type: double[36]>'
---
header:
  stamp:
    sec: 1778506967
    nanosec: 383000000
  frame_id: map
pose:
  pose:
    position:
      x: 2.152454065696021
      y: -0.8146278260822017
      z: 0.0
    orientation:
      x: 0.0
      y: 0.0
      z: -0.031134855182295203
      w: 0.9995151928774157
  covariance: '<array type: double[36]>'
---
header:
  stamp:
    sec: 1778506967
    nanosec: 872000000
  frame_id: map
pose:
  pose:
    position:
      x: 2.2200849590198475
      y: -0.8054419946479305
      z: 0.0
    orientation:
      x: 0.0
      y: 0.0
      z: -0.00978991296887591
      w: 0.9999520776537553
  covariance: '<array type: double[36]>'
---
header:
  stamp:
    sec: 1778506968
    nanosec: 505000000
  frame_id: map
pose:
  pose:
    position:
      x: 2.27884574021649
      y: -0.80603071532988
      z: 0.0
    orientation:
      x: 0.0
      y: 0.0
      z: -0.0014739418443258099
      w: 0.9999989137471298
  covariance: '<array type: double[36]>'
---
header:
  stamp:
    sec: 1778506969
    nanosec: 72000000
  frame_id: map
pose:
  pose:
    position:
      x: 2.341158787378182
      y: -0.8059826799835365
      z: 0.0
    orientation:
      x: 0.0
      y: 0.0
      z: 0.007521999626953606
      w: 0.999971709360626
  covariance: '<array type: double[36]>'
---
header:
  stamp:
    sec: 1778506969
    nanosec: 710000000
  frame_id: map
pose:
  pose:
    position:
      x: 2.4059370364619586
      y: -0.8067899235872431
      z: 0.0
    orientation:
      x: 0.0
      y: 0.0
      z: 0.00768373233931455
      w: 0.9999704796929446
  covariance: '<array type: double[36]>'
---
header:
  stamp:
    sec: 1778506970
    nanosec: 340000000
  frame_id: map
pose:
  pose:
    position:
      x: 2.4647782356379078
      y: -0.8086902724638376
      z: 0.0
    orientation:
      x: 0.0
      y: 0.0
      z: -0.0017940311844152595
      w: 0.9999983907247598
  covariance: '<array type: double[36]>'
---
header:
  stamp:
    sec: 1778506970
    nanosec: 986000000
  frame_id: map
pose:
  pose:
    position:
      x: 2.5238190991319325
      y: -0.8150211515495097
      z: 0.0
    orientation:
      x: 0.0
      y: 0.0
      z: -0.01107185921512537
      w: 0.9999387050882271
  covariance: '<array type: double[36]>'
---
header:
  stamp:
    sec: 1778506971
    nanosec: 622000000
  frame_id: map
pose:
  pose:
    position:
      x: 2.581124044103603
      y: -0.819464859826412
      z: 0.0
    orientation:
      x: 0.0
      y: 0.0
      z: -0.020630366227283793
      w: 0.9997871713466462
  covariance: '<array type: double[36]>'
---
header:
  stamp:
    sec: 1778506972
    nanosec: 821000000
  frame_id: map
pose:
  pose:
    position:
      x: 2.6068343840921706
      y: -0.8231120781380489
      z: 0.0
    orientation:
      x: 0.0
      y: 0.0
      z: -0.06408526388458521
      w: 0.9979444267858021
  covariance: '<array type: double[36]>'
---
header:
  stamp:
    sec: 1778506973
    nanosec: 469000000
  frame_id: map
pose:
  pose:
    position:
      x: 2.5969530385568
      y: -0.8211373254148399
      z: 0.0
    orientation:
      x: 0.0
      y: 0.0
      z: -0.11508953081221918
      w: 0.9933551227518904
  covariance: '<array type: double[36]>'
---
header:
  stamp:
    sec: 1778506973
    nanosec: 941000000
  frame_id: map
pose:
  pose:
    position:
      x: 2.5824425738821652
      y: -0.8176442768860483
      z: 0.0
    orientation:
      x: 0.0
      y: 0.0
      z: -0.16147625038457925
      w: 0.9868765984467038
  covariance: '<array type: double[36]>'
---
header:
  stamp:
    sec: 1778506974
    nanosec: 904000000
  frame_id: map
pose:
  pose:
    position:
      x: 2.6129576020033416
      y: -0.8304532154402885
      z: 0.0
    orientation:
      x: 0.0
      y: 0.0
      z: -0.20105670418288416
      w: 0.979579604576941
  covariance: '<array type: double[36]>'
---
header:
  stamp:
    sec: 1778506975
    nanosec: 465000000
  frame_id: map
pose:
  pose:
    position:
      x: 2.6177118281657132
      y: -0.8301614464823523
      z: 0.0
    orientation:
      x: 0.0
      y: 0.0
      z: -0.25279735164536987
      w: 0.9675192499382569
  covariance: '<array type: double[36]>'
---
header:
  stamp:
    sec: 1778506975
    nanosec: 784000000
  frame_id: map
pose:
  pose:
    position:
      x: 2.625907877300603
      y: -0.8336638187155265
      z: 0.0
    orientation:
      x: 0.0
      y: 0.0
      z: -0.29913949646518473
      w: 0.9542093908857509
  covariance: '<array type: double[36]>'
---
header:
  stamp:
    sec: 1778506976
    nanosec: 100000000
  frame_id: map
pose:
  pose:
    position:
      x: 2.6219615077010587
      y: -0.8382977740544731
      z: 0.0
    orientation:
      x: 0.0
      y: 0.0
      z: -0.352231127478606
      w: 0.9359130476893406
  covariance: '<array type: double[36]>'
---
header:
  stamp:
    sec: 1778506976
    nanosec: 506000000
  frame_id: map
pose:
  pose:
    position:
      x: 2.6196385888723377
      y: -0.8373988300097502
      z: 0.0
    orientation:
      x: 0.0
      y: 0.0
      z: -0.39313083328975656
      w: 0.9194825435629007
  covariance: '<array type: double[36]>'
---
header:
  stamp:
    sec: 1778506976
    nanosec: 824000000
  frame_id: map
pose:
  pose:
    position:
      x: 2.6288035998264485
      y: -0.8420028314720773
      z: 0.0
    orientation:
      x: 0.0
      y: 0.0
      z: -0.4315673801168612
      w: 0.9020807039389928
  covariance: '<array type: double[36]>'
---
header:
  stamp:
    sec: 1778506977
    nanosec: 223000000
  frame_id: map
pose:
  pose:
    position:
      x: 2.631082567308104
      y: -0.8441933117488934
      z: 0.0
    orientation:
      x: 0.0
      y: 0.0
      z: -0.4746806544086444
      w: 0.8801580973496643
  covariance: '<array type: double[36]>'
---
header:
  stamp:
    sec: 1778506977
    nanosec: 544000000
  frame_id: map
pose:
  pose:
    position:
      x: 2.6301921027356023
      y: -0.8400944660972427
      z: 0.0
    orientation:
      x: 0.0
      y: 0.0
      z: -0.5215649747962291
      w: 0.8532115664158619
  covariance: '<array type: double[36]>'
---
header:
  stamp:
    sec: 1778506977
    nanosec: 784000000
  frame_id: map
pose:
  pose:
    position:
      x: 2.633426885748649
      y: -0.8484464784098124
      z: 0.0
    orientation:
      x: 0.0
      y: 0.0
      z: -0.5566016605076355
      w: 0.8307795083655728
  covariance: '<array type: double[36]>'
---
header:
  stamp:
    sec: 1778506978
    nanosec: 103000000
  frame_id: map
pose:
  pose:
    position:
      x: 2.62914189459773
      y: -0.8498289054435358
      z: 0.0
    orientation:
      x: 0.0
      y: 0.0
      z: -0.6011980152752812
      w: 0.7991000853641944
  covariance: '<array type: double[36]>'
---
header:
  stamp:
    sec: 1778506978
    nanosec: 432000000
  frame_id: map
pose:
  pose:
    position:
      x: 2.634736401309447
      y: -0.860172308140534
      z: 0.0
    orientation:
      x: 0.0
      y: 0.0
      z: -0.6369907447042911
      w: 0.7708714491801293
  covariance: '<array type: double[36]>'
---
header:
  stamp:
    sec: 1778506978
    nanosec: 821000000
  frame_id: map
pose:
  pose:
    position:
      x: 2.634675806532068
      y: -0.8554339438756707
      z: 0.0
    orientation:
      x: 0.0
      y: 0.0
      z: -0.673947832459094
      w: 0.7387789379264199
  covariance: '<array type: double[36]>'
---
header:
  stamp:
    sec: 1778506980
    nanosec: 903000000
  frame_id: map
pose:
  pose:
    position:
      x: 2.642032125736228
      y: -0.9279115393723162
      z: 0.0
    orientation:
      x: 0.0
      y: 0.0
      z: -0.6976009120772289
      w: 0.7164865438157358
  covariance: '<array type: double[36]>'
---
header:
  stamp:
    sec: 1778506981
    nanosec: 546000000
  frame_id: map
pose:
  pose:
    position:
      x: 2.6495118308153582
      y: -0.991228703139311
      z: 0.0
    orientation:
      x: 0.0
      y: 0.0
      z: -0.717488414887897
      w: 0.6965704375737266
  covariance: '<array type: double[36]>'
---
header:
  stamp:
    sec: 1778506982
    nanosec: 262000000
  frame_id: map
pose:
  pose:
    position:
      x: 2.6531491052296485
      y: -1.0592922703669423
      z: 0.0
    orientation:
      x: 0.0
      y: 0.0
      z: -0.73165437351871
      w: 0.6816757863610413
  covariance: '<array type: double[36]>'
---
header:
  stamp:
    sec: 1778506982
    nanosec: 823000000
  frame_id: map
pose:
  pose:
    position:
      x: 2.6498535007911013
      y: -1.1095767467001412
      z: 0.0
    orientation:
      x: 0.0
      y: 0.0
      z: -0.7387536171760646
      w: 0.6739755879179012
  covariance: '<array type: double[36]>'
---
header:
  stamp:
    sec: 1778506983
    nanosec: 866000000
  frame_id: map
pose:
  pose:
    position:
      x: 2.648776345047962
      y: -1.1672003201771168
      z: 0.0
    orientation:
      x: 0.0
      y: 0.0
      z: -0.7266111212672506
      w: 0.6870489636486972
  covariance: '<array type: double[36]>'
---
header:
  stamp:
    sec: 1778506985
    nanosec: 782000000
  frame_id: map
pose:
  pose:
    position:
      x: 2.6499688047307632
      y: -1.1573890033307301
      z: 0.0
    orientation:
      x: 0.0
      y: 0.0
      z: -0.7519281523330384
      w: 0.6592450634847583
  covariance: '<array type: double[36]>'
---
header:
  stamp:
    sec: 1778506986
    nanosec: 264000000
  frame_id: map
pose:
  pose:
    position:
      x: 2.6529514512717074
      y: -1.1594625353271408
      z: 0.0
    orientation:
      x: 0.0
      y: 0.0
      z: -0.7763802098532296
      w: 0.6302648409583507
  covariance: '<array type: double[36]>'
---
header:
  stamp:
    sec: 1778506986
    nanosec: 664000000
  frame_id: map
pose:
  pose:
    position:
      x: 2.655635533065327
      y: -1.1639484308515826
      z: 0.0
    orientation:
      x: 0.0
      y: 0.0
      z: -0.7978951739481521
      w: 0.6027962270869387
  covariance: '<array type: double[36]>'
---
header:
  stamp:
    sec: 1778506987
    nanosec: 81000000
  frame_id: map
pose:
  pose:
    position:
      x: 2.66389226430986
      y: -1.1467810219164645
      z: 0.0
    orientation:
      x: 0.0
      y: 0.0
      z: -0.8242829996606761
      w: 0.5661780077593953
  covariance: '<array type: double[36]>'
---
header:
  stamp:
    sec: 1778506988
    nanosec: 824000000
  frame_id: map
pose:
  pose:
    position:
      x: 2.649430188592819
      y: -1.1728828848086172
      z: 0.0
    orientation:
      x: 0.0
      y: 0.0
      z: -0.8439824178595592
      w: 0.5363708403184615
  covariance: '<array type: double[36]>'
---
header:
  stamp:
    sec: 1778506989
    nanosec: 302000000
  frame_id: map
pose:
  pose:
    position:
      x: 2.6493429906180417
      y: -1.1779228451222559
      z: 0.0
    orientation:
      x: 0.0
      y: 0.0
      z: -0.8629751461140808
      w: 0.5052463727622208
  covariance: '<array type: double[36]>'
---
header:
  stamp:
    sec: 1778506989
    nanosec: 782000000
  frame_id: map
pose:
  pose:
    position:
      x: 2.645617133112019
      y: -1.1938314401514305
      z: 0.0
    orientation:
      x: 0.0
      y: 0.0
      z: -0.885377625155387
      w: 0.4648725211003627
  covariance: '<array type: double[36]>'
---
header:
  stamp:
    sec: 1778506990
    nanosec: 340000000
  frame_id: map
pose:
  pose:
    position:
      x: 2.641323510269919
      y: -1.1711694865639735
      z: 0.0
    orientation:
      x: 0.0
      y: 0.0
      z: -0.893458830366295
      w: 0.44914509731320906
  covariance: '<array type: double[36]>'
---
header:
  stamp:
    sec: 1778506990
    nanosec: 670000000
  frame_id: map
pose:
  pose:
    position:
      x: 2.629964438384936
      y: -1.1792916496360475
      z: 0.0
    orientation:
      x: 0.0
      y: 0.0
      z: -0.9106832023354541
      w: 0.41310544051615
  covariance: '<array type: double[36]>'
---
header:
  stamp:
    sec: 1778506991
    nanosec: 64000000
  frame_id: map
pose:
  pose:
    position:
      x: 2.6415518695614835
      y: -1.175294331822371
      z: 0.0
    orientation:
      x: 0.0
      y: 0.0
      z: -0.9416202098963157
      w: 0.3366769673066728
  covariance: '<array type: double[36]>'
---
header:
  stamp:
    sec: 1778506991
    nanosec: 391000000
  frame_id: map
pose:
  pose:
    position:
      x: 2.6455075536188524
      y: -1.173503687540922
      z: 0.0
    orientation:
      x: 0.0
      y: 0.0
      z: -0.9554702103210195
      w: 0.2950875754570271
  covariance: '<array type: double[36]>'
---
header:
  stamp:
    sec: 1778506991
    nanosec: 783000000
  frame_id: map
pose:
  pose:
    position:
      x: 2.6443837468984377
      y: -1.1757054782190834
      z: 0.0
    orientation:
      x: 0.0
      y: 0.0
      z: -0.9692540418626115
      w: 0.24606219200232865
  covariance: '<array type: double[36]>'
---
header:
  stamp:
    sec: 1778506992
    nanosec: 37000000
  frame_id: map
pose:
  pose:
    position:
      x: 2.6477013933224525
      y: -1.1726020779914093
      z: 0.0
    orientation:
      x: 0.0
      y: 0.0
      z: -0.9771851831726935
      w: 0.21238907172392207
  covariance: '<array type: double[36]>'
---
header:
  stamp:
    sec: 1778506992
    nanosec: 344000000
  frame_id: map
pose:
  pose:
    position:
      x: 2.6446971838164166
      y: -1.1762474402830914
      z: 0.0
    orientation:
      x: 0.0
      y: 0.0
      z: -0.98407462694918
      w: 0.17775581170479973
  covariance: '<array type: double[36]>'
---
header:
  stamp:
    sec: 1778506992
    nanosec: 748000000
  frame_id: map
pose:
  pose:
    position:
      x: 2.6433476054840424
      y: -1.1714917911349916
      z: 0.0
    orientation:
      x: 0.0
      y: 0.0
      z: -0.990294017008055
      w: 0.13898834439639246
  covariance: '<array type: double[36]>'
---
header:
  stamp:
    sec: 1778506993
    nanosec: 63000000
  frame_id: map
pose:
  pose:
    position:
      x: 2.6425731756410094
      y: -1.1690047833660326
      z: 0.0
    orientation:
      x: 0.0
      y: 0.0
      z: -0.9957914499793394
      w: 0.09164817591226039
  covariance: '<array type: double[36]>'
---
header:
  stamp:
    sec: 1778506996
    nanosec: 902000000
  frame_id: map
pose:
  pose:
    position:
      x: 2.633018444919192
      y: -1.167725709785873
      z: 0.0
    orientation:
      x: 0.0
      y: 0.0
      z: -0.9901471182816615
      w: 0.14003101141719138
  covariance: '<array type: double[36]>'
---
header:
  stamp:
    sec: 1778506997
    nanosec: 233000000
  frame_id: map
pose:
  pose:
    position:
      x: 2.625275618314544
      y: -1.1942621049749573
      z: 0.0
    orientation:
      x: 0.0
      y: 0.0
      z: -0.984507820239323
      w: 0.1753406737970878
  covariance: '<array type: double[36]>'
---
header:
  stamp:
    sec: 1778506997
    nanosec: 620000000
  frame_id: map
pose:
  pose:
    position:
      x: 2.6220251568121284
      y: -1.1926032663620427
      z: 0.0
    orientation:
      x: 0.0
      y: 0.0
      z: -0.9754435498649181
      w: 0.2202495880289609
  covariance: '<array type: double[36]>'
---
header:
  stamp:
    sec: 1778506997
    nanosec: 943000000
  frame_id: map
pose:
  pose:
    position:
      x: 2.6186687392492956
      y: -1.1976697383940633
      z: 0.0
    orientation:
      x: 0.0
      y: 0.0
      z: -0.9666369638941887
      w: 0.2561503075021087
  covariance: '<array type: double[36]>'
---
header:
  stamp:
    sec: 1778506998
    nanosec: 341000000
  frame_id: map
pose:
  pose:
    position:
      x: 2.6255464135629976
      y: -1.1923710998723385
      z: 0.0
    orientation:
      x: 0.0
      y: 0.0
      z: -0.9514600181828858
      w: 0.30777237335313684
  covariance: '<array type: double[36]>'
---
header:
  stamp:
    sec: 1778506998
    nanosec: 666000000
  frame_id: map
pose:
  pose:
    position:
      x: 2.625763348119158
      y: -1.192439865148396
      z: 0.0
    orientation:
      x: 0.0
      y: 0.0
      z: -0.9370898685543305
      w: 0.34908820984505845
  covariance: '<array type: double[36]>'
---
header:
  stamp:
    sec: 1778506998
    nanosec: 980000000
  frame_id: map
pose:
  pose:
    position:
      x: 2.6269518332286137
      y: -1.1933512990981416
      z: 0.0
    orientation:
      x: 0.0
      y: 0.0
      z: -0.922288873784841
      w: 0.3865012720453707
  covariance: '<array type: double[36]>'
---
header:
  stamp:
    sec: 1778506999
    nanosec: 223000000
  frame_id: map
pose:
  pose:
    position:
      x: 2.6263278121644444
      y: -1.1930567061576411
      z: 0.0
    orientation:
      x: 0.0
      y: 0.0
      z: -0.9016474094528443
      w: 0.43247190547707837
  covariance: '<array type: double[36]>'
---
header:
  stamp:
    sec: 1778506999
    nanosec: 623000000
  frame_id: map
pose:
  pose:
    position:
      x: 2.634192666956715
      y: -1.1900758785916228
      z: 0.0
    orientation:
      x: 0.0
      y: 0.0
      z: -0.8807730203153301
      w: 0.47353868552063527
  covariance: '<array type: double[36]>'
---
header:
  stamp:
    sec: 1778507000
    nanosec: 107000000
  frame_id: map
pose:
  pose:
    position:
      x: 2.6277602917571703
      y: -1.1946297306416418
      z: 0.0
    orientation:
      x: 0.0
      y: 0.0
      z: -0.8596373381817476
      w: 0.5109047335891493
  covariance: '<array type: double[36]>'
---
header:
  stamp:
    sec: 1778507000
    nanosec: 426000000
  frame_id: map
pose:
  pose:
    position:
      x: 2.632847874481293
      y: -1.1870789302935645
      z: 0.0
    orientation:
      x: 0.0
      y: 0.0
      z: -0.8372849029190872
      w: 0.5467668528209941
  covariance: '<array type: double[36]>'
---
header:
  stamp:
    sec: 1778507000
    nanosec: 753000000
  frame_id: map
pose:
  pose:
    position:
      x: 2.6314098995884634
      y: -1.2062405197798578
      z: 0.0
    orientation:
      x: 0.0
      y: 0.0
      z: -0.813717696878714
      w: 0.5812602771447584
  covariance: '<array type: double[36]>'
---
header:
  stamp:
    sec: 1778507001
    nanosec: 63000000
  frame_id: map
pose:
  pose:
    position:
      x: 2.631136580892976
      y: -1.2103783482174961
      z: 0.0
    orientation:
      x: 0.0
      y: 0.0
      z: -0.7804418926286391
      w: 0.6252283200801352
  covariance: '<array type: double[36]>'
---
header:
  stamp:
    sec: 1778507001
    nanosec: 304000000
  frame_id: map
pose:
  pose:
    position:
      x: 2.629315709451937
      y: -1.2162362870528245
      z: 0.0
    orientation:
      x: 0.0
      y: 0.0
      z: -0.7508098988560589
      w: 0.6605183538553299
  covariance: '<array type: double[36]>'
---
header:
  stamp:
    sec: 1778507001
    nanosec: 623000000
  frame_id: map
pose:
  pose:
    position:
      x: 2.630352456031511
      y: -1.2257431280224973
      z: 0.0
    orientation:
      x: 0.0
      y: 0.0
      z: -0.7247333712837631
      w: 0.689029419217838
  covariance: '<array type: double[36]>'
---
header:
  stamp:
    sec: 1778507002
    nanosec: 22000000
  frame_id: map
pose:
  pose:
    position:
      x: 2.6284672995641984
      y: -1.254583654818083
      z: 0.0
    orientation:
      x: 0.0
      y: 0.0
      z: -0.6930267140448174
      w: 0.7209119042020619
  covariance: '<array type: double[36]>'
---
header:
  stamp:
    sec: 1778507002
    nanosec: 910000000
  frame_id: map
pose:
  pose:
    position:
      x: 2.62917513003952
      y: -1.3173984755001393
      z: 0.0
    orientation:
      x: 0.0
      y: 0.0
      z: -0.6829269854619483
      w: 0.7304866408962287
