header:
  stamp:
    sec: 1778500182
    nanosec: 972000000
  frame_id: map
pose:
  pose:
    position:
      x: 0.0
      y: 0.0
      z: 0.0
    orientation:
      x: 0.0
      y: 0.0
      z: 0.0
      w: 1.0
  covariance: '<array type: double[36]>'
---
header:
  stamp:
    sec: 1778500237
    nanosec: 173000000
  frame_id: map
pose:
  pose:
    position:
      x: 0.05777579850534739
      y: -0.0005495551051432025
      z: 0.0
    orientation:
      x: 0.0
      y: 0.0
      z: -0.008101611071698094
      w: 0.9999671814104916
  covariance: '<array type: double[36]>'
---
header:
  stamp:
    sec: 1778500237
    nanosec: 479000000
  frame_id: map
pose:
  pose:
    position:
      x: 0.10790707493402218
      y: -0.0019000696671300941
      z: 0.0
    orientation:
      x: 0.0
      y: 0.0
      z: -0.016629711042506136
      w: 0.9998617167941989
  covariance: '<array type: double[36]>'
---
header:
  stamp:
    sec: 1778500237
    nanosec: 876000000
  frame_id: map
pose:
  pose:
    position:
      x: 0.16309312754431038
      y: -0.004324646078629204
      z: 0.0
    orientation:
      x: 0.0
      y: 0.0
      z: -0.02481508857727201
      w: 0.9996920582753982
  covariance: '<array type: double[36]>'
---
header:
  stamp:
    sec: 1778500238
    nanosec: 359000000
  frame_id: map
pose:
  pose:
    position:
      x: 0.2130572845392042
      y: -0.007437066850515835
      z: 0.0
    orientation:
      x: 0.0
      y: 0.0
      z: -0.03540641695064112
      w: 0.999372996252509
  covariance: '<array type: double[36]>'
---
header:
  stamp:
    sec: 1778500238
    nanosec: 844000000
  frame_id: map
pose:
  pose:
    position:
      x: 0.26394368369393434
      y: -0.01179988711759741
      z: 0.0
    orientation:
      x: 0.0
      y: 0.0
      z: -0.04777528918819342
      w: 0.998858108913866
  covariance: '<array type: double[36]>'
---
header:
  stamp:
    sec: 1778500239
    nanosec: 322000000
  frame_id: map
pose:
  pose:
    position:
      x: 0.31415142410961605
      y: -0.016926244736663557
      z: 0.0
    orientation:
      x: 0.0
      y: 0.0
      z: -0.047847531374536637
      w: 0.9988546509584679
  covariance: '<array type: double[36]>'
---
header:
  stamp:
    sec: 1778500239
    nanosec: 894000000
  frame_id: map
pose:
  pose:
    position:
      x: 0.36184036884279813
      y: -0.021620666857153924
      z: 0.0
    orientation:
      x: 0.0
      y: 0.0
      z: -0.04743302189569967
      w: 0.9988744207525999
  covariance: '<array type: double[36]>'
---
header:
  stamp:
    sec: 1778500240
    nanosec: 438000000
  frame_id: map
pose:
  pose:
    position:
      x: 0.4116037433169597
      y: -0.02660933269440779
      z: 0.0
    orientation:
      x: 0.0
      y: 0.0
      z: -0.04826866036580381
      w: 0.9988343888886139
  covariance: '<array type: double[36]>'
---
header:
  stamp:
    sec: 1778500240
    nanosec: 928000000
  frame_id: map
pose:
  pose:
    position:
      x: 0.45384451667837156
      y: -0.028967492557502448
      z: 0.0
    orientation:
      x: 0.0
      y: 0.0
      z: -0.04002791963983765
      w: 0.9991985616729573
  covariance: '<array type: double[36]>'
---
header:
  stamp:
    sec: 1778500241
    nanosec: 646000000
  frame_id: map
pose:
  pose:
    position:
      x: 0.4828799473097069
      y: -0.031168625212907152
      z: 0.0
    orientation:
      x: 0.0
      y: 0.0
      z: 0.006209789269211867
      w: 0.9999807190727389
  covariance: '<array type: double[36]>'
---
header:
  stamp:
    sec: 1778500242
    nanosec: 440000000
  frame_id: map
pose:
  pose:
    position:
      x: 0.5209288385689428
      y: -0.029822617126321418
      z: 0.0
    orientation:
      x: 0.0
      y: 0.0
      z: 0.04761945773287635
      w: 0.9988655501343646
  covariance: '<array type: double[36]>'
---
header:
  stamp:
    sec: 1778500242
    nanosec: 999000000
  frame_id: map
pose:
  pose:
    position:
      x: 0.54185708561444
      y: -0.025229837407794838
      z: 0.0
    orientation:
      x: 0.0
      y: 0.0
      z: 0.09188066663029737
      w: 0.9957700252064089
  covariance: '<array type: double[36]>'
---
header:
  stamp:
    sec: 1778500243
    nanosec: 560000000
  frame_id: map
pose:
  pose:
    position:
      x: 0.5758453101649431
      y: -0.01665922317075933
      z: 0.0
    orientation:
      x: 0.0
      y: 0.0
      z: 0.13373217505823853
      w: 0.9910175101148277
  covariance: '<array type: double[36]>'
---
header:
  stamp:
    sec: 1778500244
    nanosec: 45000000
  frame_id: map
pose:
  pose:
    position:
      x: 0.607211985602047
      y: -0.004830164313980436
      z: 0.0
    orientation:
      x: 0.0
      y: 0.0
      z: 0.17760533970647063
      w: 0.9841017951958777
  covariance: '<array type: double[36]>'
---
header:
  stamp:
    sec: 1778500244
    nanosec: 682000000
  frame_id: map
pose:
  pose:
    position:
      x: 0.6495813365561127
      y: 0.013531082607492582
      z: 0.0
    orientation:
      x: 0.0
      y: 0.0
      z: 0.19519122045950274
      w: 0.9807652050595645
  covariance: '<array type: double[36]>'
---
header:
  stamp:
    sec: 1778500245
    nanosec: 317000000
  frame_id: map
pose:
  pose:
    position:
      x: 0.6968916444197291
      y: 0.03450434919863724
      z: 0.0
    orientation:
      x: 0.0
      y: 0.0
      z: 0.18891490681025822
      w: 0.9819934612739901
  covariance: '<array type: double[36]>'
---
header:
  stamp:
    sec: 1778500245
    nanosec: 720000000
  frame_id: map
pose:
  pose:
    position:
      x: 0.6280465415029614
      y: 0.0136059361356878
      z: 0.0
    orientation:
      x: 0.0
      y: 0.0
      z: 0.18949468936562341
      w: 0.9818817457831803
  covariance: '<array type: double[36]>'
---
header:
  stamp:
    sec: 1778500246
    nanosec: 712000000
  frame_id: map
pose:
  pose:
    position:
      x: 0.6241132238478979
      y: 0.011501448047773801
      z: 0.0
    orientation:
      x: 0.0
      y: 0.0
      z: 0.14482480874212936
      w: 0.9894573132646025
  covariance: '<array type: double[36]>'
---
header:
  stamp:
    sec: 1778500247
    nanosec: 236000000
  frame_id: map
pose:
  pose:
    position:
      x: 0.6212720391529042
      y: 0.011093848495141332
      z: 0.0
    orientation:
      x: 0.0
      y: 0.0
      z: 0.10302340074312066
      w: 0.9946789325703658
  covariance: '<array type: double[36]>'
---
header:
  stamp:
    sec: 1778500247
    nanosec: 758000000
  frame_id: map
pose:
  pose:
    position:
      x: 0.6106674658823005
      y: 0.00829654324986644
      z: 0.0
    orientation:
      x: 0.0
      y: 0.0
      z: 0.05566233255967937
      w: 0.9984496505753385
  covariance: '<array type: double[36]>'
---
header:
  stamp:
    sec: 1778500248
    nanosec: 122000000
  frame_id: map
pose:
  pose:
    position:
      x: 0.6156093802527757
      y: 0.00921020123566655
      z: 0.0
    orientation:
      x: 0.0
      y: 0.0
      z: 0.011809290675670644
      w: 0.9999302678955856
  covariance: '<array type: double[36]>'
---
header:
  stamp:
    sec: 1778500248
    nanosec: 598000000
  frame_id: map
pose:
  pose:
    position:
      x: 0.6157631970623672
      y: 0.010254955717930735
      z: 0.0
    orientation:
      x: 0.0
      y: 0.0
      z: -0.03228044361008133
      w: 0.9994788506818623
  covariance: '<array type: double[36]>'
---
header:
  stamp:
    sec: 1778500249
    nanosec: 1000000
  frame_id: map
pose:
  pose:
    position:
      x: 0.6125817819182521
      y: 0.007398275756787793
      z: 0.0
    orientation:
      x: 0.0
      y: 0.0
      z: -0.0740073559329247
      w: 0.9972576955169699
  covariance: '<array type: double[36]>'
---
header:
  stamp:
    sec: 1778500249
    nanosec: 245000000
  frame_id: map
pose:
  pose:
    position:
      x: 0.6066771137356783
      y: 0.006439125362840748
      z: 0.0
    orientation:
      x: 0.0
      y: 0.0
      z: -0.11716128989493521
      w: 0.9931129000018855
  covariance: '<array type: double[36]>'
---
header:
  stamp:
    sec: 1778500249
    nanosec: 575000000
  frame_id: map
pose:
  pose:
    position:
      x: 0.6005115852763275
      y: 0.0064266663700119535
      z: 0.0
    orientation:
      x: 0.0
      y: 0.0
      z: -0.16364619599473323
      w: 0.986519093852954
  covariance: '<array type: double[36]>'
---
header:
  stamp:
    sec: 1778500249
    nanosec: 962000000
  frame_id: map
pose:
  pose:
    position:
      x: 0.606780838763896
      y: 0.0028295680364764553
      z: 0.0
    orientation:
      x: 0.0
      y: 0.0
      z: -0.2103301696840888
      w: 0.9776304105952629
  covariance: '<array type: double[36]>'
---
header:
  stamp:
    sec: 1778500250
    nanosec: 286000000
  frame_id: map
pose:
  pose:
    position:
      x: 0.606661509479388
      y: 0.0024864101309182165
      z: 0.0
    orientation:
      x: 0.0
      y: 0.0
      z: -0.24800069545611483
      w: 0.9687598541709309
  covariance: '<array type: double[36]>'
---
header:
  stamp:
    sec: 1778500250
    nanosec: 601000000
  frame_id: map
pose:
  pose:
    position:
      x: 0.6107435881886731
      y: 0.0033750979385785305
      z: 0.0
    orientation:
      x: 0.0
      y: 0.0
      z: -0.2896138671398328
      w: 0.957143567057895
  covariance: '<array type: double[36]>'
---
header:
  stamp:
    sec: 1778500250
    nanosec: 928000000
  frame_id: map
pose:
  pose:
    position:
      x: 0.6112476038407548
      y: 0.000373530693335544
      z: 0.0
    orientation:
      x: 0.0
      y: 0.0
      z: -0.33167293041585677
      w: 0.9433944388374135
  covariance: '<array type: double[36]>'
---
header:
  stamp:
    sec: 1778500251
    nanosec: 322000000
  frame_id: map
pose:
  pose:
    position:
      x: 0.607888377868735
      y: -1.580592458469191e-05
      z: 0.0
    orientation:
      x: 0.0
      y: 0.0
      z: -0.3757231428846542
      w: 0.9267319568790523
  covariance: '<array type: double[36]>'
---
header:
  stamp:
    sec: 1778500251
    nanosec: 557000000
  frame_id: map
pose:
  pose:
    position:
      x: 0.6021783768905624
      y: -0.00014965722394371815
      z: 0.0
    orientation:
      x: 0.0
      y: 0.0
      z: -0.40936027603407676
      w: 0.9123728209483799
  covariance: '<array type: double[36]>'
---
header:
  stamp:
    sec: 1778500251
    nanosec: 879000000
  frame_id: map
pose:
  pose:
    position:
      x: 0.6001682725583938
      y: -0.001556039866561595
      z: 0.0
    orientation:
      x: 0.0
      y: 0.0
      z: -0.45560772876223654
      w: 0.8901806544135389
  covariance: '<array type: double[36]>'
---
header:
  stamp:
    sec: 1778500252
    nanosec: 279000000
  frame_id: map
pose:
  pose:
    position:
      x: 0.6010203582294171
      y: -0.007129669130177012
      z: 0.0
    orientation:
      x: 0.0
      y: 0.0
      z: -0.4968114369412815
      w: 0.8678585115814323
  covariance: '<array type: double[36]>'
---
header:
  stamp:
    sec: 1778500252
    nanosec: 514000000
  frame_id: map
pose:
  pose:
    position:
      x: 0.6047954552265796
      y: -0.01485581126011827
      z: 0.0
    orientation:
      x: 0.0
      y: 0.0
      z: -0.5309699409330664
      w: 0.8473906547900656
  covariance: '<array type: double[36]>'
---
header:
  stamp:
    sec: 1778500252
    nanosec: 835000000
  frame_id: map
pose:
  pose:
    position:
      x: 0.6069307289422998
      y: -0.023921374658457978
      z: 0.0
    orientation:
      x: 0.0
      y: 0.0
      z: -0.5631113671436652
      w: 0.8263810187762013
  covariance: '<array type: double[36]>'
---
header:
  stamp:
    sec: 1778500253
    nanosec: 184000000
  frame_id: map
pose:
  pose:
    position:
      x: 0.6039607020198335
      y: -0.02804137299911061
      z: 0.0
    orientation:
      x: 0.0
      y: 0.0
      z: -0.6003202196583975
      w: 0.7997597350887912
  covariance: '<array type: double[36]>'
---
header:
  stamp:
    sec: 1778500253
    nanosec: 478000000
  frame_id: map
pose:
  pose:
    position:
      x: 0.5967325818885094
      y: -0.0299348812622261
      z: 0.0
    orientation:
      x: 0.0
      y: 0.0
      z: -0.6384404068950208
      w: 0.7696712589435313
  covariance: '<array type: double[36]>'
---
header:
  stamp:
    sec: 1778500253
    nanosec: 805000000
  frame_id: map
pose:
  pose:
    position:
      x: 0.5969236591681083
      y: -0.03709448792888067
      z: 0.0
    orientation:
      x: 0.0
      y: 0.0
      z: -0.6763042464126913
      w: 0.7366224041421505
  covariance: '<array type: double[36]>'
---
header:
  stamp:
    sec: 1778500255
    nanosec: 82000000
  frame_id: map
pose:
  pose:
    position:
      x: 0.5952879064252357
      y: 0.00839477746510122
      z: 0.0
    orientation:
      x: 0.0
      y: 0.0
      z: -0.6821909016577183
      w: 0.7311741062807334
  covariance: '<array type: double[36]>'
---
header:
  stamp:
    sec: 1778500255
    nanosec: 246000000
  frame_id: map
pose:
  pose:
    position:
      x: 0.6002720259093992
      y: -0.09610830065655379
      z: 0.0
    orientation:
      x: 0.0
      y: 0.0
      z: -0.6793009127169385
      w: 0.7338598435545675
  covariance: '<array type: double[36]>'
---
header:
  stamp:
    sec: 1778500255
    nanosec: 723000000
  frame_id: map
pose:
  pose:
    position:
      x: 0.5926753435765012
      y: -0.13495531106892633
      z: 0.0
    orientation:
      x: 0.0
      y: 0.0
      z: -0.6748404187206762
      w: 0.7379636910179947
  covariance: '<array type: double[36]>'
---
header:
  stamp:
    sec: 1778500256
    nanosec: 919000000
  frame_id: map
pose:
  pose:
    position:
      x: 0.5933223280957238
      y: -0.12715645875189488
      z: 0.0
    orientation:
      x: 0.0
      y: 0.0
      z: -0.6436924194849664
      w: 0.7652843060572915
  covariance: '<array type: double[36]>'
---
header:
  stamp:
    sec: 1778500257
    nanosec: 155000000
  frame_id: map
pose:
  pose:
    position:
      x: 0.5938183407646566
      y: -0.12775199012047728
      z: 0.0
    orientation:
      x: 0.0
      y: 0.0
      z: -0.6091283806339467
      w: 0.7930716335276818
  covariance: '<array type: double[36]>'
---
header:
  stamp:
    sec: 1778500257
    nanosec: 416000000
  frame_id: map
pose:
  pose:
    position:
      x: 0.5953534196357871
      y: -0.12183976855906523
      z: 0.0
    orientation:
      x: 0.0
      y: 0.0
      z: -0.5681581588938769
      w: 0.8229193803054586
  covariance: '<array type: double[36]>'
---
header:
  stamp:
    sec: 1778500257
    nanosec: 721000000
  frame_id: map
pose:
  pose:
    position:
      x: 0.5989771863314691
      y: -0.12477089490180208
      z: 0.0
    orientation:
      x: 0.0
      y: 0.0
      z: -0.5312618606815648
      w: 0.8472076695740907
  covariance: '<array type: double[36]>'
---
header:
  stamp:
    sec: 1778500258
    nanosec: 35000000
  frame_id: map
pose:
  pose:
    position:
      x: 0.6032816913534748
      y: -0.13261944567912398
      z: 0.0
    orientation:
      x: 0.0
      y: 0.0
      z: -0.49601646455900095
      w: 0.8683131156940965
  covariance: '<array type: double[36]>'
---
header:
  stamp:
    sec: 1778500258
    nanosec: 282000000
  frame_id: map
pose:
  pose:
    position:
      x: 0.6005870914201544
      y: -0.13134056929927257
      z: 0.0
    orientation:
      x: 0.0
      y: 0.0
      z: -0.4550169194178222
      w: 0.8904827921097157
  covariance: '<array type: double[36]>'
---
header:
  stamp:
    sec: 1778500259
    nanosec: 1000000
  frame_id: map
pose:
  pose:
    position:
      x: 0.6505654517842563
      y: -0.18467594766634446
      z: 0.0
    orientation:
      x: 0.0
      y: 0.0
      z: -0.43025290599006444
      w: 0.9027083897289893
  covariance: '<array type: double[36]>'
---
header:
  stamp:
    sec: 1778500259
    nanosec: 474000000
  frame_id: map
pose:
  pose:
    position:
      x: 0.6842540849527715
      y: -0.22257145642069867
      z: 0.0
    orientation:
      x: 0.0
      y: 0.0
      z: -0.4268088767938719
      w: 0.9043418505686627
  covariance: '<array type: double[36]>'
---
header:
  stamp:
    sec: 1778500259
    nanosec: 881000000
  frame_id: map
pose:
  pose:
    position:
      x: 0.7162363854945463
      y: -0.26262301357449996
      z: 0.0
    orientation:
      x: 0.0
      y: 0.0
      z: -0.4295065307777298
      w: 0.9030637519130523
  covariance: '<array type: double[36]>'
---
header:
  stamp:
    sec: 1778500260
    nanosec: 385000000
  frame_id: map
pose:
  pose:
    position:
      x: 0.7531475998040832
      y: -0.3091623619431208
      z: 0.0
    orientation:
      x: 0.0
      y: 0.0
      z: -0.44055215583745494
      w: 0.8977270175209003
  covariance: '<array type: double[36]>'
---
header:
  stamp:
    sec: 1778500260
    nanosec: 512000000
  frame_id: map
pose:
  pose:
    position:
      x: 0.6611685504150392
      y: -0.19975133884891938
      z: 0.0
    orientation:
      x: 0.0
      y: 0.0
      z: -0.4306455870138837
      w: 0.902521123512058
  covariance: '<array type: double[36]>'
---
header:
  stamp:
    sec: 1778500261
    nanosec: 495000000
  frame_id: map
pose:
  pose:
    position:
      x: 0.6618409052833648
      y: -0.2039085081333903
      z: 0.0
    orientation:
      x: 0.0
      y: 0.0
      z: -0.4761468290255305
      w: 0.8793657926079068
  covariance: '<array type: double[36]>'
---
header:
  stamp:
    sec: 1778500261
    nanosec: 924000000
  frame_id: map
pose:
  pose:
    position:
      x: 0.6599361378283931
      y: -0.19945340417622223
      z: 0.0
    orientation:
      x: 0.0
      y: 0.0
      z: -0.5168684328859406
      w: 0.8560648474771242
  covariance: '<array type: double[36]>'
---
header:
  stamp:
    sec: 1778500262
    nanosec: 338000000
  frame_id: map
pose:
  pose:
    position:
      x: 0.6561824567928048
      y: -0.1979336547200743
      z: 0.0
    orientation:
      x: 0.0
      y: 0.0
      z: -0.559943803303289
      w: 0.8285305891409488
  covariance: '<array type: double[36]>'
---
header:
  stamp:
    sec: 1778500262
    nanosec: 746000000
  frame_id: map
pose:
  pose:
    position:
      x: 0.6515002886726766
      y: -0.19121228391192316
      z: 0.0
    orientation:
      x: 0.0
      y: 0.0
      z: -0.6115197211184374
      w: 0.7912291897315394
  covariance: '<array type: double[36]>'
---
header:
  stamp:
    sec: 1778500263
    nanosec: 132000000
  frame_id: map
pose:
  pose:
    position:
      x: 0.6540316880494362
      y: -0.19172185941808734
      z: 0.0
    orientation:
      x: 0.0
      y: 0.0
      z: -0.6688155058129165
      w: 0.7434284223677574
  covariance: '<array type: double[36]>'
---
header:
  stamp:
    sec: 1778500263
    nanosec: 776000000
  frame_id: map
pose:
  pose:
    position:
      x: 0.65638966650623
      y: -0.18385209333449987
      z: 0.0
    orientation:
      x: 0.0
      y: 0.0
      z: -0.7319114815066559
      w: 0.6813997235387846
  covariance: '<array type: double[36]>'
---
header:
  stamp:
    sec: 1778500271
    nanosec: 959000000
  frame_id: map
pose:
  pose:
    position:
      x: 0.6565904954815162
      y: -0.1866073124022004
      z: 0.0
    orientation:
      x: 0.0
      y: 0.0
      z: -0.700443196614578
      w: 0.7137081534607488
  covariance: '<array type: double[36]>'
---
header:
  stamp:
    sec: 1778500272
    nanosec: 360000000
  frame_id: map
pose:
  pose:
    position:
      x: 0.6553785065652588
      y: -0.18923497183236254
      z: 0.0
    orientation:
      x: 0.0
      y: 0.0
      z: -0.6652143543072558
      w: 0.7466524377671184
  covariance: '<array type: double[36]>'
---
header:
  stamp:
    sec: 1778500272
    nanosec: 758000000
  frame_id: map
pose:
  pose:
    position:
      x: 0.6603901123626392
      y: -0.19132135190812866
      z: 0.0
    orientation:
      x: 0.0
      y: 0.0
      z: -0.6395796098276975
      w: 0.7687248680071761
  covariance: '<array type: double[36]>'
---
header:
  stamp:
    sec: 1778500273
    nanosec: 251000000
  frame_id: map
pose:
  pose:
    position:
      x: 0.6576925901631443
      y: -0.20017879774719324
      z: 0.0
    orientation:
      x: 0.0
      y: 0.0
      z: -0.6064270406185139
      w: 0.7951391352503481
  covariance: '<array type: double[36]>'
---
header:
  stamp:
    sec: 1778500273
    nanosec: 645000000
  frame_id: map
pose:
  pose:
    position:
      x: 0.6575091431452343
      y: -0.20221691643509893
      z: 0.0
    orientation:
      x: 0.0
      y: 0.0
      z: -0.5665844680565824
      w: 0.8240036653784009
  covariance: '<array type: double[36]>'
---
header:
  stamp:
    sec: 1778500273
    nanosec: 885000000
  frame_id: map
pose:
  pose:
    position:
      x: 0.6568581126210887
      y: -0.19158455616756873
      z: 0.0
    orientation:
      x: 0.0
      y: 0.0
      z: -0.5265311638926469
      w: 0.8501558289218833
  covariance: '<array type: double[36]>'
---
header:
  stamp:
    sec: 1778500274
    nanosec: 197000000
  frame_id: map
pose:
  pose:
    position:
      x: 0.6563476484375299
      y: -0.18806081192985583
      z: 0.0
    orientation:
      x: 0.0
      y: 0.0
      z: -0.48174851424293075
      w: 0.8763095166804528
  covariance: '<array type: double[36]>'
---
header:
  stamp:
    sec: 1778500274
    nanosec: 688000000
  frame_id: map
pose:
  pose:
    position:
      x: 0.6660889632330491
      y: -0.1960688093314139
      z: 0.0
    orientation:
      x: 0.0
      y: 0.0
      z: -0.43495244974660363
      w: 0.9004534227040443
  covariance: '<array type: double[36]>'
---
header:
  stamp:
    sec: 1778500274
    nanosec: 999000000
  frame_id: map
pose:
  pose:
    position:
      x: 0.6756363622944296
      y: -0.20710959854231395
      z: 0.0
    orientation:
      x: 0.0
      y: 0.0
      z: -0.3998117051883211
      w: 0.916597294559834
  covariance: '<array type: double[36]>'
---
header:
  stamp:
    sec: 1778500275
    nanosec: 162000000
  frame_id: map
pose:
  pose:
    position:
      x: 0.6735848664314545
      y: -0.20562686324511753
      z: 0.0
    orientation:
      x: 0.0
      y: 0.0
      z: -0.3656776665680656
      w: 0.9307415560580362
  covariance: '<array type: double[36]>'
---
header:
  stamp:
    sec: 1778500275
    nanosec: 637000000
  frame_id: map
pose:
  pose:
    position:
      x: 0.6734340196685511
      y: -0.20599556591373125
      z: 0.0
    orientation:
      x: 0.0
      y: 0.0
      z: -0.31608115048965807
      w: 0.9487321573052819
  covariance: '<array type: double[36]>'
---
header:
  stamp:
    sec: 1778500276
    nanosec: 37000000
  frame_id: map
pose:
  pose:
    position:
      x: 0.6821690091692625
      y: -0.2070725277118279
      z: 0.0
    orientation:
      x: 0.0
      y: 0.0
      z: -0.2658141237249258
      w: 0.9640243003308319
  covariance: '<array type: double[36]>'
---
header:
  stamp:
    sec: 1778500276
    nanosec: 218000000
  frame_id: map
pose:
  pose:
    position:
      x: 0.6814557629240059
      y: -0.20574689455829706
      z: 0.0
    orientation:
      x: 0.0
      y: 0.0
      z: -0.21798638140942297
      w: 0.9759518110644734
  covariance: '<array type: double[36]>'
---
header:
  stamp:
    sec: 1778500276
    nanosec: 517000000
  frame_id: map
pose:
  pose:
    position:
      x: 0.6823328309295728
      y: -0.20454230440510196
      z: 0.0
    orientation:
      x: 0.0
      y: 0.0
      z: -0.17004805761009426
      w: 0.985435770663433
  covariance: '<array type: double[36]>'
---
header:
  stamp:
    sec: 1778500276
    nanosec: 757000000
  frame_id: map
pose:
  pose:
    position:
      x: 0.684194722461135
      y: -0.20068618040359196
      z: 0.0
    orientation:
      x: 0.0
      y: 0.0
      z: -0.12881847872684168
      w: 0.9916681902423321
  covariance: '<array type: double[36]>'
---
header:
  stamp:
    sec: 1778500277
    nanosec: 79000000
  frame_id: map
pose:
  pose:
    position:
      x: 0.6959615267501087
      y: -0.20372204453856205
      z: 0.0
    orientation:
      x: 0.0
      y: 0.0
      z: -0.0787412067563467
      w: 0.9968950909491702
  covariance: '<array type: double[36]>'
---
header:
  stamp:
    sec: 1778500277
    nanosec: 331000000
  frame_id: map
pose:
  pose:
    position:
      x: 0.6978675770770999
      y: -0.1992209095429
      z: 0.0
    orientation:
      x: 0.0
      y: 0.0
      z: -0.02101345678185351
      w: 0.9997791929391595
  covariance: '<array type: double[36]>'
---
header:
  stamp:
    sec: 1778500277
    nanosec: 482000000
  frame_id: map
pose:
  pose:
    position:
      x: 0.7026251698157824
      y: -0.19260997478244138
      z: 0.0
    orientation:
      x: 0.0
      y: 0.0
      z: 0.022159193472785475
      w: 0.9997544549261261
  covariance: '<array type: double[36]>'
---
header:
  stamp:
    sec: 1778500277
    nanosec: 806000000
  frame_id: map
pose:
  pose:
    position:
      x: 0.7477315871682769
      y: -0.1840418495868265
      z: 0.0
    orientation:
      x: 0.0
      y: 0.0
      z: 0.039633448457030776
      w: 0.999214286208621
  covariance: '<array type: double[36]>'
---
header:
  stamp:
    sec: 1778500278
    nanosec: 121000000
  frame_id: map
pose:
  pose:
    position:
      x: 0.8060361878747198
      y: -0.17551960947884565
      z: 0.0
    orientation:
      x: 0.0
      y: 0.0
      z: 0.045034606549097515
      w: 0.9989854274277318
  covariance: '<array type: double[36]>'
---
header:
  stamp:
    sec: 1778500278
    nanosec: 370000000
  frame_id: map
pose:
  pose:
    position:
      x: 0.8529907663526638
      y: -0.16683636501998583
      z: 0.0
    orientation:
      x: 0.0
      y: 0.0
      z: 0.04564567965179503
      w: 0.998957692762374
  covariance: '<array type: double[36]>'
---
header:
  stamp:
    sec: 1778500278
    nanosec: 597000000
  frame_id: map
pose:
  pose:
    position:
      x: 0.8969162172969031
      y: -0.15928401135481476
      z: 0.0
    orientation:
      x: 0.0
      y: 0.0
      z: 0.0447109879750554
      w: 0.9989999637408875
  covariance: '<array type: double[36]>'
---
header:
  stamp:
    sec: 1778500278
    nanosec: 838000000
  frame_id: map
pose:
  pose:
    position:
      x: 0.9399062248612301
      y: -0.1507015440505981
      z: 0.0
    orientation:
      x: 0.0
      y: 0.0
      z: 0.04542289945347342
      w: 0.9989678474331593
  covariance: '<array type: double[36]>'
---
header:
  stamp:
    sec: 1778500278
    nanosec: 919000000
  frame_id: map
pose:
  pose:
    position:
      x: 0.8827041736142524
      y: -0.15416639436074617
      z: 0.0
    orientation:
      x: 0.0
      y: 0.0
      z: 0.05440919049085606
      w: 0.9985187229041476
  covariance: '<array type: double[36]>'
---
header:
  stamp:
    sec: 1778500279
    nanosec: 404000000
  frame_id: map
pose:
  pose:
    position:
      x: 0.9222723131588816
      y: -0.1475555773527552
      z: 0.0
    orientation:
      x: 0.0
      y: 0.0
      z: 0.05499167018147339
      w: 0.9984868132382381
  covariance: '<array type: double[36]>'
---
header:
  stamp:
    sec: 1778500279
    nanosec: 957000000
  frame_id: map
pose:
  pose:
    position:
      x: 0.9790643490772664
      y: -0.13776570138355554
      z: 0.0
    orientation:
      x: 0.0
      y: 0.0
      z: 0.07375009296454928
      w: 0.9972767538590882
  covariance: '<array type: double[36]>'
---
header:
  stamp:
    sec: 1778500280
    nanosec: 275000000
  frame_id: map
pose:
  pose:
    position:
      x: 1.019572287711851
      y: -0.12852135302456405
      z: 0.0
    orientation:
      x: 0.0
      y: 0.0
      z: 0.07907938743759202
      w: 0.9968683215362475
  covariance: '<array type: double[36]>'
---
header:
  stamp:
    sec: 1778500280
    nanosec: 608000000
  frame_id: map
pose:
  pose:
    position:
      x: 1.072840584420272
      y: -0.12201097169349413
      z: 0.0
    orientation:
      x: 0.0
      y: 0.0
      z: 0.07701896316457234
      w: 0.9970296281019206
  covariance: '<array type: double[36]>'
---
header:
  stamp:
    sec: 1778500280
    nanosec: 915000000
  frame_id: map
pose:
  pose:
    position:
      x: 1.1210344151448377
      y: -0.11025479457413473
      z: 0.0
    orientation:
      x: 0.0
      y: 0.0
      z: 0.08056367389076793
      w: 0.9967494642332254
  covariance: '<array type: double[36]>'
---
header:
  stamp:
    sec: 1778500281
    nanosec: 798000000
  frame_id: map
pose:
  pose:
    position:
      x: 1.064190863550004
      y: -0.11579214649644397
      z: 0.0
    orientation:
      x: 0.0
      y: 0.0
      z: 0.06361536889425624
      w: 0.9979744910770253
  covariance: '<array type: double[36]>'
---
header:
  stamp:
    sec: 1778500282
    nanosec: 437000000
  frame_id: map
pose:
  pose:
    position:
      x: 1.1086382979163103
      y: -0.1108204576300411
      z: 0.0
    orientation:
      x: 0.0
      y: 0.0
      z: 0.014494779644146995
      w: 0.9998949451632745
  covariance: '<array type: double[36]>'
---
header:
  stamp:
    sec: 1778500282
    nanosec: 917000000
  frame_id: map
pose:
  pose:
    position:
      x: 1.1591725693835446
      y: -0.10788296068375537
      z: 0.0
    orientation:
      x: 0.0
      y: 0.0
      z: -0.02290433870655167
      w: 0.9997376612233909
  covariance: '<array type: double[36]>'
---
header:
  stamp:
    sec: 1778500283
    nanosec: 259000000
  frame_id: map
pose:
  pose:
    position:
      x: 1.1838776168754441
      y: -0.10814963316280823
      z: 0.0
    orientation:
      x: 0.0
      y: 0.0
      z: -0.06191474392699453
      w: 0.9980814418094621
  covariance: '<array type: double[36]>'
---
header:
  stamp:
    sec: 1778500283
    nanosec: 725000000
  frame_id: map
pose:
  pose:
    position:
      x: 1.203931358673136
      y: -0.11139116936033118
      z: 0.0
    orientation:
      x: 0.0
      y: 0.0
      z: -0.11123849767261718
      w: 0.9937937394829669
  covariance: '<array type: double[36]>'
---
header:
  stamp:
    sec: 1778500284
    nanosec: 49000000
  frame_id: map
pose:
  pose:
    position:
      x: 1.2128300748328968
      y: -0.11471116745232036
      z: 0.0
    orientation:
      x: 0.0
      y: 0.0
      z: -0.15589292854572268
      w: 0.9877739593800994
  covariance: '<array type: double[36]>'
---
header:
  stamp:
    sec: 1778500284
    nanosec: 603000000
  frame_id: map
pose:
  pose:
    position:
      x: 1.2360635415987171
      y: -0.12646703696372152
      z: 0.0
    orientation:
      x: 0.0
      y: 0.0
      z: -0.2024145504754003
      w: 0.9792999283957095
  covariance: '<array type: double[36]>'
---
header:
  stamp:
    sec: 1778500285
    nanosec: 166000000
  frame_id: map
pose:
  pose:
    position:
      x: 1.280441820859276
      y: -0.1487036951127923
      z: 0.0
    orientation:
      x: 0.0
      y: 0.0
      z: -0.2504964884184289
      w: 0.9681175079968526
  covariance: '<array type: double[36]>'
---
header:
  stamp:
    sec: 1778500285
    nanosec: 645000000
  frame_id: map
pose:
  pose:
    position:
      x: 1.303822567210076
      y: -0.16335934097025956
      z: 0.0
    orientation:
      x: 0.0
      y: 0.0
      z: -0.2826016372307689
      w: 0.9592373609459177
  covariance: '<array type: double[36]>'
---
header:
  stamp:
    sec: 1778500286
    nanosec: 287000000
  frame_id: map
pose:
  pose:
    position:
      x: 1.3596612435396325
      y: -0.2000323554866122
      z: 0.0
    orientation:
      x: 0.0
      y: 0.0
      z: -0.32052806219791113
      w: 0.9472390201758224
  covariance: '<array type: double[36]>'
---
header:
  stamp:
    sec: 1778500287
    nanosec: 13000000
  frame_id: map
pose:
  pose:
    position:
      x: 1.4193957346916255
      y: -0.2459526642152322
      z: 0.0
    orientation:
      x: 0.0
      y: 0.0
      z: -0.34348735451076345
      w: 0.9391573016759212
  covariance: '<array type: double[36]>'
---
header:
  stamp:
    sec: 1778500287
    nanosec: 729000000
  frame_id: map
pose:
  pose:
    position:
      x: 1.482333102768144
      y: -0.3006374369265136
      z: 0.0
    orientation:
      x: 0.0
      y: 0.0
      z: -0.3577592453309861
      w: 0.9338138585286703
  covariance: '<array type: double[36]>'
---
header:
  stamp:
    sec: 1778500288
    nanosec: 450000000
  frame_id: map
pose:
  pose:
    position:
      x: 1.490328268314233
      y: -0.34307653810383154
      z: 0.0
    orientation:
      x: 0.0
      y: 0.0
      z: -0.36434651806494367
      w: 0.9312634507882029
  covariance: '<array type: double[36]>'
---
header:
  stamp:
    sec: 1778500289
    nanosec: 898000000
  frame_id: map
pose:
  pose:
    position:
      x: 1.5393059096863744
      y: -0.3875436861936337
      z: 0.0
    orientation:
      x: 0.0
      y: 0.0
      z: -0.39378624414889113
      w: 0.9192020419467691
  covariance: '<array type: double[36]>'
---
header:
  stamp:
    sec: 1778500291
    nanosec: 637000000
  frame_id: map
pose:
  pose:
    position:
      x: 1.5613491102297707
      y: -0.40629140308426065
      z: 0.0
    orientation:
      x: 0.0
      y: 0.0
      z: -0.3533875529275013
      w: 0.9354770106399796
  covariance: '<array type: double[36]>'
---
header:
  stamp:
    sec: 1778500292
    nanosec: 198000000
  frame_id: map
pose:
  pose:
    position:
      x: 1.5625204008561797
      y: -0.40837024248622894
      z: 0.0
    orientation:
      x: 0.0
      y: 0.0
      z: -0.302284414894187
      w: 0.9532177781137314
  covariance: '<array type: double[36]>'
---
header:
  stamp:
    sec: 1778500292
    nanosec: 518000000
  frame_id: map
pose:
  pose:
    position:
      x: 1.5590081215199516
      y: -0.4104977436423237
      z: 0.0
    orientation:
      x: 0.0
      y: 0.0
      z: -0.264797210069368
      w: 0.9643041208765412
  covariance: '<array type: double[36]>'
---
header:
  stamp:
    sec: 1778500292
    nanosec: 923000000
  frame_id: map
pose:
  pose:
    position:
      x: 1.5596111761181788
      y: -0.40965092335187775
      z: 0.0
    orientation:
      x: 0.0
      y: 0.0
      z: -0.22109473541190616
      w: 0.9752523355384181
  covariance: '<array type: double[36]>'
---
header:
  stamp:
    sec: 1778500293
    nanosec: 315000000
  frame_id: map
pose:
  pose:
    position:
      x: 1.5614713442332337
      y: -0.4097290249138116
      z: 0.0
    orientation:
      x: 0.0
      y: 0.0
      z: -0.18212499983772004
      w: 0.983275385857955
  covariance: '<array type: double[36]>'
---
header:
  stamp:
    sec: 1778500293
    nanosec: 722000000
  frame_id: map
pose:
  pose:
    position:
      x: 1.563092647455818
      y: -0.41270171376937076
      z: 0.0
    orientation:
      x: 0.0
      y: 0.0
      z: -0.14383186289096678
      w: 0.9896021398609212
  covariance: '<array type: double[36]>'
---
header:
  stamp:
    sec: 1778500294
    nanosec: 122000000
  frame_id: map
pose:
  pose:
    position:
      x: 1.5645558372757855
      y: -0.40998456406936207
      z: 0.0
    orientation:
      x: 0.0
      y: 0.0
      z: -0.0980651230468741
      w: 0.9951799996190646
  covariance: '<array type: double[36]>'
---
header:
  stamp:
    sec: 1778500300
    nanosec: 445000000
  frame_id: map
pose:
  pose:
    position:
      x: 1.5730996645413589
      y: -0.4100507872427739
      z: 0.0
    orientation:
      x: 0.0
      y: 0.0
      z: -0.13728798795716793
      w: 0.9905311748565375
  covariance: '<array type: double[36]>'
---
header:
  stamp:
    sec: 1778500300
    nanosec: 837000000
  frame_id: map
pose:
  pose:
    position:
      x: 1.5649432143971447
      y: -0.40474498183599616
      z: 0.0
    orientation:
      x: 0.0
      y: 0.0
      z: -0.18348967041569691
      w: 0.9830216380379116
  covariance: '<array type: double[36]>'
---
header:
  stamp:
    sec: 1778500301
    nanosec: 159000000
  frame_id: map
pose:
  pose:
    position:
      x: 1.5525417438078255
      y: -0.3990178884086249
      z: 0.0
    orientation:
      x: 0.0
      y: 0.0
      z: -0.22409416341623817
      w: 0.974567496853233
  covariance: '<array type: double[36]>'
---
header:
  stamp:
    sec: 1778500301
    nanosec: 482000000
  frame_id: map
pose:
  pose:
    position:
      x: 1.5635736792804982
      y: -0.4016646568086017
      z: 0.0
    orientation:
      x: 0.0
      y: 0.0
      z: -0.2576237403399169
      w: 0.9662453148208643
  covariance: '<array type: double[36]>'
---
header:
  stamp:
    sec: 1778500301
    nanosec: 875000000
  frame_id: map
pose:
  pose:
    position:
      x: 1.5599037824777284
      y: -0.4055141681675905
      z: 0.0
    orientation:
      x: 0.0
      y: 0.0
      z: -0.3098970674119136
      w: 0.9507701129134718
  covariance: '<array type: double[36]>'
---
header:
  stamp:
    sec: 1778500302
    nanosec: 197000000
  frame_id: map
pose:
  pose:
    position:
      x: 1.5582749152562354
      y: -0.40465111454969577
      z: 0.0
    orientation:
      x: 0.0
      y: 0.0
      z: -0.3464270256210187
      w: 0.9380769243081156
  covariance: '<array type: double[36]>'
---
header:
  stamp:
    sec: 1778500302
    nanosec: 600000000
  frame_id: map
pose:
  pose:
    position:
      x: 1.562145065652648
      y: -0.4068951658707816
      z: 0.0
    orientation:
      x: 0.0
      y: 0.0
      z: -0.3838435933924907
      w: 0.9233981242192018
  covariance: '<array type: double[36]>'
---
header:
  stamp:
    sec: 1778500302
    nanosec: 997000000
  frame_id: map
pose:
  pose:
    position:
      x: 1.5587956860024874
      y: -0.4084652407831847
      z: 0.0
    orientation:
      x: 0.0
      y: 0.0
      z: -0.42424315102684174
      w: 0.9055483138998252
  covariance: '<array type: double[36]>'
---
header:
  stamp:
    sec: 1778500303
    nanosec: 321000000
  frame_id: map
pose:
  pose:
    position:
      x: 1.5602488005587005
      y: -0.40823041380537456
      z: 0.0
    orientation:
      x: 0.0
      y: 0.0
      z: -0.45967555873900384
      w: 0.8880869218145173
  covariance: '<array type: double[36]>'
---
header:
  stamp:
    sec: 1778500303
    nanosec: 799000000
  frame_id: map
pose:
  pose:
    position:
      x: 1.5585921738996804
      y: -0.4103171333000425
      z: 0.0
    orientation:
      x: 0.0
      y: 0.0
      z: -0.5039837717926751
      w: 0.8637131223789696
  covariance: '<array type: double[36]>'
---
header:
  stamp:
    sec: 1778500304
    nanosec: 118000000
  frame_id: map
pose:
  pose:
    position:
      x: 1.560994956492502
      y: -0.41508639640987116
      z: 0.0
    orientation:
      x: 0.0
      y: 0.0
      z: -0.5465680169500808
      w: 0.8374147137752335
  covariance: '<array type: double[36]>'
---
header:
  stamp:
    sec: 1778500304
    nanosec: 363000000
  frame_id: map
pose:
  pose:
    position:
      x: 1.5672829170381941
      y: -0.42151475125321847
      z: 0.0
    orientation:
      x: 0.0
      y: 0.0
      z: -0.5880465881856098
      w: 0.8088270582289293
  covariance: '<array type: double[36]>'
---
header:
  stamp:
    sec: 1778500304
    nanosec: 607000000
  frame_id: map
pose:
  pose:
    position:
      x: 1.5696572572353023
      y: -0.4353770104885317
      z: 0.0
    orientation:
      x: 0.0
      y: 0.0
      z: -0.6198730711926326
      w: 0.7847020935426473
  covariance: '<array type: double[36]>'
---
header:
  stamp:
    sec: 1778500304
    nanosec: 919000000
  frame_id: map
pose:
  pose:
    position:
      x: 1.5705608958515678
      y: -0.448598816069588
      z: 0.0
    orientation:
      x: 0.0
      y: 0.0
      z: -0.6601238560368584
      w: 0.751156771047848
  covariance: '<array type: double[36]>'
---
header:
  stamp:
    sec: 1778500305
    nanosec: 238000000
  frame_id: map
pose:
  pose:
    position:
      x: 1.5733143656061614
      y: -0.45897543328395696
      z: 0.0
    orientation:
      x: 0.0
      y: 0.0
      z: -0.6899609422351772
      w: 0.7238465985206717
  covariance: '<array type: double[36]>'
---
header:
  stamp:
    sec: 1778500305
    nanosec: 645000000
  frame_id: map
pose:
  pose:
    position:
      x: 1.572793355419268
      y: -0.4777615678033786
      z: 0.0
    orientation:
      x: 0.0
      y: 0.0
      z: -0.7199591985947116
      w: 0.6940163919957948
  covariance: '<array type: double[36]>'
---
header:
  stamp:
    sec: 1778500305
    nanosec: 967000000
  frame_id: map
pose:
  pose:
    position:
      x: 1.5716064610981144
      y: -0.5456035101026582
      z: 0.0
    orientation:
      x: 0.0
      y: 0.0
      z: -0.7331050403473989
      w: 0.6801154312447547
  covariance: '<array type: double[36]>'
---
header:
  stamp:
    sec: 1778500306
    nanosec: 450000000
  frame_id: map
pose:
  pose:
    position:
      x: 1.5626067140364572
      y: -0.6018879289454616
      z: 0.0
    orientation:
      x: 0.0
      y: 0.0
      z: -0.7330972364970674
      w: 0.6801238430171104
  covariance: '<array type: double[36]>'
---
header:
  stamp:
    sec: 1778500306
    nanosec: 999000000
  frame_id: map
pose:
  pose:
    position:
      x: 1.557611065855097
      y: -0.6458216767670028
      z: 0.0
    orientation:
      x: 0.0
      y: 0.0
      z: -0.735705876958252
      w: 0.6773011609388319
  covariance: '<array type: double[36]>'
---
header:
  stamp:
    sec: 1778500307
    nanosec: 562000000
  frame_id: map
pose:
  pose:
    position:
      x: 1.5744991266525896
      y: -0.7121678443173111
      z: 0.0
    orientation:
      x: 0.0
      y: 0.0
      z: -0.7384126110062439
      w: 0.6743491795108388
  covariance: '<array type: double[36]>'
---
header:
  stamp:
    sec: 1778500308
    nanosec: 523000000
  frame_id: map
pose:
  pose:
    position:
      x: 1.5653149441720187
      y: -0.7632676127625994
      z: 0.0
    orientation:
      x: 0.0
      y: 0.0
      z: -0.7329792812949466
      w: 0.6802509633895005
  covariance: '<array type: double[36]>'
---
header:
  stamp:
    sec: 1778500309
    nanosec: 164000000
  frame_id: map
pose:
  pose:
    position:
      x: 1.5647638729287767
      y: -0.7975463468102694
      z: 0.0
    orientation:
      x: 0.0
      y: 0.0
      z: -0.7011873172748857
      w: 0.7129771006791514
  covariance: '<array type: double[36]>'
---
header:
  stamp:
    sec: 1778500309
    nanosec: 487000000
  frame_id: map
pose:
  pose:
    position:
      x: 1.5503848887660514
      y: -0.7929753675725506
      z: 0.0
    orientation:
      x: 0.0
      y: 0.0
      z: -0.6642946102104301
      w: 0.7474708494953985
  covariance: '<array type: double[36]>'
---
header:
  stamp:
    sec: 1778500309
    nanosec: 811000000
  frame_id: map
pose:
  pose:
    position:
      x: 1.5521022212527433
      y: -0.8127604969048312
      z: 0.0
    orientation:
      x: 0.0
      y: 0.0
      z: -0.6311970690497956
      w: 0.7756224983991552
  covariance: '<array type: double[36]>'
---
header:
  stamp:
    sec: 1778500310
    nanosec: 361000000
  frame_id: map
pose:
  pose:
    position:
      x: 1.5566426995382752
      y: -0.8344433500911734
      z: 0.0
    orientation:
      x: 0.0
      y: 0.0
      z: -0.5981511953873088
      w: 0.8013832712608453
  covariance: '<array type: double[36]>'
---
header:
  stamp:
    sec: 1778500310
    nanosec: 682000000
  frame_id: map
pose:
  pose:
    position:
      x: 1.5579372674902754
      y: -0.853554319653692
      z: 0.0
    orientation:
      x: 0.0
      y: 0.0
      z: -0.5617351818733116
      w: 0.8273171009025242
  covariance: '<array type: double[36]>'
---
header:
  stamp:
    sec: 1778500311
    nanosec: 76000000
  frame_id: map
pose:
  pose:
    position:
      x: 1.5651788145029117
      y: -0.8732649468999703
      z: 0.0
    orientation:
      x: 0.0
      y: 0.0
      z: -0.5237226476170505
      w: 0.8518888356898374
  covariance: '<array type: double[36]>'
---
header:
  stamp:
    sec: 1778500312
    nanosec: 41000000
  frame_id: map
pose:
  pose:
    position:
      x: 1.5760063007263883
      y: -0.8925557212147253
      z: 0.0
    orientation:
      x: 0.0
      y: 0.0
      z: -0.4802842614865521
      w: 0.8771128936279053
  covariance: '<array type: double[36]>'
---
header:
  stamp:
    sec: 1778500312
    nanosec: 602000000
  frame_id: map
pose:
  pose:
    position:
      x: 1.5799330963007132
      y: -0.8944029464438527
      z: 0.0
    orientation:
      x: 0.0
      y: 0.0
      z: -0.4420777929148076
      w: 0.8969767137510162
  covariance: '<array type: double[36]>'
---
header:
  stamp:
    sec: 1778500313
    nanosec: 157000000
  frame_id: map
pose:
  pose:
    position:
      x: 1.5792471240269372
      y: -0.8977258834162033
      z: 0.0
    orientation:
      x: 0.0
      y: 0.0
      z: -0.40433196417258316
      w: 0.914612301878966
  covariance: '<array type: double[36]>'
---
header:
  stamp:
    sec: 1778500313
    nanosec: 647000000
  frame_id: map
pose:
  pose:
    position:
      x: 1.581159356982076
      y: -0.9001699117079127
      z: 0.0
    orientation:
      x: 0.0
      y: 0.0
      z: -0.36071018941006605
      w: 0.932677950450076
  covariance: '<array type: double[36]>'
---
header:
  stamp:
    sec: 1778500315
    nanosec: 87000000
  frame_id: map
pose:
  pose:
    position:
      x: 1.5842478428280442
      y: -0.9041328043728193
      z: 0.0
    orientation:
      x: 0.0
      y: 0.0
      z: -0.32308333652597343
      w: 0.9463705181688854
  covariance: '<array type: double[36]>'
---
header:
  stamp:
    sec: 1778500315
    nanosec: 484000000
  frame_id: map
pose:
  pose:
    position:
      x: 1.5862804892005171
      y: -0.9087571908682563
      z: 0.0
    orientation:
      x: 0.0
      y: 0.0
      z: -0.28232048813152927
      w: 0.9593201457184015
  covariance: '<array type: double[36]>'
---
header:
  stamp:
    sec: 1778500315
    nanosec: 805000000
  frame_id: map
pose:
  pose:
    position:
      x: 1.5879953938489477
      y: -0.9070886682596064
      z: 0.0
    orientation:
      x: 0.0
      y: 0.0
      z: -0.23472373988246006
      w: 0.9720621204097973
  covariance: '<array type: double[36]>'
---
header:
  stamp:
    sec: 1778500316
    nanosec: 201000000
  frame_id: map
pose:
  pose:
    position:
      x: 1.5983220886842848
      y: -0.8997034841042388
      z: 0.0
    orientation:
      x: 0.0
      y: 0.0
      z: -0.19643891760268106
      w: 0.980516063943415
  covariance: '<array type: double[36]>'
---
header:
  stamp:
    sec: 1778500316
    nanosec: 537000000
  frame_id: map
pose:
  pose:
    position:
      x: 1.6094792037684604
      y: -0.9020819036423371
      z: 0.0
    orientation:
      x: 0.0
      y: 0.0
      z: -0.15274972663722722
      w: 0.9882649042702327
  covariance: '<array type: double[36]>'
---
header:
  stamp:
    sec: 1778500316
    nanosec: 917000000
  frame_id: map
pose:
  pose:
    position:
      x: 1.6021117424197706
      y: -0.8917007898644316
      z: 0.0
    orientation:
      x: 0.0
      y: 0.0
      z: -0.10922792823710109
      w: 0.99401673008709
  covariance: '<array type: double[36]>'
---
header:
  stamp:
    sec: 1778500318
    nanosec: 355000000
  frame_id: map
pose:
  pose:
    position:
      x: 1.6141649106610956
      y: -0.8940654676515254
      z: 0.0
    orientation:
      x: 0.0
      y: 0.0
      z: -0.06786360124988863
      w: 0.9976946083974776
  covariance: '<array type: double[36]>'
---
header:
  stamp:
    sec: 1778500319
    nanosec: 876000000
  frame_id: map
pose:
  pose:
    position:
      x: 1.6732825315911688
      y: -0.8948859192953967
      z: 0.0
    orientation:
      x: 0.0
      y: 0.0
      z: -0.033673971584432104
      w: 0.9994328710012148
  covariance: '<array type: double[36]>'
---
header:
  stamp:
    sec: 1778500320
    nanosec: 202000000
  frame_id: map
pose:
  pose:
    position:
      x: 1.7335256267691448
      y: -0.9049360094222773
      z: 0.0
    orientation:
      x: 0.0
      y: 0.0
      z: -0.030073952866366115
      w: 0.9995476763811677
  covariance: '<array type: double[36]>'
---
header:
  stamp:
    sec: 1778500320
    nanosec: 519000000
  frame_id: map
pose:
  pose:
    position:
      x: 1.7737354043462346
      y: -0.9065692886381422
      z: 0.0
    orientation:
      x: 0.0
      y: 0.0
      z: -0.035697896844001174
      w: 0.9993626269582604
  covariance: '<array type: double[36]>'
---
header:
  stamp:
    sec: 1778500320
    nanosec: 862000000
  frame_id: map
pose:
  pose:
    position:
      x: 1.8078115649712518
      y: -0.9067161730097932
      z: 0.0
    orientation:
      x: 0.0
      y: 0.0
      z: -0.03762288032848648
      w: 0.9992920088121331
  covariance: '<array type: double[36]>'
---
header:
  stamp:
    sec: 1778500321
    nanosec: 239000000
  frame_id: map
pose:
  pose:
    position:
      x: 1.8595439720465754
      y: -0.9096865697535673
      z: 0.0
    orientation:
      x: 0.0
      y: 0.0
      z: -0.03601965150209411
      w: 0.9993510818054222
  covariance: '<array type: double[36]>'
---
header:
  stamp:
    sec: 1778500321
    nanosec: 645000000
  frame_id: map
pose:
  pose:
    position:
      x: 1.9162436709728887
      y: -0.9101447439608731
      z: 0.0
    orientation:
      x: 0.0
      y: 0.0
      z: -0.034239625497177927
      w: 0.9994136521209889
  covariance: '<array type: double[36]>'
---
header:
  stamp:
    sec: 1778500322
    nanosec: 38000000
  frame_id: map
pose:
  pose:
    position:
      x: 1.972473130870423
      y: -0.9133278364419214
      z: 0.0
    orientation:
      x: 0.0
      y: 0.0
      z: -0.02694959714769904
      w: 0.999636793647361
  covariance: '<array type: double[36]>'
---
header:
  stamp:
    sec: 1778500322
    nanosec: 439000000
  frame_id: map
pose:
  pose:
    position:
      x: 2.0327706460738866
      y: -0.9138251439652936
      z: 0.0
    orientation:
      x: 0.0
      y: 0.0
      z: -0.022569234824481192
      w: 0.9997452823791856
  covariance: '<array type: double[36]>'
---
header:
  stamp:
    sec: 1778500322
    nanosec: 848000000
  frame_id: map
pose:
  pose:
    position:
      x: 2.091309993934094
      y: -0.9147904142862071
      z: 0.0
    orientation:
      x: 0.0
      y: 0.0
      z: -0.018708027278042334
      w: 0.9998249895433521
  covariance: '<array type: double[36]>'
---
header:
  stamp:
    sec: 1778500323
    nanosec: 234000000
  frame_id: map
pose:
  pose:
    position:
      x: 2.1433264643054772
      y: -0.9132452579713269
      z: 0.0
    orientation:
      x: 0.0
      y: 0.0
      z: -0.01613043775405715
      w: 0.9998698960254091
  covariance: '<array type: double[36]>'
---
header:
  stamp:
    sec: 1778500323
    nanosec: 653000000
  frame_id: map
pose:
  pose:
    position:
      x: 2.185666333546313
      y: -0.9156104616471871
      z: 0.0
    orientation:
      x: 0.0
      y: 0.0
      z: -0.012788966851492107
      w: 0.9999182178192731
  covariance: '<array type: double[36]>'
---
header:
  stamp:
    sec: 1778500324
    nanosec: 116000000
  frame_id: map
pose:
  pose:
    position:
      x: 2.232348024661656
      y: -0.9150893991141982
      z: 0.0
    orientation:
      x: 0.0
      y: 0.0
      z: -0.0038840236656534043
      w: 0.9999924571516351
  covariance: '<array type: double[36]>'
---
header:
  stamp:
    sec: 1778500324
    nanosec: 615000000
  frame_id: map
pose:
  pose:
    position:
      x: 2.2802272914205384
      y: -0.9109564528503373
      z: 0.0
    orientation:
      x: 0.0
      y: 0.0
      z: 0.005776865221157114
      w: 0.9999833137748932
  covariance: '<array type: double[36]>'
---
header:
  stamp:
    sec: 1778500325
    nanosec: 171000000
  frame_id: map
pose:
  pose:
    position:
      x: 2.33370242258985
      y: -0.9099748460233719
      z: 0.0
    orientation:
      x: 0.0
      y: 0.0
      z: 0.011363317162128116
      w: 0.9999354354272444
  covariance: '<array type: double[36]>'
---
header:
  stamp:
    sec: 1778500325
    nanosec: 722000000
  frame_id: map
pose:
  pose:
    position:
      x: 2.3828755609057857
      y: -0.9095498230097128
      z: 0.0
    orientation:
      x: 0.0
      y: 0.0
      z: 0.01968503276182628
      w: 0.9998062309693643
  covariance: '<array type: double[36]>'
---
header:
  stamp:
    sec: 1778500326
    nanosec: 439000000
  frame_id: map
pose:
  pose:
    position:
      x: 2.4350982860589734
      y: -0.9085345010340722
      z: 0.0
    orientation:
      x: 0.0
      y: 0.0
      z: 0.04613418568151352
      w: 0.9989352516111861
  covariance: '<array type: double[36]>'
---
header:
  stamp:
    sec: 1778500327
    nanosec: 75000000
  frame_id: map
pose:
  pose:
    position:
      x: 2.4588299274856102
      y: -0.9119865055330447
      z: 0.0
    orientation:
      x: 0.0
      y: 0.0
      z: 0.0814741116064967
      w: 0.9966754582801425
  covariance: '<array type: double[36]>'
---
header:
  stamp:
    sec: 1778500327
    nanosec: 717000000
  frame_id: map
pose:
  pose:
    position:
      x: 2.486509221030604
      y: -0.9132414737546386
      z: 0.0
    orientation:
      x: 0.0
      y: 0.0
      z: 0.12328850585367292
      w: 0.992370870352596
  covariance: '<array type: double[36]>'
---
header:
  stamp:
    sec: 1778500328
    nanosec: 199000000
  frame_id: map
pose:
  pose:
    position:
      x: 2.506801008166886
      y: -0.9141258057993287
      z: 0.0
    orientation:
      x: 0.0
      y: 0.0
      z: 0.16040521807524258
      w: 0.9870512479168616
  covariance: '<array type: double[36]>'
---
header:
  stamp:
    sec: 1778500328
    nanosec: 441000000
  frame_id: map
pose:
  pose:
    position:
      x: 2.493949162064537
      y: -0.9094052623198156
      z: 0.0
    orientation:
      x: 0.0
      y: 0.0
      z: 0.19409836255417035
      w: 0.9809820720348511
  covariance: '<array type: double[36]>'
---
header:
  stamp:
    sec: 1778500328
    nanosec: 918000000
  frame_id: map
pose:
  pose:
    position:
      x: 2.527348894971106
      y: -0.9099259290530527
      z: 0.0
    orientation:
      x: 0.0
      y: 0.0
      z: 0.24088841234882197
      w: 0.9705528181382319
  covariance: '<array type: double[36]>'
---
header:
  stamp:
    sec: 1778500329
    nanosec: 558000000
  frame_id: map
pose:
  pose:
    position:
      x: 2.5673254316936025
      y: -0.8648650801584828
      z: 0.0
    orientation:
      x: 0.0
      y: 0.0
      z: 0.27856723116986426
      w: 0.9604167312778112
  covariance: '<array type: double[36]>'
---
header:
  stamp:
    sec: 1778500330
    nanosec: 209000000
  frame_id: map
pose:
  pose:
    position:
      x: 2.641160319541676
      y: -0.8456076153276832
      z: 0.0
    orientation:
      x: 0.0
      y: 0.0
      z: 0.30228084349524703
      w: 0.9532189106683742
  covariance: '<array type: double[36]>'
---
header:
  stamp:
    sec: 1778500332
    nanosec: 46000000
  frame_id: map
pose:
  pose:
    position:
      x: 2.622424202544927
      y: -0.8288177965906609
      z: 0.0
    orientation:
      x: 0.0
      y: 0.0
      z: 0.25829074150245007
      w: 0.9660672299866684
  covariance: '<array type: double[36]>'
---
header:
  stamp:
    sec: 1778500332
    nanosec: 597000000
  frame_id: map
pose:
  pose:
    position:
      x: 2.624741854529511
      y: -0.8231160670203481
      z: 0.0
    orientation:
      x: 0.0
      y: 0.0
      z: 0.21325667286818786
      w: 0.9769962085275412
  covariance: '<array type: double[36]>'
---
header:
  stamp:
    sec: 1778500332
    nanosec: 919000000
  frame_id: map
pose:
  pose:
    position:
      x: 2.631999479560713
      y: -0.8212756790515116
      z: 0.0
    orientation:
      x: 0.0
      y: 0.0
      z: 0.16326145752504534
      w: 0.9865828381270363
  covariance: '<array type: double[36]>'
---
header:
  stamp:
    sec: 1778500333
    nanosec: 322000000
  frame_id: map
pose:
  pose:
    position:
      x: 2.629530975538305
      y: -0.81801395569763
      z: 0.0
    orientation:
      x: 0.0
      y: 0.0
      z: 0.12072863986845601
      w: 0.9926855471474906
  covariance: '<array type: double[36]>'
---
header:
  stamp:
    sec: 1778500334
    nanosec: 117000000
  frame_id: map
pose:
  pose:
    position:
      x: 2.638738531635661
      y: -0.8199949999188847
      z: 0.0
    orientation:
      x: 0.0
      y: 0.0
      z: 0.08098595254549891
      w: 0.9967152429306467
  covariance: '<array type: double[36]>'
---
header:
  stamp:
    sec: 1778500334
    nanosec: 530000000
  frame_id: map
pose:
  pose:
    position:
      x: 2.629813474054785
      y: -0.8187700022879497
      z: 0.0
    orientation:
      x: 0.0
      y: 0.0
      z: 0.03619230001007347
      w: 0.9993448440953607
  covariance: '<array type: double[36]>'
---
header:
  stamp:
    sec: 1778500334
    nanosec: 998000000
  frame_id: map
pose:
  pose:
    position:
      x: 2.6156665707793723
      y: -0.8170803575835333
      z: 0.0
    orientation:
      x: 0.0
      y: 0.0
      z: -0.01172276418361295
      w: 0.9999312860391435
  covariance: '<array type: double[36]>'
---
header:
  stamp:
    sec: 1778500335
    nanosec: 318000000
  frame_id: map
pose:
  pose:
    position:
      x: 2.6312762791505913
      y: -0.8173773068370539
      z: 0.0
    orientation:
      x: 0.0
      y: 0.0
      z: -0.06203015690798578
      w: 0.9980742756097718
  covariance: '<array type: double[36]>'
---
header:
  stamp:
    sec: 1778500335
    nanosec: 644000000
  frame_id: map
pose:
  pose:
    position:
      x: 2.6386363411507325
      y: -0.8645796381781947
      z: 0.0
    orientation:
      x: 0.0
      y: 0.0
      z: -0.13242195440016247
      w: 0.9911934352046735
  covariance: '<array type: double[36]>'
---
header:
  stamp:
    sec: 1778500335
    nanosec: 969000000
  frame_id: map
pose:
  pose:
    position:
      x: 2.6386939949352843
      y: -0.8676744175692723
      z: 0.0
    orientation:
      x: 0.0
      y: 0.0
      z: -0.17902275877985502
      w: 0.9838449328216565
  covariance: '<array type: double[36]>'
---
header:
  stamp:
    sec: 1778500336
    nanosec: 199000000
  frame_id: map
pose:
  pose:
    position:
      x: 2.6244769185059305
      y: -0.862567130500577
      z: 0.0
    orientation:
      x: 0.0
      y: 0.0
      z: -0.2083197614890919
      w: 0.9780607736603733
  covariance: '<array type: double[36]>'
---
header:
  stamp:
    sec: 1778500336
    nanosec: 602000000
  frame_id: map
pose:
  pose:
    position:
      x: 2.623936204422012
      y: -0.856250371703412
      z: 0.0
    orientation:
      x: 0.0
      y: 0.0
      z: -0.2541751514401791
      w: 0.96715820442695
  covariance: '<array type: double[36]>'
---
header:
  stamp:
    sec: 1778500336
    nanosec: 917000000
  frame_id: map
pose:
  pose:
    position:
      x: 2.6270225728835537
      y: -0.8605310090233474
      z: 0.0
    orientation:
      x: 0.0
      y: 0.0
      z: -0.2898055491120154
      w: 0.957085546700964
  covariance: '<array type: double[36]>'
---
header:
  stamp:
    sec: 1778500337
    nanosec: 238000000
  frame_id: map
pose:
  pose:
    position:
      x: 2.6274069512927283
      y: -0.862367725191871
      z: 0.0
    orientation:
      x: 0.0
      y: 0.0
      z: -0.32534352407169653
      w: 0.9455958921995217
  covariance: '<array type: double[36]>'
---
header:
  stamp:
    sec: 1778500337
    nanosec: 644000000
  frame_id: map
pose:
  pose:
    position:
      x: 2.6196186733600606
      y: -0.8590343889324608
      z: 0.0
    orientation:
      x: 0.0
      y: 0.0
      z: -0.366774544241472
      w: 0.9303098589698275
  covariance: '<array type: double[36]>'
---
header:
  stamp:
    sec: 1778500337
    nanosec: 957000000
  frame_id: map
pose:
  pose:
    position:
      x: 2.6172783542010998
      y: -0.8570250510914704
      z: 0.0
    orientation:
      x: 0.0
      y: 0.0
      z: -0.41064161597568094
      w: 0.9117968322103787
  covariance: '<array type: double[36]>'
---
header:
  stamp:
    sec: 1778500338
    nanosec: 276000000
  frame_id: map
pose:
  pose:
    position:
      x: 2.616756663998767
      y: -0.858816975916187
      z: 0.0
    orientation:
      x: 0.0
      y: 0.0
      z: -0.45901936714028946
      w: 0.8884262606373858
  covariance: '<array type: double[36]>'
---
header:
  stamp:
    sec: 1778500338
    nanosec: 602000000
  frame_id: map
pose:
  pose:
    position:
      x: 2.6223056180301048
      y: -0.8576772273762696
      z: 0.0
    orientation:
      x: 0.0
      y: 0.0
      z: -0.5037990959869426
      w: 0.8638208557813011
